     2.00           OBSERVATION DATA    G (GPS)             RINEX VERSION / TYPE
teqc  1999Jul19     autorun             20080809 04:12:47UTCPGM / RUN BY / DATE
MSWinNT 4.0|PentPro|wcl386 10.6|MSWin95/98/NT|486/DX+       COMMENT
BIT 2 OF LLI FLAGS DATA COLLECTED UNDER A/S CONDITION       COMMENT
BJFS                                                        MARKER NAME
21601M001                                                   MARKER NUMBER
QUFENG              CASM                                    OBSERVER / AGENCY
3332                ASHTECH Z-XII3      CD00-1D02           REC # / TYPE / VERS
1126                ASH700936B_M    SNOW                    ANT # / TYPE
        0.0000        0.0000        0.0000                  APPROX POSITION XYZ
        0.0460        0.0000        0.0000                  ANTENNA: DELTA H/E/N
     1     1                                                WAVELENGTH FACT L1/2
     5    L1    L2    C1    P1    P2                        # / TYPES OF OBSERV
    30.0000                                                 INTERVAL
 SNR is mapped to RINEX snr flag value [1-9]                COMMENT
  L1: 1 -> 1;  90 -> 5; 210 -> 9                            COMMENT
  L2: 1 -> 1; 150 -> 5; 250 -> 9                            COMMENT
  2008     8     8     0     0   30.0000000     GPS         TIME OF FIRST OBS
                                                            END OF HEADER
 08  8  8  0  0 30.0000000  0  7G14G12G18G 9G22G21G15
  -8725488.09049  -6369057.78246  22916392.498    22916392.592    22916394.314
 -12414867.20849  -9612840.39946  23209260.550    23209261.193    23209263.136
 -24964594.02049 -19412001.17447  20255752.105    20255751.885    20255753.858
 -25124260.29149 -19494947.04847  20150401.301    20150401.218    20150404.191
 -21748775.89249 -16925178.35447  21188675.698    21188675.765    21188676.645
 -13734171.46149 -10657296.27446  22472712.725    22472712.435    22472714.395
  -6385823.08249  -4939045.16045  24083446.421    24083447.426    24083449.023
 08  8  8  0  1  0.0000000  0  7G14G12G18G 9G22G21G15
  -8791621.52249  -6420590.33846  22903807.800    22903808.114    22903809.865
 -12491674.37049  -9672690.13446  23194644.603    23194645.021    23194647.177
 -24958962.45649 -19407612.95447  20256823.742    20256823.313    20256825.368
 -25085659.06149 -19464868.17047  20157746.834    20157746.732    20157749.668
 -21809747.10949 -16972688.39747  21177073.287    21177073.467    21177073.853
 -13639708.90549 -10583689.10246  22490688.442    22490688.680    22490690.153
  -6304786.19549  -4875899.57945  24098867.611    24098868.690    24098870.658
 08  8  8  0  1 30.0000000  0  7G14G12G18G 9G22G21G15
  -8857619.35549  -6472017.21246  22891248.893    22891248.818    22891251.300
 -12568191.94849  -9732314.21246  23180083.750    23180084.761    23180086.481
 -24952864.27749 -19402861.13547  20257984.154    20257983.780    20257985.802
 -25046473.72149 -19434334.14147  20165203.544    20165203.680    20165206.376
 -21870421.24149 -17019966.94347  21165527.420    21165527.680    21165527.865
 -13544985.17049 -10509878.40146  22508713.727    22508713.402    22508714.479
  -6223710.59649  -4812723.83645  24114295.979    24114296.400    24114298.512
 08  8  8  0  2  0.0000000  0  7G14G12G18G 9G22G21G15
  -8923480.78349  -6523337.80346  22878715.926    22878715.395    22878718.803
 -12644416.02549  -9791709.61146  23165578.847    23165578.973    23165580.720
 -24946298.26149 -19397744.77947  20259233.614    20259233.225    20259235.291
 -25006705.02449 -19403345.55047  20172771.303    20172771.311    20172774.067
 -21930795.28649 -17067011.65547  21154038.658    21154038.494    21154039.043
 -13450001.89149 -10435865.45646  22526788.334    22526787.709    22526790.243
  -6142595.79149  -4749517.50445  24129731.451    24129732.084    24129734.792
 08  8  8  0  2 30.0000000  0  7G14G12G18G 9G22G21G15
  -8989207.07049  -6574553.09146  22866208.664    22866208.743    22866210.929
 -12720344.70149  -9850874.81746  23151130.011    23151130.566    23151132.007
 -24939264.37049 -19392263.83647  20260572.122    20260571.828    20260573.591
 -24966356.38349 -19371905.04547  20180449.364    20180449.356    20180452.237
 -21990868.69249 -17113822.09247  21142607.070    21142606.988    21142607.093
 -13354763.58649 -10361653.79446  22544911.532    22544911.003    22544913.453
  -6061443.35349  -4686281.87545  24145173.924    24145173.194    24145178.068
 08  8  8  0  3  0.0000000  0  7G14G12G18G 9G22G21G15
  -9054797.28649  -6625662.33546  22853727.283    22853727.304    22853729.235
 -12795974.14549  -9909806.85546  23136738.137    23136738.549    23136740.520
 -24931761.23949 -19386417.25147  20261999.945    20261999.590    20262001.461
 -24925429.09049 -19340013.64447  20188237.577    20188237.574    20188240.276
 -22050638.07249 -17160395.62847  21131233.344    21131233.282    21131233.710
 -13259272.73949 -10287245.35546  22563082.753    22563081.933    22563084.834
  -5980252.67149  -4623016.44045  24160624.024    24160624.228    24160626.454
 08  8  8  0  3 30.0000000  0  7G14G12G18G 9G22G21G15
  -9120251.96149  -6676665.96846  22841271.755    22841271.287    22841273.720
 -12871301.65349  -9968503.62846  23122403.799    23122404.063    23122406.458
 -24923788.57149 -19380204.81147  20263517.128    20263516.779    20263518.752
 -24883926.04549 -19307673.60447  20196135.406    20196135.576    20196138.062
 -22110102.51649 -17206731.55647  21119917.600    21119917.555    21119917.934
 -13163533.18649 -10212643.11746  22581301.161    22581300.561    22581304.310
  -5899025.12949  -4559722.28645  24176081.327    24176081.857    24176084.275
 08  8  8  0  4  0.0000000  0  7G14G12G18G 9G22G21G15
  -9185571.88749  -6727564.59546  22828841.717    22828842.161    22828843.924
 -12946324.97249 -10026963.37146  23108127.341    23108127.796    23108130.506
 -24915346.18849 -19373626.35147  20265123.637    20265123.307    20265125.218
 -24841849.89949 -19274886.99247  20204142.243    20204142.343    20204144.926
 -22169260.72549 -17252828.85747  21108660.153    21108660.229    21108660.515
 -13067548.73849 -10137850.03946  22599566.126    22599565.596    22599568.470
  -5817761.19349  -4496399.77645  24191545.472    24191545.631    24191547.766
 08  8  8  0  4 30.0000000  0  7G14G12G18G 9G22G21G15
  -9250756.05249  -6778357.43146  22816437.561    22816437.259    22816439.679
 -13021040.25349 -10085183.09546  23093909.473    23093909.959    23093912.064
 -24906432.21149 -19366680.39547  20266819.887    20266819.593    20266821.700
 -24799201.57649 -19241654.53147  20212257.964    20212258.115    20212260.508
 -22228109.71849 -17298685.22247  21097461.519    21097461.451    21097462.081
 -12971321.75749 -10062867.98946  22617877.310    22617877.159    22617880.106
  -5736460.54249  -4433048.66045  24207016.621    24207016.901    24207018.851
 08  8  8  0  5  0.0000000  0  7G14G12G18G 9G22G21G15
  -9315804.46449  -6829044.48246  22804059.237    22804059.638    22804061.672
 -13095444.44149 -10143160.37646  23079750.870    23079751.900    23079753.301
 -24897046.01249 -19359366.47147  20268606.063    20268605.846    20268607.584
 -24755983.33749 -19207977.98147  20220482.064    20220481.992    20220484.833
 -22286647.46449 -17344299.05147  21086322.131    21086322.063    21086322.392
 -12874855.23749  -9987699.29446  22636234.294    22636234.321    22636237.446
  -5655123.23049  -4369668.96745  24222494.446    24222494.256    24222497.074
 08  8  8  0  5 30.0000000  0  7G14G12G18G 9G22G21G15
  -9380717.08249  -6879625.75646  22791706.639    22791705.730    22791708.948
 -13169534.35249 -10200892.78146  23065652.060    23065653.051    23065655.016
 -24887186.88349 -19351684.06047  20270482.199    20270481.977    20270483.836
 -24712197.74949 -19173859.34847  20228814.176    20228814.003    20228816.828
 -22344871.93449 -17389668.77147  21075242.333    21075242.363    21075242.867
 -12778152.36049  -9912346.40346  22654636.211    22654636.272    22654638.343
  -5573749.79249  -4306261.13845  24237979.249    24237979.346    24237982.535
 08  8  8  0  6  0.0000000  0  7G14G12G18G 9G22G21G15
  -9445494.41049  -6930101.58346  22779379.758    22779379.644    22779382.944
 -13243307.58749 -10258378.41546  23051613.493    23051613.530    23051616.259
 -24876854.33349 -19343632.73647  20272448.436    20272448.256    20272450.159
 -24667847.40249 -19139300.64647  20237253.708    20237253.611    20237256.394
 -22402781.25449 -17434792.91647  21064222.568    21064222.652    21064222.991
 -12681216.67549  -9836812.13245  22673082.500    22673082.622    22673084.686
  -5492341.00949  -4242825.76645  24253470.926    24253471.571    24253473.217
 08  8  8  0  6 30.0000000  0  7G14G12G18G 9G22G21G15
  -9510135.57949  -6980471.30546  22767078.992    22767079.009    22767081.506
 -13316760.37849 -10315614.36746  23037635.943    23037636.096    23037637.597
 -24866046.92449 -19335211.40047  20274505.087    20274504.682    20274506.614
 -24622933.31049 -19104302.66447  20245800.541    20245800.424    20245803.145
 -22460373.15849 -17479669.72247  21053263.162    21053262.959    21053263.585
 -12584050.77149  -9761098.44945  22691572.715    22691573.071    22691575.662
  -5410896.49949  -4179362.55845  24268969.070    24268969.042    24268972.575
 08  8  8  0  7  0.0000000  0  7G14G12G18G 9G22G21G15
  -9574641.23949  -7030735.43846  22754804.012    22754803.168    22754806.306
 -13389890.53049 -10372598.89946  23023719.690    23023719.671    23023721.988
 -24854764.63149 -19326420.01447  20276652.028    20276651.646    20276653.705
 -24577458.26949 -19068867.57447  20254454.181    20254454.233    20254457.133
 -22517646.09049 -17524297.97647  21042364.468    21042364.604    21042364.864
 -12486658.51649  -9685208.39645  22710106.168    22710106.151    22710108.873
  -5329416.96349  -4115872.05545  24284474.034    24284474.938    24284478.082
 08  8  8  0  7 30.0000000  0  7G14G12G18G 9G22G21G15
  -9639011.47449  -7080894.05646  22742554.804    22742555.207    22742557.500
 -13462695.48649 -10429330.04246  23009865.368    23009865.751    23009867.760
 -24843007.31549 -19317258.49147  20278889.372    20278889.177    20278890.943
 -24531425.15149 -19032997.61547  20263214.027    20263214.139    20263216.790
 -22574598.86449 -17568676.76347  21031526.692    21031526.897    21031527.184
 -12389043.66549  -9609144.89345  22728681.720    22728681.291    22728683.370
  -5247903.33549  -4052354.97645  24299985.632    24299986.050    24299990.191
 08  8  8  0  8  0.0000000  0  7G14G12G18G 9G22G21G15
  -9703247.01949  -7130947.71846  22730331.222    22730331.019    22730333.372
 -13535172.62449 -10485805.71346  22996073.504    22996074.249    22996075.573
 -24830774.75649 -19307726.64947  20281217.172    20281216.736    20281218.866
 -24484836.45349 -18996694.73647  20272079.562    20272079.541    20272082.319
 -22631229.44949 -17612804.49547  21020750.260    21020750.707    21020750.730
 -12291209.71949  -9532910.65545  22747298.861    22747298.343    22747300.075
  -5166356.15049  -3988811.77845  24315503.494    24315503.577    24315506.808
 08  8  8  0  8 30.0000000  0  7G14G12G18G 9G22G21G15
  -9767346.91349  -7180895.67946  22718133.488    22718134.173    22718135.934
 -13607317.80149 -10542022.72346  22982344.726    22982345.253    22982348.041
 -24818064.84249 -19297822.83147  20283635.753    20283635.162    20283637.319
 -24437693.49949 -18959959.97647  20281050.607    20281050.651    20281053.329
 -22687534.62349 -17656678.65747  21010035.783    21010035.945    21010036.560
 -12193158.85749  -9456507.40745  22765957.206    22765956.586    22765958.441
  -5084774.58649  -3925241.78145  24331027.960    24331029.169    24331031.179
 08  8  8  0  9  0.0000000  0  7G14G12G18G 9G22G21G15
  -9831309.91949  -7230736.97746  22705961.771    22705961.280    22705963.947
 -13679127.23549 -10597978.12146  22968679.815    22968679.814    22968682.161
 -24804876.12849 -19287545.91447  20286145.431    20286144.994    20286147.220
 -24389997.53049 -18922794.29247  20290126.845    20290127.017    20290129.781
 -22743511.70049 -17700297.16847  20999383.671    20999383.869    20999384.649
 -12094893.00549  -9379936.61945  22784656.465    22784655.691    22784657.961
  -5003158.16049  -3861644.63045  24346559.062    24346559.198    24346563.181
 08  8  8  0  9 30.0000000  0  7G14G12G18G 9G22G21G15
  -9895136.37249  -7280471.85946  22693815.982    22693816.148    22693817.963
 -13750597.99449 -10653669.59346  22955079.295    22955079.999    22955081.679
 -24791208.23349 -19276895.60147  20288746.334    20288745.993    20288748.207
 -24341751.01249 -18885199.60547  20299307.871    20299307.742    20299310.753
 -22799158.83549 -17743658.56947  20988794.352    20988794.540    20988795.330
 -11996415.74549  -9303201.10445  22803396.070    22803396.017    22803398.078
  -4921507.36149  -3798020.67745  24362096.458    24362097.171    24362100.114
 08  8  8  0 10 30.0000000  0  7G14G12G18G 9G22G21G15
 -10022402.26149  -7379640.07346  22669598.072    22669597.444    22669600.031
 -13892535.41249 -10764270.10846  22928069.474    22928069.568    22928072.348
 -24762456.18149 -19254491.43547  20294217.660    20294217.506    20294219.531
 -24243638.91549 -18808748.63147  20317977.978    20317978.066    20317980.661
 -22909478.97849 -17829622.33547  20967801.138    20967801.213    20967801.934
 -11798863.63049  -9149264.44145  22840989.013    22840989.242    22840990.620
  -4758126.65149  -3670711.13045  24393186.844    24393186.968    24393191.007
 08  8  8  0 11  0.0000000  0  7G14G12G18G 9G22G21G15
 -10085811.61749  -7429049.96046  22657531.663    22657530.888    22657534.306
 -13962966.34449 -10819151.33346  22914666.955    22914667.676    22914669.472
 -24747340.74149 -19242713.19147  20297094.031    20297093.864    20297095.973
 -24193748.27549 -18769872.80747  20327471.869    20327471.954    20327474.617
 -22964118.00249 -17872198.20747  20957403.660    20957403.991    20957404.143
 -11699765.03949  -9072044.78945  22859846.890    22859845.828    22859848.155
  -4676367.62949  -3607002.87245  24408745.330    24408746.377    24408748.066
 08  8  8  0 11 30.0000000  0  7G14G12G18G 9G22G21G15
 -10149088.88349  -7478356.91746  22645490.347    22645490.263    22645493.367
 -14033051.80949 -10873763.34546  22901330.149    22901330.599    22901333.431
 -24731748.28749 -19230563.24347  20300061.202    20300061.000    20300063.103
 -24143321.51349 -18730579.23347  20337067.754    20337067.591    20337070.638
 -23018424.05649 -17914514.62347  20947069.592    20947069.695    20947070.177
 -11600472.87649  -8994674.27545  22878741.593    22878741.117    22878744.342
  -4594580.09249  -3543272.36345  24424309.390    24424310.462    24424313.781
 08  8  8  0 12  0.0000000  0  8G14G12G18G30G 9G22G21G15
 -10212232.01949  -7527559.35646  22633474.588    22633474.162    22633477.219
 -14102786.97249 -10928102.40146  22888059.846    22888059.866    22888062.329
 -24715676.46549 -19218039.75147  20303119.644    20303119.303    20303121.539
   -761760.14249   -561673.21543
 -24092358.52049 -18690867.81847  20346765.701    20346765.697    20346768.571
 -23072392.97649 -17956568.33947  20936799.702    20936800.005    20936800.343
 -11500988.24549  -8917153.81545  22897672.972    22897672.291    22897675.141
  -4512762.41249  -3479518.36545  24439878.843    24439878.984    24439882.640
 08  8  8  0 12 30.0000000  0  8G14G12G18G30G 9G22G21G15
 -10275239.89549  -7576656.39546  22621484.528    22621484.322    22621487.389
 -14172167.34949 -10982165.01946  22874857.160    22874857.276    22874859.319
 -24699123.09549 -19205141.03347  20306269.715    20306269.282    20306271.413
   -869575.92149   -645685.62143
 -24040860.48649 -18650739.49247  20356565.475    20356565.283    20356568.380
 -23126021.14549 -17998356.53247  20926594.646    20926594.860    20926595.085
 -11401312.62849  -8839484.51945  22916640.714    22916640.970    22916643.058
  -4430912.84449  -3415739.52545  24455454.196    24455455.450    24455456.882
 08  8  8  0 13  0.0000000  0  8G14G12G18G30G 9G22G21G15
 -10338111.89049  -7625647.53746  22609520.415    22609520.295    22609522.959
 -14241190.01849 -11035948.89146  22861722.513    22861722.769    22861723.902
 -24682087.53449 -19191866.57847  20309511.473    20309511.208    20309513.186
   -977415.95149   -729716.91343
 -23988829.80649 -18610196.11047  20366466.542    20366466.469    20366469.404
 -23179306.49449 -18039877.58247  20916454.804    20916455.010    20916455.076
 -11301449.40449  -8761669.04745  22935644.202    22935644.664    22935646.163
  -4349031.98549  -3351936.31145  24471035.671    24471037.553    24471038.381
 08  8  8  0 13 30.0000000  0  8G14G12G18G30G 9G22G21G15
 -10400847.78449  -7674532.64346  22597582.149    22597581.780    22597584.383
 -14309851.45749 -11089451.27546  22848656.633    22848657.184    22848659.219
 -24664569.08649 -19178215.85847  20312845.138    20312845.050    20312846.704
  -1085276.92949   -813764.49745                                  24309770.812
 -23936268.23449 -18569239.05347  20376468.674    20376468.684    20376471.498
 -23232246.85449 -18081129.81047  20906380.546    20906380.604    20906381.053
 -11201401.17149  -8683709.41345  22954682.916    22954682.864    22954685.109
  -4267119.39549  -3288108.33545  24486622.995    24486623.823    24486627.317
 08  8  8  0 14  0.0000000  0  8G14G12G18G30G 9G22G21G15
 -10463447.07949  -7723311.29446  22585669.887    22585669.646    22585671.476
 -14378148.58449 -11142669.78646  22835660.300    22835660.821    22835662.729
 -24646566.93549 -19164188.20747  20316270.862    20316270.599    20316272.511
  -1193155.96249   -897826.09745  24289239.554    24289240.529    24289242.245
 -23883177.89449 -18527869.95947  20386571.394    20386571.120    20386574.231
 -23284840.09349 -18122111.54547  20896372.376    20896372.482    20896373.081
 -11101170.82349  -8605607.87145  22973756.157    22973755.840    22973757.352
  -4185175.69149  -3224256.17245  24502216.267    24502217.408    24502219.315
 08  8  8  0 14 30.0000000  0  8G14G12G18G30G 9G22G21G15
 -10525910.28149  -7771983.89446  22573783.484    22573782.845    22573786.022
 -14446079.17049 -11195602.67946  22822733.595    22822733.800    22822735.628
 -24628080.97349 -19149783.58547  20319788.654    20319788.543    20319790.147
  -1301050.46649   -981899.76145  24268707.841    24268708.942    24268710.654
 -23829561.68449 -18486091.10047  20396774.163    20396774.077    20396777.133
 -23337084.48249 -18162821.46347  20886430.631    20886430.765    20886431.083
 -11000762.18549  -8527367.40545  22992863.233    22992863.292    22992865.087
  -4103201.03549  -3160379.86745  24517815.620    24517816.899    24517818.897
 08  8  8  0 15  0.0000000  0  8G14G12G18G30G 9G22G21G15
 -10588236.25549  -7820549.55846  22561923.239    22561922.666    22561926.250
 -14513639.26049 -11248246.87846  22809877.217    22809877.231    22809879.008
 -24609109.81749 -19135000.89847  20323398.789    20323398.794    20323400.326
  -1408956.33349  -1065982.27245  24248173.898    24248175.947    24248175.543
 -23775421.13449 -18443903.66947  20407076.768    20407077.015    20407079.733
 -23388977.05049 -18203257.23347  20876555.782    20876556.051    20876556.466
 -10900177.28749  -8448989.58445  23012003.960    23012004.591    23012006.386
  -4021194.75549  -3096478.93445  24533421.295    24533422.235    24533424.629
 08  8  8  0 15 30.0000000  0  8G14G12G18G30G 9G22G21G15
 -10650425.88949  -7869008.98146  22550088.885    22550089.558    22550091.863
 -14580827.04149 -11300600.96846  22797091.623    22797092.581    22797094.314
 -24589653.90449 -19119840.48147  20327101.150    20327100.871    20327102.818
  -1516871.38649  -1150071.89945  24227638.371    24227638.425    24227641.372
 -23720759.42749 -18401310.13447  20417478.601    20417478.794    20417481.490
 -23440516.69749 -18243418.00347  20866748.177    20866748.521    20866748.502
 -10799420.07449  -8370477.49745  23031177.494    23031177.757    23031179.545
  -3939158.02248  -3032554.25744  24549032.494    24549033.957    24549036.882
 08  8  8  0 16  0.0000000  0  8G14G12G18G30G 9G22G21G15
 -10712478.22849  -7917361.42246  22538280.655    22538280.913    22538283.694
 -14647638.70449 -11352661.97446  22784377.849    22784378.623    22784380.400
 -24569711.88749 -19104301.27947  20330896.025    20330895.704    20330897.750
  -1624792.14249  -1234165.98745  24207101.589    24207102.072    24207103.882
 -23665578.12549 -18358311.71547  20427979.268    20427979.264    20427982.047
 -23491700.83749 -18283301.75447  20857008.159    20857008.204    20857008.333
 -10698493.29249  -8291833.27445  23050383.243    23050383.661    23050385.202
  -3857090.23949  -2968605.37144  24564649.359    24564649.517    24564650.719
 08  8  8  0 16 30.0000000  0  8G14G12G18G30G 9G22G21G15
 -10774395.14749  -7965608.34946  22526498.235    22526498.050    22526500.200
 -14714073.35049 -11404429.21446  22771735.851    22771736.405    22771738.041
 -24549285.24349 -19088384.43547  20334783.052    20334782.603    20334784.711
  -1732717.84449  -1318263.91045  24186563.879    24186563.201    24186567.574
 -23609882.14749 -18314912.25847  20438577.887    20438578.067    20438580.728
 -23542529.09449 -18322908.19647  20847335.842    20847335.820    20847336.113
 -10597401.83849  -8213060.73045  23069620.262    23069620.024    23069621.697
  -3774993.66549  -2904634.04044  24580271.855    24580270.593    24580275.124
 08  8  8  0 17  0.0000000  0  8G14G12G18G30G 9G22G21G15
 -10836174.37649  -8013747.99446  22514741.947    22514741.719    22514744.339
 -14780125.67049 -11455898.53946  22759166.532    22759166.737    22759168.495
 -24528371.13049 -19072087.74547  20338762.872    20338762.618    20338764.634
  -1840642.88049  -1402361.34445  24166026.217    24166025.739    24166029.806
 -23553671.21449 -18271111.54047  20449274.474    20449274.362    20449277.322
 -23592997.18149 -18362233.98847  20837732.044    20837732.178    20837732.642
 -10496146.51449  -8134160.51045  23088888.545    23088888.075    23088890.422
  -3692865.91449  -2840638.42844  24595900.407    24595901.442    24595902.940
 08  8  8  0 17 30.0000000  0  8G14G12G18G30G 9G22G21G15
 -10897816.23749  -8061780.58846  22503011.850    22503011.259    22503013.755
 -14845793.69749 -11507068.41446  22746670.200    22746670.158    22746672.735
 -24506969.93749 -19055411.51247  20342835.401    20342835.088    20342837.298
  -1948565.05049  -1486456.54245  24145489.282    24145490.015    24145493.528
 -23496948.50349 -18226912.02347  20460068.404    20460068.359    20460071.145
 -23643104.16049 -18401278.40047  20828197.004    20828197.249    20828197.399
 -10394731.43849  -8055135.79345  23108187.237    23108188.174    23108188.122
  -3610708.11049  -2776619.39944  24611534.515    24611535.798    24611538.439
 08  8  8  0 18  0.0000000  0  8G14G12G18G30G 9G22G21G15
 -10959320.49649  -8109705.94646  22491307.901    22491308.021    22491310.772
 -14911074.33549 -11557936.44946  22734247.691    22734247.598    22734249.509
 -24485080.92149 -19038355.15447  20347000.728    20347000.345    20347002.474
  -2056481.08049  -1570546.94445  24124953.710    24124954.052    24124957.275
 -23439716.22349 -18182315.44447  20470959.323    20470959.370    20470962.007
 -23692847.35749 -18440039.34347  20818731.205    20818731.152    20818731.632
 -10293159.17749  -7975988.60445  23127515.883    23127516.454    23127517.614
  -3528519.97349  -2712576.74644  24627174.200    24627173.662    24627179.078
 08  8  8  0 18 30.0000000  0  8G14G12G18G30G 9G22G21G15
 -11020687.79449  -8157524.57946  22479630.057    22479629.546    22479632.451
 -14975965.33949 -11608500.86946  22721899.385    22721898.877    22721901.469
 -24462704.30849 -19020918.83147  20351258.866    20351258.687    20351260.686
  -2164388.85049  -1654630.92345  24104419.537    24104420.487    24104422.708
 -23381977.43049 -18137324.18047  20481946.732    20481946.673    20481949.360
 -23742225.46749 -18478515.79247  20809334.859    20809335.027    20809335.557
 -10191433.65549  -7896721.98045  23146873.662    23146872.554    23146875.855
  -3446302.49548  -2648511.25444  24642819.739    24642819.921    24642822.168
 08  8  8  0 19  0.0000000  0  8G14G12G18G30G 9G22G21G15
 -11081917.72449  -8205236.18146  22467978.334    22467978.292    22467980.498
 -15040463.93749 -11658759.52246  22709625.693    22709625.793    22709628.256
 -24439839.78049 -19003102.32047  20355609.875    20355609.695    20355611.644
  -2272285.07049  -1738705.86445  24083887.645    24083888.901    24083891.706
 -23323734.53649 -18091940.10947  20493029.952    20493029.881    20493032.707
 -23791236.65549 -18516706.33847  20800008.344    20800008.364    20800009.001
 -10089558.13549  -7817338.49345  23166259.924    23166260.432    23166262.428
  -3364055.63149  -2584422.86944  24658471.029    24658472.475    24658473.870
 08  8  8  0 19 30.0000000  0  8G14G12G18G30G 9G22G21G15
 -11143010.34549  -8252840.80346  22456352.855    22456352.581    22456355.786
 -15104567.23949 -11708710.12946  22697427.297    22697427.088    22697429.523
 -24416486.98049 -18984905.34747  20360053.765    20360053.548    20360055.469
  -2380166.77749  -1822769.52845  24063358.467    24063358.574    24063362.128
 -23264989.77449 -18046164.97447  20504208.752    20504208.752    20504211.807
 -23839878.76849 -18554609.28347  20790752.086    20790752.122    20790752.541
  -9987535.72449  -7737840.53445  23185674.311    23185672.833    23185676.643
  -3281779.76048  -2520311.87744  24674127.765    24674127.547    24674130.767
 08  8  8  0 20  0.0000000  0  8G14G12G18G30G 9G22G21G15
 -11203965.48049  -8300338.29046  22444753.479    22444753.431    22444756.543
 -15168272.69849 -11758350.73946  22685304.551    22685305.400    22685306.601
 -24392645.54449 -18966327.63447  20364590.672    20364590.278    20364592.426
  -2488031.65449  -1906820.07845  24042832.377    24042832.803    24042836.559
 -23205746.28449 -18000001.22847  20515482.486    20515482.507    20515485.162
 -23888149.95749 -18592223.20247  20781566.329    20781566.271    20781567.225
  -9885369.43549  -7658230.47545  23205115.773    23205115.603    23205118.254
  -3199475.26649  -2456178.59244  24689789.773    24689791.133    24689792.220
 08  8  8  0 20 30.0000000  0  8G14G12G18G30G 9G22G21G15
 -11264782.14649  -8347727.89646  22433180.428    22433180.842    22433182.787
 -15231576.10749 -11807678.04946  22673258.384    22673258.720    22673261.278
 -24368314.05549 -18947368.04947  20369220.761    20369220.452    20369222.573
  -2595875.27149  -1990854.05145  24022310.218    24022310.391    24022314.378
 -23146005.50149 -17953449.96547  20526850.746    20526850.367    20526853.460
 -23936047.18749 -18629545.71147  20772451.772    20772451.831    20772452.663
  -9783061.22849  -7578509.82145  23224584.291    23224583.525    23224586.643
  -3117140.49949  -2392021.70444  24705457.461    24705459.786    24705460.295
 08  8  8  0 21  0.0000000  0  8G14G12G18G30G 9G22G21G15
 -11325461.76549  -8395010.72246  22421633.607    22421634.455    22421636.282
 -15294476.27649 -11856691.16546  22661288.934    22661289.266    22661290.659
 -24343494.04349 -18928027.80947  20373943.880    20373943.592    20373945.623
  -2703695.92449  -2074870.14145  24001792.520    24001792.355    24001796.023
 -23085771.36449 -17906514.28247  20538312.876    20538312.812    20538315.699
 -23983569.86549 -18666576.37547  20763408.527    20763408.621    20763409.074
  -9680615.84249  -7498682.27645  23244078.984    23244078.729    23244080.806
  -3034778.00149  -2327843.24044  24721130.469    24721128.649    24721133.355
 08  8  8  0 21 30.0000000  0  8G14G12G18G30G 9G22G21G15
 -11386003.52849  -8442186.12846  22410112.971    22410112.592    22410115.667
 -15356970.36049 -11905387.84146  22649396.704    22649396.529    22649398.636
 -24318184.22749 -18908305.91547  20378760.179    20378760.118    20378762.140
  -2811490.13949  -2158865.63045  23981279.895    23981281.424    23981283.547
 -23025045.52649 -17859195.45347  20549868.691    20549868.822    20549871.419
 -24030715.56449 -18703313.28447  20754436.980    20754437.302    20754437.607
  -9578035.80949  -7418749.81645  23263599.462    23263599.835    23263601.176
  -2952387.15148  -2263642.61444  24736809.089    24736809.293    24736813.227
 08  8  8  0 22  0.0000000  0  8G14G12G18G30G 9G22G21G15
 -11446407.22649  -8489253.94646  22398618.516    22398618.849    22398620.975
 -15419055.42349 -11953765.81046  22637582.182    22637581.948    22637584.751
 -24292384.46849 -18888202.23447  20383669.825    20383669.519    20383671.600
  -2919254.85149  -2242838.11245  23960773.145    23960772.682    23960776.702
 -22963830.57549 -17811495.49347  20561517.519    20561517.378    20561520.344
 -24077482.32749 -18739754.91247  20745537.636    20745537.903    20745538.192
  -9475324.65449  -7338715.19945  23283144.901    23283145.374    23283146.545
  -2869968.20749  -2199420.10644  24752492.926    24752494.675    24752497.696
 08  8  8  0 22 30.0000000  0  8G14G12G18G30G 9G22G21G15
 -11506670.61349  -8536212.42246  22387150.749    22387150.678    22387152.979
 -15480726.52349 -12001821.21246  22625846.446    22625846.872    22625848.555
 -24266092.31549 -18867714.85747  20388673.031    20388672.786    20388674.720
  -3026985.33649  -2326783.90845  23940272.623    23940272.454    23940275.990
 -22902127.34549 -17763415.04947  20573259.248    20573259.199    20573262.018
 -24123866.13949 -18775898.13947  20736711.148    20736711.234    20736711.462
  -9372483.03849  -7258578.89945  23302715.158    23302715.046    23302717.329
  -2787518.92648  -2135173.97144  24768182.417    24768183.353    24768185.969
 08  8  8  0 23  0.0000000  0  8G14G12G18G30G 9G22G21G15
 -11566791.56849  -8583059.92046  22375710.114    22375709.728    22375712.628
 -15541978.48149 -12049550.01546  22614190.632    22614191.421    22614193.587
 -24239305.48049 -18846842.02447  20393770.396    20393770.337    20393772.187
  -3134675.98549  -2410698.71445  23919779.802    23919780.590    23919782.986
 -22839936.03549 -17714954.29747  20585093.882    20585093.776    20585096.460
 -24169862.81149 -18811739.70147  20727958.295    20727958.103    20727958.705
  -9269512.09549  -7178341.81445  23322309.793    23322309.631    23322312.066
  -2705037.37548  -2070902.70344  24783877.977    24783880.666    24783881.610
 08  8  8  0 23 30.0000000  0  8G14G12G18G30G 9G22G21G15
 -11626776.59049  -8629801.47546  22364295.274    22364295.520    22364297.368
 -15602815.73749 -12096955.65646  22602613.644    22602613.886    22602616.189
 -24212030.56449 -18825588.84947  20398960.690    20398960.344    20398962.371
  -3242330.37249  -2494585.23645  23899293.666    23899293.344    23899297.148
 -22777265.80949 -17666120.35347  20597019.573    20597019.700    20597022.198
 -24215477.21649 -18847283.39347  20719278.079    20719278.122    20719278.430
  -9166421.63649  -7098011.61045  23341927.024    23341925.951    23341928.753
  -2622530.55848  -2006611.73144  24799578.655    24799580.408    24799583.383
 08  8  8  0 24  0.0000000  0  8G14G12G18G30G 9G22G21G15
 -11686624.67749  -8676436.34046  22352906.488    22352905.805    22352908.572
 -15663234.65349 -12144035.33546  22591116.417    22591116.965    22591118.748
 -24184266.30849 -18803954.38147  20404244.052    20404243.676    20404245.687
  -3349944.74649  -2578440.58545  23878815.320    23878816.559    23878818.945
 -22714118.54349 -17616914.69747  20609036.100    20609036.131    20609038.932
 -24260706.33549 -18882526.87347  20710671.281    20710671.261    20710671.671
  -9063213.66149  -7017589.84545  23361566.802    23361566.794    23361568.540
  -2539997.71948  -1942300.50844  24815284.213    24815284.226    24815290.442
 08  8  8  0 24 30.0000000  0  8G14G12G18G30G 9G22G21G15
 -11746334.86149  -8722963.74546  22341544.067    22341544.091    22341546.187
 -15723231.99349 -12190786.51746  22579699.284    22579699.879    22579701.698
 -24156011.62349 -18781937.75247  20409620.741    20409620.484    20409622.492
  -3457515.28749  -2662261.77845  23858345.414    23858345.621    23858349.048
 -22650496.11849 -17567338.78147  20621143.011    20621142.920    20621145.649
 -24305547.57249 -18917468.10147  20702138.266    20702138.268    20702138.772
  -8959890.65849  -6937078.41845  23381228.482    23381228.083    23381230.075
  -2457438.11948  -1877968.36244  24830994.780    24830996.109    24830997.367
 08  8  8  0 25  0.0000000  0  8G14G12G18G30G 9G22G21G15
 -11805908.39249  -8769384.66946  22330207.561    22330207.889    22330210.503
 -15782805.99749 -12237207.84546  22568362.733    22568363.197    22568365.275
 -24127268.06949 -18759540.17347  20415090.451    20415090.167    20415092.146
  -3565040.41349  -2746047.58645  23837884.148    23837885.295    23837888.188
 -22586402.41049 -17517395.63647  20633339.676    20633339.556    20633342.497
 -24350000.46749 -18952106.72747  20693679.158    20693679.144    20693679.728
  -8856457.28649  -6856481.02245  23400911.175    23400910.747    23400912.660
  -2374853.36148  -1813616.68444  24846710.014    24846714.647    24846712.432
 08  8  8  0 25 30.0000000  0  8G14G12G18G30G 9G22G21G15
 -11865342.97849  -8815697.30246  22318897.561    22318897.109    22318899.939
 -15841952.14949 -12283295.76646  22557107.638    22557107.579    22557110.410
 -24098033.23749 -18736759.79747  20420653.672    20420653.356    20420655.498
  -3672514.78949  -2829793.84945  23817432.670    23817432.974    23817435.554
 -22521837.89849 -17467085.63147  20645625.830    20645625.861    20645628.812
 -24394060.79649 -18986439.46247  20685294.772    20685294.878    20685295.150
  -8752914.32749  -6775798.22045  23420614.590    23420613.886    23420616.373
  -2292241.48548  -1749243.85644  24862430.559    24862430.518    24862431.644
 08  8  8  0 26  0.0000000  0  8G14G12G18G30G 9G22G21G15
 -11924638.50249  -8861901.56946  22307614.020    22307613.401    22307616.264
 -15900667.48049 -12329047.97946  22545934.471    22545934.584    22545937.010
 -24068306.57349 -18713596.17047  20426310.454    20426310.080    20426312.311
  -3779935.31749  -2913498.14845  23796991.180    23796991.745    23796994.639
 -22456804.90549 -17416410.57447  20658001.202    20658001.173    20658003.956
 -24437726.42949 -19020464.64047  20676985.488    20676985.621    20676986.072
  -8649264.76149  -6695032.36745  23440338.553    23440338.761    23440340.366
  -2209602.54248  -1684849.94344  24878156.546    24878160.418    24878160.797
 08  8  8  0 26 30.0000000  0  8G14G12G18G30G 9G22G21G15
 -11983795.62649  -8907998.02646  22296356.835    22296356.614    22296359.055
 -15958950.58449 -12374463.38646  22534843.527    22534843.852    22534845.708
 -24038089.24649 -18690050.21047  20432060.581    20432060.159    20432062.285
  -3887300.16449  -2997159.04845  23776560.431    23776561.069    23776564.185
 -22391307.08449 -17365373.32347  20670465.047    20670465.075    20670467.691
 -24480996.55649 -19054181.62847  20668751.467    20668751.551    20668752.114
  -8545512.86849  -6614186.77145  23460082.193    23460081.803    23460083.486
  -2126937.56448  -1620435.69644  24893887.839    24893887.081    24893891.155
 08  8  8  0 27  0.0000000  0  8G14G12G18G30G 9G22G21G15
 -12042812.86449  -8953985.47346  22285126.191    22285126.388    22285128.765
 -16016797.66149 -12419539.02746  22523835.640    22523836.223    22523838.015
 -24007379.90249 -18666120.86447  20437904.398    20437904.043    20437906.249
  -3994604.84449  -3080773.06845  23756141.130    23756141.875    23756144.306
 -22325346.20949 -17313975.24147  20683016.992    20683016.755    20683019.591
 -24523868.03749 -19087587.98947  20660593.344    20660593.569    20660593.894
  -8441660.16549  -6533262.60045  23479844.832    23479844.632    23479847.399
  -2044245.76348  -1556000.51744  24909623.564    24909621.688    24909624.119
 08  8  8  0 27 30.0000000  0  8G14G12G18G30G 9G22G21G15
 -12101689.89249  -8999863.67346  22273922.249    22273922.215    22273925.240
 -16074205.60149 -12464272.47046  22512911.158    22512911.366    22512913.389
 -23976178.12849 -18641807.81047  20443841.933    20443841.613    20443843.850
  -4101845.94249  -3164337.53645  23735733.731    23735733.893    23735736.757
 -22258924.34449 -17262217.95447  20695656.573    20695656.455    20695659.419
 -24566338.39249 -19120681.78247  20652511.469    20652511.434    20652512.089
  -8337709.85649  -6452262.39845  23499625.827    23499625.688    23499627.291
  -1961526.81248  -1491544.26144  24925364.085    24925364.599    24925366.770
 08  8  8  0 28  0.0000000  0  8G14G12G18G30G 9G22G21G15
 -12160427.48249  -9045633.21546  22262744.882    22262745.052    22262747.430
 -16131172.79249 -12508662.48946  22502070.688    22502070.990    22502072.941
 -23944484.73649 -18617111.67047  20449873.028    20449872.778    20449874.876
  -4209020.97549  -3247850.54045  23715338.914    23715339.072    23715342.010
 -22192044.85049 -17210104.08347  20708383.355    20708383.335    20708386.056
 -24608406.71449 -19153462.29647  20644506.117    20644506.136    20644506.699
  -8233665.65549  -6371189.02145  23519424.712    23519424.611    23519427.307
  -1878781.67048  -1427067.55444  24941110.230    24941109.759    24941110.557
 08  8  8  0 28 30.0000000  0  8G14G12G18G30G 9G22G21G15
 -12219025.09649  -9091293.69946  22251594.077    22251593.792    22251596.500
 -16187696.63349 -12552707.04446  22491314.636    22491314.797    22491317.179
 -23912299.32149 -18592032.14947  20455997.754    20455997.568    20455999.630
  -4316126.80349  -3331309.60345  23694957.078    23694956.933    23694960.844
 -22124710.35049 -17157635.62447  20721196.733    20721196.704    20721199.365
 -24650071.14149 -19185928.09147  20636577.633    20636577.914    20636578.315
  -8129530.63649  -6290044.89045  23539240.909    23539241.192    23539242.730
  -1796009.93048  -1362570.10644  24956861.485    24956861.454
 08  8  8  0 29  0.0000000  0  8G14G12G18G30G 9G22G21G15
 -12277482.55249  -9136844.95746  22240469.927    22240469.184    22240472.696
 -16243774.12349 -12596403.79846  22480643.344    22480643.235    22480645.963
 -23879621.98849 -18566569.29947  20462216.117    20462215.803    20462217.750
  -4423160.30549  -3414712.30245  23674589.165    23674589.423    23674592.669
 -22056923.29949 -17104814.56147  20734096.193    20734096.324    20734099.097
 -24691329.82549 -19218077.71747  20628726.383    20628726.380    20628726.818
  -8025307.88149  -6208832.39545  23559073.874    23559073.633    23559076.931
  -1713212.14758  -1298052.34944  24972617.142    24972621.094
 08  8  8  0 29 30.0000000  0  8G14G12G18G30G 9G22G21G15
 -12335800.69649  -9182287.65846  22229372.248    22229372.006    22229374.706
 -16299403.74249 -12639751.55946  22470057.306    22470057.413    22470059.993
 -23846453.47749 -18540723.72747  20468527.891    20468527.483    20468529.655
  -4530119.09549  -3498056.78645  23654235.652    23654235.973    23654238.567
 -21988687.22349 -17051643.56747  20747081.028    20747080.995    20747083.875
 -24732181.27849 -19249910.02647  20620952.620    20620952.791    20620953.007
  -7921001.00849  -6127554.33845  23578922.912    23578923.341    23578924.267
  -1630389.34148  -1233515.10044
 08  8  8  0 30  0.0000000  0  8G14G12G18G30G 9G22G21G15
 -12393978.63849  -9227621.13346  22218301.309    22218301.060    22218304.435
 -16354582.54049 -12682748.04046  22459557.251    22459557.362    22459559.835
 -23812793.35849 -18514495.07947  20474933.224    20474932.819    20474935.188
  -4636999.84449  -3581340.47745  23633896.803    23633897.183    23633899.777
 -21920004.45849 -16998124.52847  20760150.936    20760151.046    20760153.771
 -24772623.29849 -19281423.30247  20613256.739    20613256.819    20613257.237
  -7816612.67749  -6046212.80945  23598787.415    23598786.780    23598789.157
  -1547540.78748  53592608.21443
 08  8  8  0 30 30.0000000  0  8G14G12G18G30G 9G22G21G15
 -12452016.50549  -9272845.43246  22207257.114    22207257.456    22207259.982
 -16409308.47949 -12725391.63746  22449143.267    22449143.411    22449145.512
 -23778641.82749 -18487883.50647  20481432.044    20481431.660    20481433.959
  -4743799.66549  -3664561.09845  23613573.298    23613573.084    23613576.987
 -21850877.98949 -16944259.74847  20773305.298    20773305.490    20773308.214
 -24812654.43649 -19312616.40147  20605639.062    20605639.453    20605639.520
  -7712146.12849  -5964810.33645  23618666.820    23618665.988    23618668.290
  -1464667.16348  53657176.57243
 08  8  8  0 31  0.0000000  0  8G14G12G18G30G 9G22G21G15
 -12509914.27149  -9317960.55046  22196239.659    22196239.123    22196242.688
 -16463578.94749 -12767680.30746  22438815.824    22438816.161    22438818.334
 -23743998.90949 -18460889.03747  20488024.408    20488024.036    20488026.112
  -4850515.21049  -3747716.06345  23593266.038    23593266.312    23593269.468
 -21781310.03749 -16890050.95747  20786543.667    20786543.785    20786546.345
 -24852272.55749 -19343487.67247  20598100.040    20598100.272    20598100.707
  -7607604.50849  -5883349.35845  23638560.543    23638560.305    23638562.440
  -1381768.37948  53721754.79043
 08  8  8  0 31 30.0000000  0  8G14G12G18G30G 9G22G21G15
 -12567671.53449  -9362966.19246  22185248.877    22185249.331    22185250.256
 -16517391.15649 -12809611.88946  22428575.576    22428575.640    22428578.854
 -23708864.47249 -18433511.57047  20494710.253    20494709.858    20494712.004
  -4957143.48149  -3830803.01745  23572975.513    23572975.489    23572979.057
 -21711303.40349 -16835500.33747  20799865.506    20799865.483    20799867.959
 -24891475.97649 -19374035.79447  20590639.902    20590640.027    20590640.507
  -7502990.32849  -5801831.82345  23658468.064    23658468.083    23658469.676
  -1298844.05848  53808561.33143
 08  8  8  0 32  0.0000000  0  8G14G12G18G30G 9G22G21G15
 -12625288.40849  -9407862.41546  22174284.843    22174285.262    22174286.611
 -16570742.90649 -12851184.68146  22418423.124    22418423.468    22418425.474
 -23673238.93249 -18405751.41447  20501489.556    20501489.184    20501491.236
  -5063681.53149  -3913819.66445  23552701.956    23552702.743    23552706.345
 -21640861.21349 -16780610.32147  20813270.255    20813270.283    20813272.736
 -24930262.93849 -19404259.40947  20583258.939    20583258.986    20583259.580
  -7398307.99749  -5720261.22545  23678388.476    23678387.583    23678389.776
  -1215895.45148  53873198.23243
 08  8  8  0 32 30.0000000  0  8G14G12G18G30G 9G22G21G15
 -12682764.13049  -9452648.66446  22163347.601    22163347.814    22163349.377
 -16623631.48849 -12892396.54646  22408358.817    22408359.376    22408361.477
 -23637122.01449 -18377608.37247  20508362.343    20508362.136    20508364.058
  -5170125.43749  -3996762.95745  23532446.323    23532447.296    23532449.462
 -21569985.35049 -16725382.37647  20826757.472    20826757.376    20826760.118
 -24968631.28449 -19434156.83447  20575957.659    20575957.781    20575958.366
  -7293559.39349  -5638638.95245  23698321.467    23698320.304    23698324.073
  -1132921.71048  53937857.05643
 08  8  8  0 33  0.0000000  0  8G14G12G18G30G 9G22G21G15
 -12740098.59049  -9497324.82646  22152437.151    22152436.627    22152438.807
 -16676054.60549 -12933245.72746  22398383.092    22398383.272    22398385.677
 -23600513.63849 -18349082.37747  20515328.717    20515328.534    20515330.395
  -5276472.52649  -4079630.82245  23512209.231    23512209.626    23512212.476
 -21498678.92849 -16669818.93247  20840326.638    20840326.612    20840329.384
 -25006579.18449 -19463726.62147  20568736.445    20568736.680    20568737.184
  -7188747.54549  -5556967.41845  23718266.289    23718266.935    23718268.183
  -1049923.32048  54024481.33543
 08  8  8  0 33 30.0000000  0  8G14G12G18G30G 9G22G21G15
 -12797292.92849  -9541891.82146  22141553.370    22141552.842    22141555.581
 -16728011.07749 -12973731.27146  22388496.154    22388496.506    22388498.659
 -23563415.59449 -18320174.82547  20522388.224    20522387.687    20522390.091
  -5382720.63149  -4162421.54445  23491990.966    23491991.563    23491994.965
 -21426945.95449 -16613923.11847  20853976.947    20853977.122    20853979.534
 -25044106.06649 -19492968.35047  20561595.356    20561595.504    20561595.972
  -7083877.03849  -5475250.16645  23738222.337    23738222.381    23738224.919
   -966901.87048  54089172.74443
 08  8  8  0 34  0.0000000  0  8G14G12G18G30G 9G22G21G15
 -12854344.99749  -9586347.95146  22130696.669    22130696.817    22130699.434
 -16779496.42349 -13013849.69146  22378698.804    22378699.259    22378700.891
 -23525826.05649 -18290884.27847  20529541.191    20529540.795    20529543.279
  -5488864.98749  -4245131.44645  23471792.589    23471793.645    23471796.049
 -21354787.13349 -16557695.47547  20867708.321    20867708.276    20867711.277
 -25081207.98149 -19521878.94547  20554535.126    20554535.211    20554535.683
  -6978949.41549  -5393488.42645  23758189.383    23758189.578    23758191.770
   -883855.11349  54153882.97543
 08  8  8  0 34 30.0000000  0  8G14G12G18G30G 9G22G21G15
 -12911255.16649  -9630693.53546  22119866.973    22119866.485    22119869.132
 -16830509.14149 -13053599.85946  22368991.367    22368991.439    22368993.140
 -23487745.40749 -18261211.05847  20536787.683    20536787.438    20536789.569
  -5594902.71349  -4327758.25745  23451614.450    23451614.675    23451617.286
 -21282205.59749 -16501138.43947  20881520.127    20881519.985    20881522.790
 -25117883.94349 -19550457.61747  20547555.963    20547556.163    20547556.363
  -6873967.84549  -5311684.63345  23778166.953    23778165.858    23778171.334
   -800783.64349  54240378.62643
 08  8  8  0 35  0.0000000  0  8G14G12G18G30G 9G22G21G15
 -12968023.18049  -9674928.35646  22109064.187    22109064.063    22109066.856
 -16881046.42749 -13092979.56646  22359374.426    22359374.427    22359376.554
 -23449174.16449 -18231155.54947  20544127.543    20544127.197    20544129.365
  -5700831.06749  -4410299.82845  23431456.913    23431456.840    23431460.249
 -21209204.17549 -16444254.22047  20895411.883    20895411.797    20895414.624
 -25154132.27349 -19578703.07247  20540658.078    20540657.968    20540658.572
  -6768935.08549  -5229840.94645  23798154.007    23798152.842    23798156.571
   -717687.69849  54305120.76043
 08  8  8  0 35 30.0000000  0  8G14G12G18G30G 9G22G21G15
 -13024649.41849  -9719052.69646  22098288.634    22098288.773    22098291.097
 -16931106.52649 -13131987.43146  22349848.337    22349848.162    22349850.572
 -23410112.86749 -18200718.16847  20551560.608    20551560.281    20551562.722
  -5806647.00549  -4492753.79945  23411320.719    23411320.200    23411323.934
 -21135786.03749 -16387045.27947  20909382.886    20909382.905    20909385.541
 -25189951.71449 -19606614.33147  20533841.810    20533841.827    20533842.419
  -6663854.42449  -5147959.96245  23818150.072    23818150.827    23818151.658
   -634568.22548  54369858.94943
 08  8  8  0 36  0.0000000  0  8G14G12G18G30G 9G22G21G15
 -13081132.18149  -9763065.22846  22087540.381    22087540.344    22087543.262
 -16980686.06949 -13170620.84546  22340413.690    22340414.023    22340416.083
 -23370560.41149 -18169898.07747  20559087.265    20559086.930    20559089.173
  -5912346.15949  -4575116.76345  23391206.807    23391207.274    23391209.576
 -21061952.52949 -16329512.68747  20923432.858    20923433.039    20923435.501
 -25225338.75249 -19634188.66147  20527107.935    20527108.219    20527108.453
  -6558728.15749  -5066043.40845  23838154.850    23838152.620    23838158.268
   -551423.79448  54456364.09943
 08  8  8  0 36 30.0000000  0  8G14G12G18G30G 9G22G21G15
 -13137473.39549  -9806967.45346  22076818.978    22076819.346    22076821.396
 -17029784.41649 -13208879.28046  22331070.554    22331070.931    22331072.848
 -23330518.72649 -18138696.77247  20566706.966    20566706.575    20566708.794
  -6017926.98149  -4657387.51845  23371115.578    23371115.873    23371118.170
 -20987708.18949 -16271659.95447  20937561.079    20937560.968    20937563.712
 -25260293.64549 -19661426.25447  20520456.301    20520456.394    20520456.774
  -6453561.00849  -4984095.02545  23858167.522    23858168.294    23858170.198
   -468256.13248  54521170.25443
 08  8  8  0 37  0.0000000  0  8G14G12G18G30G 9G22G21G15
 -13193671.47849  -9850758.13546  22066124.835    22066124.910    22066127.228
 -17078398.52449 -13246760.39646  22321819.616    22321820.235    22321822.154
 -23289987.29249 -18107113.85647  20574419.807    20574419.396    20574421.974
  -6123385.81849  -4739563.24945  23351047.416    23351047.676    23351050.541
 -20913054.76749 -16213488.45747  20951767.126    20951767.173    20951770.212
 -25294813.83749 -19688325.11447  20513887.339    20513887.431    20513887.802
  -6348354.82149  -4902116.18745  23878187.743    23878187.805    23878191.680
   -385064.64048  54585994.60943
 08  8  8  0 37 30.0000000  0  8G14G12G18G30G 9G22G21G15
 -13249726.87449  -9894437.64046  22055457.908    22055457.694    22055460.312
 -17126526.45749 -13284262.68546  22312661.243    22312661.576    22312663.212
 -23248966.81749 -18075149.85947  20582225.760    20582225.482    20582227.743
  -6228719.86749  -4821641.72045  23331002.755    23331002.713    23331006.555
 -20837995.61649 -16155000.81647  20966050.373    20966050.485    20966053.309
 -25328897.65149 -19714883.94747  20507401.407    20507401.511    20507402.011
  -6243113.14549  -4820109.70745  23898214.648    23898214.870    23898217.927
   -301850.02848  54650837.09344                                  25241196.089
 08  8  8  0 38  0.0000000  0  8G14G12G18G30G 9G22G21G15
 -13305638.88749  -9938005.42846  22044818.197    22044818.180    22044820.713
 -17174165.37849 -13321383.91146  22303595.828    22303595.942    22303598.542
 -23207457.05849 -18042804.60347  20590124.750    20590124.354    20590126.676
  -6333925.31749  -4903620.01345  23310982.740    23310983.352    23310986.277
 -20762532.94249 -16096198.73347  20980410.489    20980410.664    20980413.272
 -25362543.24949 -19741101.32147  20500998.889    20500999.024    20500999.517
  -6137838.77049  -4738077.78645  23918247.685    23918247.662    23918250.489
   -218611.60348  54715698.13744  25257030.832    25257031.561    25257036.436
 08  8  8  0 38 30.0000000  0  8G14G12G18G30G 9G22G21G15
 -13361407.84849  -9981461.72846  22034205.831    22034206.456    22034207.624
 -17221314.03749 -13358123.13046  22294623.697    22294624.563    22294626.021
 -23165459.57349 -18010079.30447  20598116.630    20598116.401    20598118.630
  -6438999.58049  -4985496.04745  23290987.763    23290988.064    23290991.212
 -20686670.24149 -16037084.94447  20994846.704    20994847.050    20994849.508
 -25395749.69649 -19766976.50647  20494679.924    20494680.058    20494680.378
  -6032535.27449  -4656023.14845  23938286.348    23938287.139    23938289.087
   -135350.49448  54780576.78944  25272875.219    25272876.642    25272877.533
 08  8  8  0 39  0.0000000  0  8G14G12G18G30G 9G22G21G15
 -13417033.52749 -10024806.39046  22023620.667    22023620.365    22023623.097
 -17267969.90349 -13394478.34546  22285745.375    22285746.269    22285747.792
 -23122973.78749 -17976973.50347  20606201.394    20606201.054    20606203.451
  -6543939.21649  -5067267.19245  23271018.514    23271019.039    23271021.919
 -20610409.77949 -15977661.20947  21009358.661    21009358.504    21009361.530
 -25428514.54549 -19792507.57047  20488444.994    20488445.095    20488445.669
  -5927205.23149  -4573947.83045  23958330.075    23958329.434    23958332.751
    -52066.28248  54845473.44744  25288723.805    25288723.311    25288724.832
 08  8  8  0 39 30.0000000  0  7G14G12G18G30G 9G22G21
 -13472515.42549 -10068039.02246  22013062.634    22013061.794    22013064.514
 -17314130.64449 -13430447.74746  22276961.351    22276961.990    22276963.418
 -23080000.31049 -17943487.68147  20614379.006    20614378.763    20614381.104
  -6648741.49549  -5148931.29045  23251075.367    23251075.795    23251079.011
 -20533754.51149 -15917929.83447  21023945.634    21023945.685    21023948.472
 -25460836.61049 -19817693.60547  20482294.286    20482294.373    20482295.158
  -5821851.97149  -4491854.39845  23978378.232    23978378.264    23978382.298
 08  8  8  0 40  0.0000000  0  7G14G12G18G30G 9G22G21
 -13527852.89049 -10111159.11046  22002531.993    22002531.644    22002534.348
 -17359793.48249 -13466029.16646  22268272.018    22268272.656    22268274.183
 -23036538.74949 -17909621.54047  20622649.486    20622649.137    20622651.471
  -6753402.07249  -5230484.96545  23231159.138    23231159.533    23231162.336
 -20456706.74149 -15857892.61047  21038607.411    21038607.365    21038610.287
 -25492713.30149 -19842532.60147  20476228.350    20476228.462    20476229.148
  -5716477.53249  -4409744.47045  23998430.395    23998429.703    23998432.599
 08  8  8  0 40 30.0000000  0  7G14G12G18G30G 9G22G21
 -13583045.34349 -10154166.20046  21992029.296    21992029.435    21992031.917
 -17404956.00349 -13501220.73846  22259677.852    22259677.996    22259679.981
 -22992589.27549 -17875375.20747  20631012.826    20631012.867    20631014.580
  -6857917.55949  -5311925.57645  23211270.482    23211270.252    23211274.284
 -20379268.80449 -15797551.36647  21053343.337    21053343.184    21053346.075
 -25524142.51449 -19867022.91547  20470247.579    20470247.722    20470248.225
  -5611084.53549  -4327620.08245  24018485.971    24018485.998    24018487.945
 08  8  8  0 41  0.0000000  0  7G14G12G18G30G 9G22G21
 -13638094.14349 -10197061.34046  21981553.965    21981554.117    21981556.761
 -17449617.98249 -13536022.28246  22251178.945    22251179.359    22251181.004
 -22948153.95849 -17840750.28347  20639468.658    20639468.453    20639470.397
  -6962286.62549  -5393252.07045  23191409.656    23191409.062    23191412.681
 -20301444.86649 -15736909.33747  21068152.757    21068152.601    21068155.503
 -25555124.83149 -19891164.98747  20464351.889    20464352.124    20464352.548
  -5505677.90649  -4245485.05044  24038544.034    24038542.144    24038547.853
 08  8  8  0 41 30.0000000  0  7G14G12G18G30G 9G22G21
 -13692997.28949 -10239842.99146  21971106.229    21971105.990    21971108.534
 -17493775.22049 -13570430.50246  22242776.180    22242776.836    22242778.620
 -22903231.32449 -17805745.64447  20648017.149    20648016.765    20648018.894
  -7066504.02649  -5474460.38445  23171577.618    23171578.540    23171580.943
 -20223235.75849 -15675967.17447  21083035.376    21083034.959    21083038.549
 -25585655.96149 -19914955.48947  20458542.021    20458542.266    20458542.796
  -5400258.18249  -4163339.84844  24058604.837    24058604.675    24058606.820
 08  8  8  0 42  0.0000000  0  7G14G12G18G30G 9G22G21
 -13747757.62349 -10282513.36946  21960685.621    21960685.714    21960688.342
 -17537428.74049 -13604446.21746  22234469.194    22234469.497    22234471.441
 -22857825.15149 -17770364.21647  20656657.671    20656657.474    20656659.359
  -7170569.86549  -5555550.61745  23151774.604    23151775.000    23151778.028
 -20144647.57649 -15614729.63747  21097990.180    21097990.105    21097993.450
 -25615737.87849 -19938395.95047  20452817.627    20452817.789    20452818.028
  -5294832.14649  -4081189.73845  24078666.997    24078668.015    24078667.684
 08  8  8  0 42 30.0000000  0  8G14G12G31G18G30G 9G22G21
 -13802372.46849 -10325070.38146  21950292.803    21950293.108    21950294.846
 -17580574.37349 -13638066.19046  22226258.835    22226259.261    22226260.610
  -5404264.91149  -4190682.65545  25108784.248    25108786.259    25108785.880
 -22811933.54249 -17734604.52747  20665390.621    20665390.188    20665392.416
  -7274478.80249  -5636518.58245  23132001.333    23132001.109    23132004.805
 -20065681.19249 -15553197.39147  21113016.967    21113017.052    21113019.974
 -25645366.29549 -19961483.03147  20447179.577    20447179.652    20447180.020
  -5189400.24049  -3999035.03845  24098730.321    24098731.385    24098732.719
 08  8  8  0 43  0.0000000  0  8G14G12G31G18G30G 9G22G21
 -13856840.89849 -10367513.29446  21939927.843    21939927.694    21939929.879
 -17623209.21249 -13671288.12646  22218145.703    22218145.798    22218147.967
  -5507930.10349  -4271460.65145  25089057.433    25089057.847    25089059.571
 -22765556.33149 -17698466.44347  20674215.908    20674215.478    20674217.658
  -7378226.93649  -5717361.25245  23112258.700    23112258.516    23112262.296
 -19986338.11249 -15491371.61847  21128115.457    21128115.260    21128118.260
 -25674539.18449 -19984215.16147  20441628.189    20441628.455    20441628.647
  -5083964.67949  -3916877.48745  24118794.084    24118793.826    24118797.547
 08  8  8  0 43 30.0000000  0  8G14G12G31G18G30G 9G22G21
 -13911163.60149 -10409842.67746  21929590.664    21929590.161    21929593.293
 -17665332.17549 -13704111.20246  22210129.846    22210130.397    22210131.793
  -5611479.42949  -4352148.41045  25069352.350    25069350.959    25069353.338
 -22718694.85249 -17661951.02247  20683133.310    20683133.015    20683135.097
  -7481811.71549  -5798076.62546  23092547.011    23092547.342    23092550.585
 -19906622.35349 -15429255.45147  21143284.845    21143285.148    21143287.659
 -25703255.87449 -20006591.81847  20436163.576    20436163.748    20436164.051
  -4978529.48449  -3834720.20245  24138857.718    24138856.777    24138858.618
 08  8  8  0 44  0.0000000  0  8G14G12G31G18G30G 9G22G21
 -13965340.06749 -10452058.09146  21919281.226    21919280.748    21919283.923
 -17706940.59649 -13736533.33647  22202211.949    22202212.218    22202214.001
  -5714910.44449  -4432743.94345  25049669.784    25049670.424    25049671.639
 -22671348.82149 -17625058.01247  20692142.979    20692142.768    20692144.624
  -7585229.30949  -5878661.73946  23072867.342    23072867.047    23072871.593
 -19826535.62449 -15366850.21147  21158524.871    21158524.738    21158527.898
 -25731513.86749 -20028611.04247  20430786.238    20430786.281    20430786.940
  -4873096.61849  -3752564.77545  24158920.954    24158920.777    24158923.393
 08  8  8  0 44 30.0000000  0  8G14G12G31G18G30G 9G22G21
 -14019369.76549 -10494159.14546  21908999.509    21908998.736    21909001.593
 -17748033.02549 -13768553.39547  22194392.375    22194392.822    22194394.416
  -5818222.44349  -4513246.73745  25030010.028    25030010.544    25030011.496
 -22623519.51249 -17587788.43247  20701244.640    20701244.557    20701246.686
  -7688477.29949  -5959114.68946  23053219.882    23053220.747    23053223.294
 -19746081.24049 -15304158.48247  21173834.870    21173834.749    21173837.783
 -25759312.21849 -20050272.11147  20425496.356    20425496.593    20425496.907
  -4767670.01549  -3670414.23344  24178983.165    24178985.017    24178984.052
 08  8  8  0 45  0.0000000  0  8G14G12G31G18G30G 9G22G21
 -14073253.20549 -10536146.25246  21898745.732    21898745.414    21898747.841
 -17788607.77949 -13800170.08047  22186671.274    22186671.787    22186673.364
  -5921413.89049  -4593655.59745  25010373.250    25010373.569    25010375.769
 -22575207.71149 -17550142.90447  20710438.102    20710437.722    20710439.813
  -7791552.57349  -6039433.05646  23033605.226    23033605.777    23033609.554
 -19665262.45149 -15241182.81147  21189214.217    21189214.372    21189217.093
 -25786649.82849 -20071574.15547  20420294.211    20420294.384    20420294.837
  -4662252.29749  -3588270.57744  24199043.658    24199041.222    24199046.259
 08  8  8  0 45 30.0000000  0  8G14G12G31G18G30G 9G22G21
 -14126989.99949 -10578019.06546  21888519.989    21888519.913    21888522.545
 -17828662.93649 -13831381.87847  22179048.981    22179049.054    22179051.307
  -6024483.72449  -4673969.68645  24990759.509    24990759.887    24990761.098
 -22526414.01749 -17512121.85947  20719723.245    20719722.894    20719725.086
  -7894451.92349  -6119614.33546  23014024.111    23014025.222    23014027.531
 -19584081.55949 -15177924.97947  21204662.466    21204662.288    21204665.159
 -25813524.90049 -20092515.78047  20415180.081    20415180.135    20415180.617
  -4556846.18249  -3506135.96344  24219101.721    24219100.336    24219103.241
 08  8  8  0 46  0.0000000  0  8G14G12G31G18G30G 9G22G21
 -14180579.64249 -10619777.21746  21878322.196    21878321.993    21878324.082
 -17868196.04849 -13862186.88647  22171526.072    22171526.602    22171528.530
  -6127429.75849  -4754187.35445  24971169.633    24971169.709    24971171.189
 -22477138.52449 -17473725.38647  20729100.019    20729099.653    20729102.127
  -7997171.54549  -6199655.56846  22994477.284    22994477.944    22994481.620
 -19502541.41049 -15114387.20947  21220179.000    21220178.646    21220182.043
 -25839935.41249 -20113095.40347  20410154.307    20410154.474    20410154.906
  -4451454.88949  -3424012.89244  24239156.967    24239157.351    24239159.599
 08  8  8  0 46 30.0000000  0  8G14G12G31G18G30G 9G22G21
 -14234021.96449 -10661420.58646  21868152.351    21868152.223    21868153.819
 -17907206.08349 -13892584.31647  22164102.678    22164103.111    22164104.927
  -6230251.13949  -4834307.91345  24951603.284    24951604.923    24951605.650
 -22427382.29349 -17434954.32047  20738568.253    20738567.938    20738569.900
  -8099709.24349  -6279555.05446  22974964.991    22974965.652    22974968.749
 -19420645.23849 -15050572.02347  21235763.266    21235763.537    21235766.311
 -25865880.22949 -20133312.15447  20405217.164    20405217.072    20405218.007
  -4346081.38649  -3341903.72045  24259208.802    24259208.729    24259211.247
 08  8  8  0 47  0.0000000  0  8G14G12G31G18G30G 9G22G21
 -14287315.69349 -10702948.16646  21858010.973    21858011.623    21858013.124
 -17945689.53049 -13922571.40847  22156779.471    22156779.811    22156782.149
  -6332945.17349  -4914329.23845  24932061.241    24932062.892    24932063.756
 -22377144.82249 -17395808.24747  20748128.185    20748127.870    20748129.986
  -8202060.14749  -6359308.98546  22955488.127    22955487.687    22955491.515
 -19338394.62849 -14986480.64547  21251415.036    21251415.341    21251418.005
 -25891356.69549 -20153163.95747  20400369.133    20400369.098    20400370.000
  -4240727.34849  -3259809.69144  24279257.033    24279257.500    24279258.156
 08  8  8  0 47 30.0000000  0  8G14G12G31G18G30G 9G22G21
 -14340462.09049 -10744360.92946  21847897.650    21847897.525    21847899.724
 -17983646.45449 -13952148.21747  22149556.509    22149556.821    22149558.937
  -6435511.81949  -4994251.26745  24912543.393    24912544.005    24912545.755
 -22326428.54749 -17356289.07547  20757779.143    20757778.879    20757781.048
  -8304222.92149  -6438916.34945  22936047.081    22936046.595    22936049.976
 -19255793.82149 -14922116.37947  21267133.530    21267133.910    21267136.422
 -25916365.06649 -20172651.00947  20395610.221    20395610.373    20395610.754
  -4135397.59049  -3177734.58844  24299300.667    24299299.765    24299303.936
 08  8  8  0 48  0.0000000  0  8G14G12G31G18G30G 9G22G21
 -14393450.90349 -10785650.89946  21837814.172    21837814.066    21837816.293
 -18021064.87449 -13981305.41747  22142436.127    22142436.180    22142438.542
  -6537939.75949  -5074065.18145  24893052.074    24893052.638    24893054.636
 -22275223.88249 -17316389.35747  20767523.122    20767522.883    20767525.019
  -8406184.43549  -6518366.85746  22916644.583    22916645.706    22916648.209
 -19172835.67149 -14857473.66747  21282919.938    21282920.141    21282923.030
 -25940894.04949 -20191764.50947  20390942.522    20390942.604    20390943.085
  -4030084.81049  -3095672.74444  24319341.068    24319338.402    24319342.622
 08  8  8  0 48 30.0000000  0  8G14G12G31G18G30G 9G22G21
 -14446294.71749 -10826827.90146  21827758.430    21827758.367    21827760.746
 -18057955.67749 -14010051.48746  22135415.949    22135416.000    22135418.110
  -6640240.38849  -5153779.89345  24873585.035    24873586.574    24873588.352
 -22223544.50049 -17276119.73247  20777357.373    20777357.005    20777359.408
  -8507954.22949  -6597667.96946  22897278.561    22897279.743    22897282.069
 -19089535.89849 -14792564.76147  21298771.401    21298771.158    21298774.024
 -25964954.88249 -20210513.22447  20386363.929    20386364.084    20386364.403
  -3924805.08449  -3013636.62244  24339375.010    24339373.862    24339377.538
 08  8  8  0 49  0.0000000  0  8G14G12G31G18G30G 9G22G21
 -14498991.66849 -10867890.46246  21817730.450    21817729.920    21817733.067
 -18094316.03049 -14038384.22646  22128496.783    22128497.180    22128499.084
  -6742410.86449  -5233393.20845  24854142.696    24854143.085    24854144.887
 -22171390.01549 -17235479.89447  20787282.098    20787281.544    20787283.966
  -8609527.55749  -6676816.00246  22877949.825    22877950.175    22877952.880
 -19005895.66749 -14727390.56047  21314687.543    21314687.499    21314690.465
 -25988544.51149 -20228894.76448  20381875.004    20381875.141    20381875.751
  -3819559.48249  -2931627.12244  24359402.359    24359402.816    24359403.490
 08  8  8  0 49 30.0000000  0  8G14G12G31G18G30G 9G22G21
 -14551540.14349 -10908837.31646  21807730.813    21807730.792    21807732.906
 -18130142.57649 -14066300.99546  22121679.164    22121679.090    22121681.215
  -6844448.15049  -5312902.74545  24834725.594    24834725.168    24834728.251
 -22118759.21449 -17194468.88747  20797297.380    20797296.801    20797299.240
  -8710899.65249  -6755807.22346  22858659.282    22858659.459    22858661.597
 -18921916.24249 -14661952.04647  21330668.292    21330668.206    21330671.151
 -26011659.99949 -20246906.83948  20377476.280    20377476.317    20377477.024
  -3714349.36249  -2849645.22144  24379423.051    24379422.777    24379425.643
 08  8  8  0 50  0.0000000  0  8G14G12G31G18G30G 9G22G21
 -14603940.54049 -10949668.77746  21797759.304    21797758.856    21797761.717
 -18165433.88249 -14093800.69446  22114963.478    22114964.039    22114965.274
  -6946351.54049  -5392307.95345  24815334.006    24815333.662    24815337.647
 -22065653.60849 -17153087.89747  20807403.054    20807403.135    20807405.024
  -8812068.26249  -6834639.88746  22839407.609    22839408.556    22839411.488
 -18837601.04749 -14596251.89547  21346712.949    21346712.558    21346715.737
 -26034300.46449 -20264548.77248  20373167.938    20373167.909    20373168.531
  -3609178.35349  -2767693.86844  24399436.380    24399437.821    24399439.121
 08  8  8  0 50 30.0000000  0  8G14G12G31G18G30G 9G22G21
 -14656190.78849 -10990383.24046  21787816.380    21787815.819    21787818.174
 -18200187.12549 -14120881.12746  22108350.137    22108350.737    22108352.625
  -7048117.91649  -5471606.37245  24795968.274    24795967.039    24795971.651
 -22012072.65549 -17111336.53247  20817599.261    20817598.986    20817601.395
  -8913028.56849  -6913310.22546  22820195.591    22820196.267    22820197.182
 -18752951.55849 -14530291.25947  21362821.190    21362821.426    21362824.280
 -26056463.14149 -20281818.39948  20368950.539    20368950.789    20368950.867
  -3504048.02949  -2685774.14244  24419441.832    24419439.464    24419445.944
 08  8  8  0 51  0.0000000  0  8G14G12G31G18G30G 9G22G21
 -14708292.17949 -11030981.70646  21777901.752    21777901.562    21777903.870
 -18234402.26449 -14147542.26746  22101839.230    22101839.395    22101841.470
  -7149747.49349  -5550798.21745  24776628.612    24776629.107    24776632.435
 -21958018.42749 -17069216.37847  20827885.408    20827885.195    20827887.439
  -9013778.97149  -6991816.99846  22801023.434    22801024.419    22801026.485
 -18667971.71349 -14464073.20547  21378992.392    21378992.531    21378995.050
 -26078147.96249 -20298715.66748  20364824.070    20364824.236    20364824.516
  -3398962.23249  -2603889.13844  24439439.088    24439440.627    24439443.789
 08  8  8  0 51 30.0000000  0  8G14G12G31G18G30G 9G22G21
 -14760242.74149 -11071462.63846  21768015.965    21768015.966    21768018.421
 -18268075.56349 -14173781.18546  22095431.403    22095431.631    22095433.956
  -7251237.00349  -5629880.94445  24757315.842    24757316.986    24757318.395
 -21903490.05249 -17026726.75147  20838261.859    20838261.582    20838263.450
  -9114313.94249  -7070155.93746  22781892.290    22781891.725    22781893.995
 -18582662.78549 -14397598.72947  21395226.188    21395225.933    21395228.920
 -26099352.23249 -20315238.48048  20360789.043    20360789.239    20360789.755
  -3293922.34049  -2522039.93744  24459427.854    24459427.491    24459429.648
 08  8  8  0 52  0.0000000  0  8G14G12G31G18G30G 9G22G21
 -14812042.27749 -11111825.88946  21758158.845    21758158.640    21758161.101
 -18301205.48649 -14199596.69646  22089126.897    22089126.936    22089129.223
  -7352585.48149  -5708853.74545  24738030.098    24738030.888    24738032.565
 -21848488.59149 -16983868.47947  20848728.282    20848727.996    20848729.701
  -9214630.71449  -7148324.81746  22762802.471    22762802.350    22762805.675
 -18497027.43549 -14330869.89147  21411522.054    21411522.202    21411524.769
 -26120074.31249 -20331385.56248  20356845.757    20356846.009    20356846.512
  -3188932.17249  -2440229.47344  24479407.123    24479410.187    24479409.296
 08  8  8  0 52 30.0000000  0  8G14G12G31G18G30G 9G22G21
 -14863690.72049 -11152071.41947  21748330.525    21748330.124    21748332.734
 -18333790.61249 -14224987.68846  22082926.097    22082926.358    22082928.480
  -7453791.43349  -5787715.50645  24718771.385    24718772.460    24718773.221
 -21793014.66249 -16940642.07147  20859284.626    20859284.408    20859286.494
  -9314726.18749  -7226321.27646  22743754.938    22743755.006    22743757.624
 -18411068.63749 -14263889.00747  21427879.507    21427879.508    21427882.220
 -26140312.96449 -20347155.96048  20352994.545    20352994.755    20352995.136
  -3083992.87149  -2358458.63644  24499376.665    24499377.654    24499380.978
 08  8  8  0 53  0.0000000  0  8G14G12G31G18G30G 9G22G21
 -14915186.63749 -11192198.09047  21738531.094    21738530.718    21738533.422
 -18365828.54149 -14249952.28847  22076829.485    22076830.228    22076831.712
  -7554852.42849  -5866464.34445  24699540.157    24699541.823    24699540.967
 -21737068.79649 -16897047.91947  20869930.770    20869930.578    20869932.508
  -9414596.71949  -7304142.44346  22724750.061    22724750.293    22724753.968
 -18324788.42349 -14196657.66747  21444298.128    21444298.301    21444300.574
 -26160065.99549 -20362547.94048  20349235.621    20349235.657    20349236.208
  -2979107.51149  -2276729.83945  24519335.962    24519337.116    24519339.294
 08  8  8  0 53 30.0000000  0  8G14G12G31G18G30G 9G22G21
 -14966530.33749 -11232206.15646  21728760.601    21728760.002    21728762.602
 -18397318.34749 -14274489.78147  22070837.226    22070837.707    22070839.672
  -7655767.60849  -5945099.48345  24680336.596    24680336.968    24680338.782
 -21680652.25949 -16853087.01147  20880666.469    20880666.326    20880668.366
  -9514239.59049  -7381786.23146  22705788.675    22705789.349    22705791.570
 -18238190.07449 -14129178.44047  21460777.288    21460777.173    21460779.940
 -26179332.83749 -20377561.07148  20345569.245    20345569.435    20345570.002
  -2874279.31549  -2195045.58044  24539284.214    24539282.398    24539286.410
 08  8  8  0 54  0.0000000  0  8G14G12G31G18G30G 9G22G21
 -15017721.53949 -11272095.39347  21719019.297    21719019.386    21719021.215
 -18428258.65949 -14298599.10447  22064949.488    22064949.783    22064951.736
  -7756536.02549  -6023620.29745  24661160.907    24661160.774    24661164.371
 -21623765.95349 -16808760.03047  20891491.653    20891491.501    20891493.415
  -9613651.54649  -7459250.06946  22686871.191    22686870.406    22686874.708
 -18151276.68649 -14061453.72847  21477316.370    21477316.213    21477319.254
 -26198112.43149 -20392194.52948  20341995.669    20341995.729    20341996.299
  -2769511.84649  -2113408.64344  24559220.940    24559220.785    24559223.170
 08  8  8  0 54 30.0000000  0  8G14G12G31G18G30G 9G22G21
 -15068760.68749 -11311866.14747  21709306.849    21709306.530    21709309.283
 -18458648.07249 -14322279.16047  22059166.508    22059166.937    22059168.800
  -7857156.75749  -6102026.04445  24642013.331    24642014.079    24642016.273
 -21566411.45749 -16764068.22247  20902405.893    20902405.476    20902407.511
  -9712829.89749  -7536531.90246  22667998.062    22667998.981    22668001.761
 -18064051.19749 -13993485.82247  21493914.765    21493914.942    21493917.314
 -26216403.54849 -20406447.35248  20338515.009    20338515.049    20338515.795
  -2664808.09549  -2031821.35344  24579145.497    24579146.251    24579144.181
 08  8  8  0 55  0.0000000  0  8G14G12G31G18G30G 9G22G21
 -15119646.42249 -11351517.35947  21699623.523    21699623.503    21699626.107
 -18488484.36849 -14345528.22047  22053488.826    22053489.407    22053491.015
  -7957627.74049  -6180315.10345  24622894.229    24622894.725    24622897.438
 -21508588.88649 -16719011.70147  20913409.094    20913408.698    20913410.899
  -9811770.62549  -7613628.57546  22649170.377    22649171.055    22649172.898
 -17976515.47249 -13925276.17147  21510572.278    21510571.741    21510574.858
 -26234204.21149 -20420318.00448  20335127.654    20335127.724    20335128.345
  -2560169.38349  -1950284.70344  24599057.710    24599058.196    24599060.111
 08  8  8  0 55 30.0000000  0  8G14G12G31G18G30G 9G22G21
 -15170382.07849 -11391051.62347  21689968.882    21689968.957    21689971.062
 -18517769.69849 -14368347.94347  22047916.053    22047916.355    22047918.518
  -8057950.72849  -6258488.81745  24603803.410    24603804.211    24603806.785
 -21450302.48549 -16673593.74947  20924500.694    20924500.300    20924502.401
  -9910474.01549  -7690540.28946  22630387.719    22630388.338    22630391.208
 -17888676.07049 -13856829.89147  21527287.489    21527287.569    21527290.140
 -26251516.92249 -20433808.43648  20331833.141    20331833.125    20331833.775
  -2455601.99449  -1868803.67644  24618956.156    24618956.411    24618958.368
 08  8  8  0 56  0.0000000  0  8G14G12G31G18G30G 9G22G21
 -15220969.85749 -11430470.65147  21680342.368    21680342.381    21680344.456
 -18546505.50649 -14390739.47847  22042447.864    22042448.440    22042450.169
  -8158126.94449  -6336548.13445  24584740.340    24584740.348    24584743.157
 -21391555.87049 -16627817.18747  20935679.857    20935679.711    20935681.563
 -10008939.61149  -7767266.71646  22611650.293    22611650.170    22611653.294
 -17800537.88449 -13788150.79747  21544059.627    21544059.398    21544062.161
 -26268342.43449 -20446919.23848  20328631.322    20328631.431    20328632.009
  -2351112.01249  -1787382.96044  24638839.817    24638838.587    24638842.017
 08  8  8  0 56 30.0000000  0  8G14G12G31G18G30G 9G22G21
 -15271398.39949 -11469765.60147  21670746.137    21670745.995    21670748.643
 -18574679.32949 -14412693.10547  22037086.619    22037086.742    22037088.599
  -8258144.62549  -6414483.93945  24565707.310    24565706.555    24565710.095
 -21332339.58449 -16581674.65647  20946948.326    20946947.800    20946950.502
 -10107153.44549  -7843796.95746  22592960.838    22592961.049    22592964.106
 -17712093.41549 -13719233.04047  21560890.046    21560889.507    21560892.518
 -26284669.19449 -20459641.40448  20325524.463    20325524.442    20325525.149
  -2246691.88549  -1706016.66344  24658710.204    24658711.140    24658711.089
 08  8  8  0 57  0.0000000  0  8G14G12G31G18G30G 9G22G21
 -15321670.35349 -11508938.52547  21661179.717    21661179.438    21661181.810
 -18602292.59849 -14434209.92147  22031831.923    22031832.220    22031834.086
  -8358004.92349  -6492297.10445  24546704.321    24546704.540    24546706.820
 -21272657.22049 -16535168.92547  20958305.494    20958305.017    20958307.455
 -10205115.36049  -7920130.89046  22574319.276    22574320.043    22574322.710
 -17623347.88749 -13650080.69046  21577777.680    21577777.805    21577780.797
 -26300498.87449 -20471976.22048  20322512.146    20322512.188    20322512.906
  -2142346.02449  -1624708.21944  24678566.412    24678565.585    24678567.375
 08  8  8  0 57 30.0000000  0  8G14G12G31G18G30G 9G22G21
 -15371786.01249 -11547989.67347  21651643.074    21651643.549    21651644.972
 -18629344.55549 -14455289.36347  22026684.049    22026684.274    22026686.120
  -8457707.49749  -6569987.40045  24527731.474    24527732.594    24527734.044
 -21212510.68649 -16488301.49047  20969750.994    20969750.674    20969753.103
 -10302822.77349  -7996266.52846  22555726.143    22555726.675    22555729.393
 -17534305.16549 -13580696.76346  21594721.913    21594722.255    21594724.555
 -26315830.86849 -20483923.23948  20319594.572    20319594.727    20319595.330
  -2038078.29649  -1543460.69244  24698408.018    24698409.507    24698410.722
 08  8  8  0 58  0.0000000  0  8G14G12G31G18G30G 9G22G21
 -15421746.02349 -11586919.53347  21642136.065    21642135.781    21642138.139
 -18655835.05349 -14475931.30247  22021643.091    22021643.384    22021645.074
  -8557251.70449  -6647554.28145  24508788.810    24508789.278    24508792.708
 -21151901.54049 -16441073.59447  20981284.517    20981284.379    20981286.655
 -10400273.27249  -8072201.95746  22537181.857    22537181.724    22537185.434
 -17444968.41849 -13511083.72946  21611722.195    21611722.286    21611725.068
 -26330664.75949 -20495482.13348  20316771.758    20316771.911    20316772.356
  -1933892.11249  -1462276.68344  24718234.306    24718234.962    24718233.537
 08  8  8  0 58 30.0000000  0  8G14G12G31G18G30G 9G22G21
 -15471549.86849 -11625727.70347  21632658.702    21632658.142    21632660.486
 -18681762.28049 -14496134.31847  22016709.302    22016709.489    22016711.461
  -8656636.07849  -6724996.62845  24489876.722    24489877.111    24489879.990
 -21090830.85549 -16393486.06147  20992905.806    20992905.354    20992907.792
 -10497463.16249  -8147934.32246  22518687.159    22518688.247    22518690.488
 -17355340.27849 -13441243.62346  21628777.833    21628777.779    21628780.713
 -26344999.21749 -20506651.84448  20314044.039    20314044.160    20314044.605
  -1829790.52349  -1381158.61444  24738043.975    24738042.160    24738044.649
 08  8  8  0 59  0.0000000  0  8G14G12G31G18G30G 9G22G21
 -15521197.31649 -11664414.02147  21623211.033    21623210.933    21623212.821
 -18707125.33749 -14515897.72147  22011882.896    22011883.070    22011885.170
  -8755859.68749  -6802313.70845  24470995.086    24470995.942    24470997.893
 -21029300.14149 -16345540.06247  21004614.736    21004614.678    21004616.797
 -10594390.10249  -8223461.78046  22500242.640    22500243.456    22500246.260
 -17265424.07349 -13371179.05846  21645888.426    21645888.163    21645891.021
 -26358833.56349 -20517431.86548  20311411.473    20311411.712    20311412.008
  -1725776.61149  -1300108.82044  24757837.097    24757836.766    24757835.099
 08  8  8  0 59 30.0000000  0  8G14G12G31G18G30G 9G22G21
 -15570689.22749 -11702979.13947  21613792.958    21613792.593    21613795.441
 -18731924.29049 -14535221.57547  22007163.780    22007164.007    22007165.806
  -8854922.25249  -6879505.28645  24452144.295    24452145.322    24452146.811
 -20967311.83849 -16297237.49747  21016410.775    21016410.282    21016412.922
 -10691051.67549  -8298782.46246  22481848.659    22481849.420    22481851.472
 -17175223.39149 -13300892.82646  21663053.044    21663053.680    21663056.274
 -26372167.74049 -20527822.14848  20308874.078    20308874.299    20308874.794
  -1621853.63849  -1219129.92044  24777613.008    24777612.396    24777617.137
 08  8  8  1  0  0.0000000  0  8G14G12G31G18G30G 9G22G21
 -15620023.63849 -11741421.51647  21604404.958    21604404.532    21604407.390
 -18756156.17449 -14554103.54847  22002552.546    22002552.510    22002554.606
  -8953820.97649  -6956569.20445  24433324.492    24433325.281    24433326.585
 -20904865.39049 -16248577.92747  21028293.903    21028293.605    21028295.558
 -10787443.27149  -8373892.77746  22463505.880    22463505.389    22463508.673
 -17084739.52749 -13230385.93146  21680271.529    21680271.630    21680274.219
 -26384999.11749 -20537820.63648  20306432.386    20306432.459    20306432.954
  -1518023.48749  -1138223.39444  24797371.072    24797371.057    24797373.983
 08  8  8  1  0 30.0000000  0  8G14G12G31G18G30G 9G22G21
 -15669200.24549 -11779740.94147  21595046.954    21595046.870    21595049.447
 -18779819.66649 -14572542.62047  21998049.514    21998049.867    21998051.773
  -9052554.89049  -7033504.68845  24414536.177    24414536.268    24414539.370
 -20841961.86649 -16199562.18847  21040264.034    21040263.928    21040266.249
 -10883562.22349  -8448790.62546  22445214.915    22445215.261    22445218.196
 -16993975.09449 -13159660.40246  21697543.417    21697543.303    21697545.957
 -26397326.37649 -20547426.30448  20304086.582    20304086.763    20304087.315
  -1414288.61149  -1057391.04444  24817110.880    24817108.853    24817114.798
 08  8  8  1  1  0.0000000  0  8G14G12G31G18G30G 9G22G21
 -15718218.20449 -11817936.73847  21585719.134    21585718.588    21585721.344
 -18802913.46249 -14590537.77847  21993654.942    21993655.569    21993657.481
  -9151121.91149  -7110310.14045  24395779.621    24395779.064    24395782.012
 -20778602.09149 -16150190.95047  21052321.071    21052320.682    21052323.134
 -10979404.65849  -8523473.01946  22426976.654    22426976.667    22426979.571
 -16902932.43149 -13088718.09346  21714868.234    21714868.190    21714871.074
 -26409147.82149 -20556637.83648  20301837.107    20301837.241    20301837.705
  -1310651.71749   -976635.07244  24836832.471    24836833.158    24836835.529
 08  8  8  1  1 30.0000000  0  7G14G12G31G18G30G 9G22
 -15767077.31249 -11856008.76247  21576421.542    21576421.424    21576423.543
 -18825436.34649 -14608088.05847  21989368.991    21989369.226    21989371.030
  -9249521.11049  -7186984.85045  24377054.871    24377055.556    24377058.554
 -20714787.28149 -16100465.13847  21064464.671    21064464.345    21064466.671
 -11074967.53849  -8597937.57446  22408791.630    22408792.036    22408794.290
 -16811614.54749 -13017561.31346  21732245.399    21732245.539    21732248.301
 -26420463.12649 -20565454.97248  20299683.803    20299683.861    20299684.561
 08  8  8  1  2  0.0000000  0  7G14G12G31G18G30G 9G22
 -15815777.90649 -11893957.26747  21567154.102    21567154.000    21567156.063
 -18847387.82049 -14625193.08247  21985191.700    21985191.948    21985193.718
  -9347751.32649  -7263527.87045  24358362.301    24358363.616    24358364.976
 -20650519.25649 -16050386.17647  21076694.500    21076694.618    21076696.388
 -11170248.30749  -8672182.30846  22390660.233    22390660.109    22390663.288
 -16720024.67749 -12946192.60346  21749674.377    21749674.634    21749677.454
 -26431271.67049 -20573877.22048  20297627.027    20297626.925    20297627.803
 08  8  8  1  2 30.0000000  0  7G14G12G31G18G30G 9G22
 -15864319.39249 -11931781.79247  21557916.987    21557916.975    21557919.497
 -18868766.93849 -14641852.10847  21981123.343    21981123.825    21981125.473
  -9445812.15649  -7339938.89745  24339702.067    24339702.674    24339704.518
 -20585799.41549 -15999955.12747  21089010.369    21089009.702    21089012.513
 -11265243.74949  -8746204.70646  22372583.158    22372583.583    22372586.893
 -16628165.44249 -12874614.00046  21767154.682    21767154.213    21767157.878
 -26441572.47149 -20581903.83248  20295666.876    20295666.852    20295667.448
 08  8  8  1  3  0.0000000  0  7G14G12G31G18G30G 9G22
 -15912701.39849 -11969482.06347  21548710.160    21548710.048    21548712.324
 -18889572.15049 -14658063.94747  21977164.264    21977164.855    21977166.036
  -9543701.57649  -7416216.36245  24321074.188    24321073.961    24321076.877
 -20520629.03849 -15949173.00147  21101411.833    21101411.127    21101413.767
 -11359950.94749  -8820002.52346  22354560.977    22354561.499    22354564.122
 -16536039.52149 -12802827.58446  21784685.698    21784686.076    21784688.636
 -26451364.43549 -20589533.95348  20293803.484    20293803.282    20293803.971
 08  8  8  1  3 30.0000000  0  7G14G12G31G18G30G 9G22
 -15960922.97649 -12007057.31647  21539533.917    21539533.911    21539536.189
 -18909802.18549 -14673827.59147  21973314.640    21973314.861    21973316.726
  -9641417.86949  -7492358.92245  24302479.130    24302478.704    24302481.997
 -20455008.57849 -15898040.16347  21113898.932    21113898.532    21113900.614
 -11454365.72149  -8893572.44946  22336594.414    22336595.207    22336597.943
 -16443649.18649 -12730835.13646  21802267.003    21802267.464    21802269.847
 -26460645.67349 -20596766.10348  20292037.313    20292037.355    20292037.995
 08  8  8  1  4  0.0000000  0  7G14G12G31G18G30G 9G22
 -16008984.09249 -12044507.52947  21530388.181    21530388.023    21530390.161
 -18929456.01949 -14689142.24447  21969574.716    21969574.950    21969576.633
  -9738960.50149  -7568366.15945  24283917.166    24283916.604    24283919.822
 -20388939.42849 -15846557.69747  21126471.494    21126470.958    21126473.383
 -11548485.64949  -8966912.63846  22318684.056    22318685.486    22318687.570
 -16350997.67149 -12658639.16246  21819898.098    21819898.109    21819901.144
 -26469415.93549 -20603600.09248  20290368.357    20290368.500    20290369.084
 08  8  8  1  4 30.0000000  0  7G14G12G31G18G30G 9G22
 -16056883.07649 -12081831.41547  21521273.263    21521273.133    21521275.275
 -18948531.80849 -14704006.47747  21965944.694    21965945.123    21965946.834
  -9836326.82549  -7644235.99745  24265388.726    24265388.591    24265391.958
 -20322421.80349 -15794725.78347  21139129.378    21139129.006    21139131.208
 -11642306.24249  -9040019.58846  22300830.694    22300830.956    22300833.929
 -16258086.20349 -12586240.63646  21837578.463    21837578.189    21837581.263
 -26477672.93749 -20610034.12948  20288797.106    20288797.318    20288798.046
 08  8  8  1  5  0.0000000  0  7G14G12G31G18G30G 9G22
 -16104620.81549 -12119029.64747  21512188.951    21512188.852    21512191.497
 -18967029.68849 -14718420.39047  21962424.642    21962424.990    21962426.620
  -9933516.81549  -7719968.43745  24246894.037    24246893.375    24246896.336
 -20255458.27549 -15742546.41447  21151872.099    21151871.684    21151873.854
 -11735825.83249  -9112891.98746  22283034.560    22283034.736    22283037.558
 -16164918.57349 -12513642.48946  21855307.684    21855307.705    21855310.118
 -26485417.00749 -20616068.47448  20287323.459    20287323.718    20287324.343
 08  8  8  1  5 30.0000000  0  7G14G12G31G18G30G 9G22
 -16152196.38149 -12156101.51747  21503135.663    21503135.629    21503137.839
 -18984948.53149 -14732383.11047  21959014.841    21959015.330    21959016.838
 -10030528.91049  -7795562.24445  24228433.245    24228433.445    24228436.216
 -20188050.26349 -15690020.69647  21164699.476    21164699.024    21164701.409
 -11829040.85649  -9185527.03346  22265296.346    22265296.736    22265299.369
 -16071497.22149 -12440846.64446  21873085.187    21873085.068    21873088.394
 -26492646.93449 -20621702.19548  20285947.655    20285947.851    20285948.552
 08  8  8  1  6  0.0000000  0  7G14G12G31G18G30G 9G22
 -16199609.84549 -12193047.06047  21494113.274    21494113.165    21494115.891
 -19002287.34149 -14745893.85347  21955715.350    21955715.844    21955717.281
 -10127362.12949  -7871016.66445  24210006.520    24210007.241    24210010.586
 -20120199.04049 -15637149.63247  21177611.172    21177610.965    21177612.963
 -11921948.62149  -9257922.66946  22247616.472    22247616.056    22247618.974
 -15977825.19649 -12367855.47846  21890910.330    21890910.788    21890913.507
 -26499362.01049 -20626934.74148  20284669.843    20284669.925    20284670.713
 08  8  8  1  6 30.0000000  0  7G14G12G31G18G30G 9G22
 -16246860.72549 -12229865.92047  21485121.672    21485121.370    21485124.180
 -19019045.78349 -14758952.36147  21952526.328    21952526.712    21952528.424
 -10224015.77949  -7946331.13645  24191614.036    24191615.003    24191616.574
 -20051906.15649 -15583934.41747  21190606.846    21190606.428    21190608.689
 -12014546.03449  -9330076.48946  22229995.727    22229996.264    22229999.249
 -15883905.30249 -12294671.15646  21908782.798    21908782.945    21908786.461
 -26505561.72949 -20631765.70748  20283490.079    20283490.272    20283490.671
 08  8  8  1  7  0.0000000  0  7G14G12G31G18G30G 9G22
 -16293947.73749 -12266557.09747  21476161.348    21476161.443    21476163.962
 -19035221.39549 -14771556.71547  21949448.195    21949448.383    21949450.336
 -10320487.16249  -8021503.59245  24173256.132    24173256.703    24173259.362
 -19983171.59449 -15530375.03547  21203686.610    21203686.523    21203688.434
 -12106828.41449  -9401984.81846  22212434.986    22212435.111    22212438.346
 -15789738.88649 -12221294.74546  21926702.138    21926702.440    21926705.333
 -26511243.33749 -20636192.95248  20282408.881    20282409.040    20282409.555
 08  8  8  1  7 30.0000000  0  7G14G12G31G18G30G 9G22
 -16340870.87349 -12303120.56847  21467232.269    21467232.484    21467234.422
 -19050813.91849 -14783706.71147  21946481.037    21946481.337    21946483.107
 -10416775.69349  -8096533.58245  24154932.867    24154932.878    24154936.347
 -19913997.43249 -15476473.12847  21216850.008    21216849.481    21216851.895
 -12198793.63649  -9473646.01546  22194934.631    22194935.386    22194937.327
 -15695329.32549 -12147728.86046  21944667.654    21944667.743    21944670.281
 -26516407.05149 -20640216.63748  20281426.267    20281426.321    20281427.030
 08  8  8  1  8  0.0000000  0  7G14G12G31G18G30G 9G22
 -16387630.87349 -12339556.93047  21458334.164    21458333.805    21458336.180
 -19065824.14949 -14795402.96947  21943624.639    21943625.005    21943626.701
 -10512881.63349  -8171421.32345  24136644.519    24136644.998    24136647.581
 -19844386.51749 -15422230.86847  21230096.577    21230096.020    21230098.713
 -12290439.95849  -9545058.73346  22177494.942    22177495.080    22177497.949
 -15600680.73649 -12073976.72546  21962678.606    21962678.914    21962681.398
 -26521053.62949 -20643837.35648  20280542.047    20280542.263    20280542.794
 08  8  8  1  8 30.0000000  0  7G14G12G31G18G30G 9G22
 -16434224.55249 -12375863.68847  21449467.610    21449467.353    21449469.500
 -19080248.51149 -14806642.71347  21940879.765    21940879.715    21940881.420
 -10608801.10049  -8246163.73645  24118391.736    24118392.884    24118394.737
 -19774337.40549 -15367647.14447  21243426.469    21243426.442    21243428.276
 -12381761.72049  -9616218.53146  22160116.918    22160116.800    22160120.032
 -15505792.84149 -12000038.12746  21980735.187    21980735.623    21980738.337
 -26525179.31849 -20647052.19848  20279756.981    20279757.316    20279757.719
 08  8  8  1  9  0.0000000  0  7G14G12G31G18G30G 9G22
 -16480652.42449 -12412041.24647  21440632.736    21440632.709    21440634.932
 -19094086.58149 -14817425.59847  21938246.435    21938246.428    21938248.637
 -10704533.66849  -8320760.52645  24100174.544    24100175.426    24100177.418
 -19703852.47149 -15312723.82247  21256839.332    21256838.737    21256841.159
 -12472756.48649  -9687123.54046  22142801.037    22142801.597    22142804.001
 -15410669.15249 -11925915.79146  21998836.610    21998836.972    21998839.424
 -26528784.01549 -20649861.06648  20279071.033    20279071.301    20279071.798
 08  8  8  1  9 30.0000000  0  7G14G12G31G18G30G 9G22
 -16526914.61949 -12448089.70047  21431829.262    21431829.183    21431830.967
 -19107338.68049 -14827751.88747  21935724.651    21935724.874    21935726.661
 -10800078.48649  -8395211.00945  24081993.112    24081993.583    24081995.002
 -19632933.44549 -15257462.25747  21270334.771    21270334.554    21270336.247
 -12563421.46949  -9757771.58346  22125548.009    22125548.961    22125551.446
 -15315312.61849 -11851612.00846  22016982.407    22016982.870    22016985.704
 -26531867.37149 -20652263.70148  20278484.302    20278484.487    20278484.976
 08  8  8  1 10  0.0000000  0  7G14G12G31G18G30G 9G22
 -16573009.74849 -12484007.97447  21423057.615    21423056.896    21423059.867
 -19120003.07849 -14837620.23847  21933314.680    21933315.262    21933316.765
 -10895433.88749  -8469513.90545  24063847.624    24063847.865    24063850.634
 -19561581.54749 -15201863.39347  21283912.656    21283911.884    21283914.088
 -12653752.81849  -9828159.65246  22108358.534    22108358.652    22108362.304
 -15219725.09849 -11777128.23146  22035172.268    22035172.238    22035174.845
 -26534427.82149 -20654258.88548  20277997.083    20277997.355    20277997.874
 08  8  8  1 10 30.0000000  0  7G14G12G31G18G30G 9G22
 -16618938.35449 -12519796.49647  21414317.618    21414317.706    21414319.684
 -19132079.96449 -14847030.78847  21931016.429    21931016.453    21931018.612
 -10990599.42849  -8543668.86445  24045738.102    24045738.392    24045741.876
 -19489798.46549 -15145928.52847  21297572.466    21297572.258    21297574.123
 -12743748.42749  -9898286.10546  22091233.097    22091234.477    22091236.143
 -15123910.08849 -11702467.19646  22053405.264    22053405.465    22053408.010
 -26536465.40349 -20655846.63248  20277609.363    20277609.543    20277610.102
 08  8  8  1 11  0.0000000  0  7G14G12G31G18G30G 9G22
 -16664698.47849 -12555453.73347  21405609.757    21405609.845    21405612.041
 -19143567.35149 -14855981.98847  21928830.437    21928831.146    21928832.439
 -11085572.86849  -8617674.11945  24027665.221    24027665.433    24027668.544
 -19417584.64549 -15089658.03047  21311314.325    21311313.904    21311315.888
 -12833404.19849  -9968147.75046  22074172.227    22074171.909    22074175.292
 -15027868.91549 -11627629.92346  22071681.259    22071680.813    22071684.220
 -26537978.36149 -20657025.57848  20277321.501    20277321.532    20277322.247
 08  8  8  1 11 30.0000000  0  7G14G12G31G18G30G 9G22
 -16710289.57349 -12590979.25447  21396934.031    21396934.031    21396936.105
 -19154464.22449 -14864473.04047  21926756.902    21926757.452    21926759.068
 -11180352.77549  -8691528.56145  24009629.133    24009629.439    24009632.495
 -19344941.54449 -15033053.01747  21325137.798    21325137.245    21325140.041
 -12922716.81049 -10037741.99346  22057176.581    22057177.004    22057179.205
 -14931604.40149 -11552618.62446  22089999.711    22090000.321    22090002.257
 -26538965.93449 -20657795.13248  20277133.578    20277133.742    20277134.393
 08  8  8  1 12  0.0000000  0  7G14G12G31G18G30G 9G22
 -16755712.37749 -12626373.63947  21388290.406    21388290.654    21388292.429
 -19164771.70149 -14872504.83047  21924795.442    21924795.820    21924797.410
 -11274939.37149  -8765232.38645  23991629.966    23991630.740    23991632.783
 -19271871.94549 -14976115.69547  21339042.466    21339042.188    21339044.468
 -13011684.43249 -10107067.42546  22040246.638    22040246.465    22040249.665
 -14835120.07749 -11477436.04846  22108360.096    22108360.181    22108363.675
 -26539428.69249 -20658155.73948  20277045.526    20277045.693    20277046.315
 08  8  8  1 12 30.0000000  0  7G14G12G31G18G30G 9G22
 -16800965.79249 -12661636.03447  21379679.029    21379678.696    21379680.916
 -19174488.41949 -14880076.29047  21922946.385    21922946.280    21922948.592
 -11369330.84649  -8838784.16945  23973667.753    23973667.955    23973670.292
 -19198376.71049 -14918846.69547  21353028.164    21353028.076    21353030.280
 -13100303.09849 -10176120.94046  22023383.065    22023383.319    22023386.138
 -14738417.90749 -11402083.72046  22126761.869    22126761.951    22126764.969
 -26539365.07349 -20658106.18148  20277057.705    20277057.895    20277058.382
 08  8  8  1 13  0.0000000  0  7G14G12G31G18G30G 9G22
 -16846048.70349 -12696765.56447  21371100.022    21371099.955    21371102.106
 -19183613.13949 -14887186.45047  21921209.997    21921210.092    21921212.032
 -11463525.47949  -8912182.56545  23955742.837    23955742.824    23955746.479
 -19124456.84549 -14861246.82547  21367094.605    21367094.069    21367096.656
 -13188569.35149 -10244899.83746  22006586.580    22006586.067    22006589.627
 -14641499.98149 -11326563.26846  22145204.760    22145205.303    22145207.972
 -26538774.02749 -20657645.62848  20277170.186    20277170.197    20277170.877
 08  8  8  1 13 30.0000000  0  7G14G12G31G18G30G 9G22
 -16890961.31549 -12731762.39247  21362553.414    21362553.322    21362555.288
 -19192145.72049 -14893835.21647  21919586.327    21919586.566    21919588.579
 -11557522.82349  -8985427.24445  23937855.532    23937855.677    23937859.384
 -19050114.25549 -14803317.55647  21381241.551    21381241.095    21381243.598
 -13276481.00449 -10313402.42546  21989857.492    21989857.918    21989860.696
 -14544369.41749 -11250877.12846  22163688.178    22163688.288    22163691.933
 -26537655.74649 -20656774.24748  20277382.978    20277383.020    20277383.727
 08  8  8  1 14  0.0000000  0  7G14G12G31G18G30G 9G22
 -16935702.40449 -12766625.58347  21354039.485    21354039.306    21354041.877
 -19200085.41949 -14900021.99347  21918075.399    21918075.972    21918077.459
 -11651321.25649  -9058516.92945  23920006.344    23920006.184    23920010.355
 -18975350.49349 -14745060.10147  21395468.599    21395468.226    21395470.252
 -13364034.34949 -10381625.81946  21973196.560    21973197.012    21973200.122
 -14447028.39949 -11175027.00046  22182211.475    22182211.804    22182214.110
 -26536008.78949 -20655490.90548  20277696.403    20277696.453    20277697.136
 08  8  8  1 14 30.0000000  0  7G14G12G31G18G30G 9G22
 -16980272.62349 -12801355.61547  21345558.072    21345557.488    21345560.384
 -19207432.55549 -14905747.02747  21916677.310    21916677.380    21916679.351
 -11744920.60349  -9131451.46545  23902195.011    23902195.754    23902197.847
 -18900167.70649 -14686476.13547  21409775.386    21409774.951    21409777.041
 -13451227.24049 -10449568.33046  21956604.285    21956604.309    21956607.410
 -14349480.20249 -11099015.44146  22200774.342    22200774.174    22200777.222
 -26533833.30749 -20653795.73248  20278110.417    20278110.676    20278111.041
 08  8  8  1 15  0.0000000  0  7G14G12G31G18G30G 9G22
 -17024670.63249 -12835951.46547  21337109.403    21337109.247    21337111.588
 -19214186.10949 -14911009.53247  21915392.057    21915392.440    21915394.066
 -11838318.98849  -9204229.39845  23884421.900    23884423.068    23884424.858
 -18824566.88549 -14627566.41647  21424161.786    21424161.662    21424164.207
 -13538056.26849 -10517227.30746  21940081.233    21940081.158    21940084.369
 -14251726.66849 -11022843.87346  22219376.121    22219376.446    22219378.498
 -26531128.46349 -20651688.07148  20278625.162    20278625.300    20278625.847
 08  8  8  1 15 30.0000000  0  7G14G12G31G18G30G 9G22
 -17068895.58349 -12870412.46947  21328693.689    21328693.383    21328695.479
 -19220345.00249 -14915808.67747  21914220.004    21914220.731    21914221.926
 -11931514.86249  -9276849.52745  23866687.400    23866688.485    23866689.483
 -18748548.86949 -14568331.62047  21438627.533    21438627.277    21438629.422
 -13624517.58849 -10584599.76846  21923628.110    21923628.848    21923631.252
 -14153770.03149 -10946514.04146  22238016.625    22238016.432    22238019.593
 -26527893.03749 -20649166.97148  20279240.857    20279240.864    20279241.808
 08  8  8  1 16  0.0000000  0  7G14G12G31G18G30G 9G22
 -17112947.31649 -12904738.49547  21320310.923    21320310.856    21320312.868
 -19225909.60549 -14920144.72547  21913161.127    21913161.504    21913163.389
 -12024507.99749  -9349311.67545  23848991.405    23848992.096    23848994.033
 -18672116.69049 -14508774.09347  21453172.101    21453172.428    21453174.052
 -13710608.95349 -10651683.93846  21907245.503    21907246.059    21907249.034
 -14055613.44249 -10870028.40546  22256695.305    22256695.241    22256698.219
 -26524127.00549 -20646232.41948  20279957.477    20279957.607    20279958.226
 08  8  8  1 16 30.0000000  0  7G14G12G31G18G30G 9G22
 -17156826.59649 -12938930.13947  21311960.920    21311960.767    21311962.945
 -19230880.72949 -14924018.32247  21912215.113    21912215.209    21912217.312
 -12117298.47549  -9421615.89945  23831334.021    23831334.980    23831336.241
 -18595272.78949 -14448895.73647  21467795.064    21467794.865    21467797.000
 -13796328.55349 -10718478.43746  21890933.675    21890934.292    21890936.574
 -13957260.64449 -10793389.87946  22275411.308    22275411.164    22275414.625
 -26519831.58949 -20642885.36348  20280774.910    20280774.992    20280775.723
 08  8  8  1 17  0.0000000  0  7G14G12G31G18G30G 9G22
 -17200530.98249 -12972985.49847  21303644.246    21303643.924    21303646.212
 -19235255.91549 -14927427.56347  21911382.483    21911382.476    21911384.828
 -12209883.14749  -9493759.76945  23813715.899    23813717.137    23813718.331
 -18518016.90049 -14388696.34547  21482496.465    21482496.267    21482498.542
 -13881671.50849 -10784979.43546  21874693.548    21874693.725    21874696.162
 -13858711.96549 -10716598.71546  22294164.483    22294165.131    22294167.137
 -26515003.89349 -20639123.54048  20281693.570    20281693.796    20281694.371
 08  8  8  1 17 30.0000000  0  7G14G12G31G18G30G 9G22
 -17244060.33549 -13006904.46547  21295360.871    21295360.838    21295363.234
 -19239035.19549 -14930372.46147  21910663.288    21910664.023    21910666.002
 -12302261.51349  -9565742.88045  23796136.918    23796137.397    23796138.666
 -18440351.05849 -14328177.51047  21497275.842    21497275.616    21497277.397
 -13966635.10649 -10851184.82146  21858525.591    21858526.337    21858528.847
 -13759970.34849 -10639657.20846  22312954.419    22312954.443    22312957.462
 -26509643.60049 -20634946.70648  20282713.631    20282713.809    20282714.497
 08  8  8  1 18  0.0000000  0  7G14G12G31G18G30G 9G22
 -17287412.53749 -13040685.39647  21287111.210    21287111.240    21287113.134
 -19242216.77149 -14932851.61247  21910057.883    21910058.442    21910060.157
 -12394431.09149  -9637563.29345  23778597.592    23778598.039    23778600.239
 -18362275.30949 -14267339.28147  21512133.148    21512132.491    21512135.126
 -14051214.85449 -10917091.10946  21842430.637    21842431.259    21842433.836
 -13661036.84749 -10562566.18946  22331780.880    22331781.619    22331783.645
 -26503748.75749 -20630353.34048  20283835.433    20283835.693    20283836.248
 08  8  8  1 18 30.0000000  0  7G14G12G31G18G30G 9G22
 -17330588.34749 -13074328.88547  21278895.084    21278894.798    21278897.258
 -19244801.80149 -14934865.92747  21909566.021    21909566.483    21909567.871
 -12486391.84649  -9709220.98345  23761097.963    23761098.434    23761100.355
 -18283792.83149 -14206184.11846  21527067.904    21527067.641    21527069.867
 -14135409.13449 -10982697.03646  21826409.001    21826409.511    21826412.398
 -13561915.69849 -10485328.94946  22350643.034    22350643.392    22350646.601
 -26497320.60249 -20625344.40148  20285058.701    20285058.696    20285059.580
 08  8  8  1 19  0.0000000  0  7G14G12G31G18G30G 9G22
 -17373586.40449 -13107833.86747  21270712.816    21270712.802    21270715.334
 -19246789.06649 -14936414.45947  21909187.855    21909188.474    21909189.682
 -12578142.16849  -9780714.73745  23743638.383    23743638.551    23743641.252
 -18204904.65249 -14144712.81946  21542079.771    21542079.389    21542082.157
 -14219214.48949 -11047999.89946  21810461.382    21810461.632    21810464.426
 -13462608.13249 -10407946.46946  22369540.649    22369541.259    22369544.188
 -26490357.88649 -20619918.91448  20286383.655    20286383.719    20286384.651
 08  8  8  1 19 30.0000000  0  7G14G12G31G18G30G 9G22
 -17416406.73249 -13141200.36047  21262564.411    21262564.443    21262566.455
 -19248179.02049 -14937497.54847  21908923.408    21908923.428    21908925.458
 -12669681.69749  -9852044.20045  23726218.966    23726219.260    23726221.570
 -18125612.83449 -14082927.00646  21557168.488    21557168.393    21557170.525
 -14302628.51749 -11112997.84646  21794588.169    21794587.861    21794591.269
 -13363117.13949 -10330421.04346  22388473.233    22388472.913    22388476.068
 -26482860.96349 -20614077.15848  20287810.290    20287810.281    20287810.940
 08  8  8  1 20  0.0000000  0  7G14G12G31G18G30G 9G22
 -17459048.77149 -13174427.92347  21254449.930    21254449.781    21254451.912
 -19248971.51749 -14938115.07747  21908772.646    21908772.602    21908774.688
 -12761009.22749  -9923208.47845  23708839.944    23708840.112    23708842.385
 -18045919.33149 -14020828.16546  21572333.686    21572333.394    21572335.672
 -14385648.05149 -11177688.41346  21778790.032    21778790.477    21778793.372
 -13263445.08849 -10252754.52746  22407440.198    22407440.482    22407443.401
 -26474828.82249 -20607818.35148  20289338.739    20289338.803    20289339.618
 08  8  8  1 20 30.0000000  0  7G14G12G31G18G30G 9G22
 -17501512.14749 -13207516.26747  21246369.356    21246369.235    21246371.210
 -19249166.66149 -14938267.13247  21908735.540    21908735.518    21908737.689
 -12852124.28849  -9994207.21245  23691501.346    23691501.885    23691503.563
 -17965826.39849 -13958418.09946  21587574.766    21587574.993    21587576.968
 -14468270.47849 -11242069.53446  21763067.507    21763067.982    21763070.585
 -13163595.16049 -10174949.41346  22426441.038    22426441.298    22426443.869
 -26466261.97849 -20601142.89948  20290968.947    20290968.865    20290969.798
 08  8  8  1 21  0.0000000  0  7G14G12G31G18G30G 9G22
 -17543795.93649 -13240464.67847  21238323.004    21238322.925    21238325.039
 -19248763.62549 -14937953.08847  21908812.244    21908812.505    21908814.151
 -12943025.00549 -10065038.93945  23674203.461    23674203.860    23674206.269
 -17885334.70349 -13895697.31647  21602891.915    21602891.479    21602894.088
 -14550492.13749 -11306138.34646  21747421.168    21747421.903    21747424.638
 -13063569.02749 -10097006.98446  22445475.433    22445475.301    22445478.042
 -26457159.20949 -20594049.84748  20292701.124    20292701.155    20292702.058
 08  8  8  1 21 30.0000000  0  7G14G12G31G18G30G 9G22
 -17585898.99749 -13273272.25347  21230311.050    21230310.642    21230313.385
 -19247761.51549 -14937172.22147  21909002.968    21909003.353    21909005.259
 -13033710.38949 -10135702.85946  23656946.543    23656946.936    23656948.995
 -17804446.13549 -13832667.26947  21618284.589    21618284.623    21618286.247
 -14632309.96549 -11369892.49446  21731851.729    21731851.852    21731855.195
 -12963368.68949 -10018928.80346  22464542.966    22464542.251    22464545.324
 -26447520.08049 -20586538.86248  20294535.396    20294535.435    20294536.352
 08  8  8  1 22  0.0000000  0  7G14G12G31G18G30G 9G22
 -17627821.04949 -13305938.79047  21222333.539    21222333.464    21222336.235
 -19246161.61149 -14935925.53947  21909307.373    21909307.522    21909309.468
 -13124179.55949 -10206198.28545  23639730.830    23639730.815    23639732.749
 -17723162.67549 -13769329.50047  21633752.392    21633751.995    21633754.323
 -14713721.41649 -11433329.98246  21716359.658    21716360.197    21716363.152
 -12862996.99749  -9940717.10846  22483642.955    22483643.258    22483645.805
 -26437344.43149 -20578609.80548  20296471.727    20296471.795    20296472.666
 08  8  8  1 22 30.0000000  0  7G14G12G31G18G30G 9G22
 -17669560.86649 -13338463.32447  21214390.760    21214390.673    21214392.985
 -19243962.76149 -14934212.15047  21909725.742    21909725.972    21909727.501
 -13214430.83549 -10276523.93745  23622556.411    23622556.964    23622558.744
 -17641485.40249 -13705684.86446  21649295.119    21649294.465    21649296.580
 -14794722.83749 -11496447.96546  21700945.664    21700946.397    21700948.912
 -12762455.65749  -9862373.22546  22502775.267    22502774.783    22502778.635
 -26426631.03849 -20570261.72348  20298510.433    20298510.743    20298511.469
 08  8  8  1 23  0.0000000  0  7G14G12G31G18G30G 9G22
 -17711118.56749 -13370845.93447  21206482.534    21206482.388    21206484.566
 -19241165.51849 -14932032.46947  21910258.064    21910258.404    21910259.983
 -13304463.86649 -10346679.53045  23605423.639    23605424.575    23605426.675
 -17559416.85149 -13641735.35546  21664912.176    21664911.794    21664913.923
 -14875311.95749 -11559244.65246  21685610.044    21685610.454    21685613.201
 -12661747.79149  -9783899.58746  22521939.327    22521939.136    22521942.587
 -26415380.72749 -20561495.26548  20300651.286    20300651.441    20300652.180
 08  8  8  1 23 30.0000000  0  7G14G12G31G18G30G 9G22
 -17752493.33049 -13403086.01347  21198609.192    21198608.818    21198611.608
 -19237769.29449 -14929386.04747  21910904.355    21910904.546    21910906.459
 -13394277.57249 -10416664.22646  23588332.698    23588334.066    23588336.086
 -17476958.54649 -13577482.13846  21680603.465    21680603.171    21680605.280
 -14955485.92949 -11621717.86746  21670353.422    21670353.896    21670356.471
 -12560875.53449  -9705297.85546  22541134.771    22541134.847    22541137.546
 -26403592.71949 -20552309.80848  20302894.474    20302894.698    20302895.352
 08  8  8  1 24  0.0000000  0  7G14G12G31G18G30G 9G22
 -17793684.56149 -13435183.07547  21190770.769    21190770.775    21190772.916
 -19233774.41349 -14926273.14847  21911664.526    21911664.760    21911666.557
 -13483871.32349 -10486477.53046  23571283.639    23571284.569    23571286.462
 -17394112.56849 -13512926.84446  21696368.563    21696368.657    21696370.241
 -15035241.72549 -11683865.23546  21655176.379    21655176.753    21655179.367
 -12459841.39949  -9626569.98246  22560360.903    22560360.028    22560364.297
 -26391267.29649 -20542705.59348  20305239.969    20305240.185    20305240.979
 08  8  8  1 24 30.0000000  0  7G14G12G31G18G30G 9G22
 -17834690.61849 -13467135.84447  21182967.596    21182967.387    21182969.585
 -19229180.33449 -14922693.33947  21912538.701    21912539.105    21912540.926
 -13573243.15649 -10556117.90846  23554276.912    23554278.153    23554279.539
 -17310880.10449 -13448070.38946  21712207.101    21712206.152    21712209.253
 -15114575.99049 -11745684.12346  21640079.547    21640080.104    21640082.555
 -12358647.21849  -9547717.39046  22579617.494    22579618.276    22579620.695
 -26378403.18949 -20532681.62948  20307687.987    20307688.020    20307688.825
 08  8  8  1 25  0.0000000  0  7G14G12G31G18G30G 9G22
 -17875513.83749 -13498946.14047  21175199.256    21175199.285    21175201.786
 -19223989.79149 -14918648.75147  21913526.465    21913526.921    21913528.592
 -13662394.83249 -10625586.70446  23537312.029    23537312.807    23537313.796
 -17227265.43349 -13382916.11146  21728118.435    21728117.937    21728120.188
 -15193488.52449 -11807174.40647  21625062.974    21625063.080    21625066.255
 -12257298.01349  -9468744.00546  22598903.647    22598903.864    22598906.767
 -26365003.14349 -20522240.04548  20310237.943    20310238.085    20310238.853
 08  8  8  1 25 30.0000000  0  7G14G12G31G18G30G 9G22
 -17916150.28049 -13530610.89747  21167466.387    21167466.108    21167468.606
 -19218199.29349 -14914136.67447  21914628.363    21914628.418    21914630.762
 -13751321.94849 -10694880.51746  23520389.723    23520390.482    23520391.840
 -17143267.24249 -13317462.97946  21744102.840    21744102.391    21744104.199
 -15271972.97549 -11868331.12747  21610127.887    21610128.200    21610130.893
 -12155792.23449  -9389648.62646  22618219.613    22618219.522    22618222.524
 -26351063.42149 -20511377.94748  20312890.628    20312890.768    20312891.449
 08  8  8  1 26  0.0000000  0  7G14G12G31G18G30G 9G22
 -17956599.54549 -13562129.79947  21159769.075    21159769.057    21159771.053
 -19211809.28849 -14909157.44347  21915844.323    21915844.766    21915846.342
 -13840024.45349 -10763999.33546  23503510.136    23503510.578    23503512.221
 -17058887.90349 -13251712.85546  21760159.623    21760158.736    21760160.783
 -15350027.04749 -11929152.47347  21595274.610    21595274.862    21595277.965
 -12054132.98449  -9310433.64646  22637564.759    22637564.860    22637567.823
 -26336584.47549 -20500095.66748  20315645.872    20315646.281    20315646.602
 08  8  8  1 26 30.0000000  0  7G14G12G31G18G30G 9G22
 -17996861.29449 -13593502.59547  21152107.554    21152107.591    21152109.801
 -19204820.30749 -14903711.47247  21917174.257    21917174.796    21917176.157
 -13928501.35149 -10832942.33746  23486673.555    23486673.874    23486675.556
 -16974129.68049 -13185667.50146  21776288.432    21776288.049    21776290.652
 -15427648.17049 -11989636.44847  21580503.803    21580504.058    21580507.153
 -11952322.77849  -9231101.05046  22656938.489    22656938.108    22656940.644
 -26321566.24149 -20488393.16148  20318503.754    20318503.783    20318504.674
 08  8  8  1 27  0.0000000  0  7G14G12G31G18G30G 9G22
 -18036935.01749 -13624728.87047  21144481.764    21144481.470    21144483.936
 -19197232.69949 -14897799.04447  21918618.143    21918618.506    21918620.017
 -14016751.55649 -10901708.71746  23469879.984    23469880.460    23469882.597
 -16888994.19849 -13119328.17846  21792489.195    21792489.014    21792491.559
 -15504833.67049 -12049780.98247  21565815.836    21565816.296    21565819.084
 -11850363.94649  -9151652.62746  22676340.635    22676340.586    22676343.292
 -26306008.84549 -20476270.52848  20321464.274    20321464.263    20321465.120
 08  8  8  1 27 30.0000000  0  7G14G12G31G18G30G 9G22
 -18076819.75349 -13655807.87747  21136891.932    21136892.134    21136894.246
 -19189046.29449 -14891420.01447  21920175.938    21920176.288    21920178.101
 -14104774.25149 -10970297.78146  23453129.738    23453129.856    23453131.779
 -16803483.30649 -13052696.33146  21808761.328    21808761.179    21808763.669
 -15581580.34049 -12109583.57447  21551211.497    21551211.757    21551214.318
 -11748258.82749  -9072090.21346  22695770.655    22695771.035    22695773.424
 -26289911.88649 -20463727.46348  20324527.420    20324527.722    20324528.292
 08  8  8  1 28  0.0000000  0  7G14G12G31G18G30G 9G22
 -18116515.50249 -13686739.63247  21129338.089    21129337.994    21129340.262
 -19180262.07049 -14884575.15447  21921847.498    21921848.050    21921849.628
 -14192569.16849 -11038709.36346  23436422.901    23436423.052    23436425.228
 -16717599.67449 -12985774.05646  21825104.566    21825104.814    21825106.302
 -15657886.01449 -12169042.54347  21536690.990    21536691.579    21536694.312
 -11646010.24549  -8992416.02046  22715227.939    22715228.075    22715230.940
 -26273275.82049 -20450764.30948  20327693.204    20327693.501    20327693.896
 08  8  8  1 28 30.0000000  0  7G14G12G31G18G30G 9G22
 -18156021.08149 -13717523.19447  21121820.444    21121820.038    21121822.550
 -19170879.59949 -14877264.12647  21923632.946    21923633.584    21923634.937
 -14280134.78749 -11106942.27746  23419759.447    23419759.328    23419762.767
 -16631344.77649 -12918562.47046  21841518.340    21841518.391    21841520.008
 -15733747.94049 -12228155.73347  21522254.993    21522255.313    21522258.303
 -11543620.32649  -8912631.70146  22734712.110    22734712.486    22734714.756
 -26256100.44549 -20437380.91748  20330961.533    20330961.538    20330962.373
 08  8  8  1 29  0.0000000  0  7G14G12G31G18G30G 9G22
 -18195334.97349 -13748157.39547  21114339.214    21114339.287    21114341.542
 -19160898.38349 -14869486.53847  21925532.405    21925532.440    21925534.164
 -14367469.76249 -11174995.48946  23403140.019    23403140.213    23403142.159
 -16544719.49949 -12851062.25946  21858002.630    21858002.420    21858004.502
 -15809162.10549 -12286920.01447  21507904.219    21507904.697    21507907.220
 -11441090.03849  -8832737.98646  22754223.102    22754222.589    22754226.347
 -26238384.72849 -20423576.47748  20334332.698    20334332.884    20334333.490
 08  8  8  1 29 30.0000000  0  7G14G12G31G18G30G 9G22
 -18234457.56849 -13778642.53147  21106894.432    21106894.181    21106896.744
 -19150320.10349 -14861243.70647  21927545.312    21927545.726    21927547.355
 -14454574.33949 -11242869.16646  23386564.628    23386565.348    23386567.548
 -16457727.48749 -12783276.28046  21874556.634    21874555.490    21874558.590
 -15884126.77449 -12345334.02147  21493638.900    21493639.223    21493642.346
 -11338423.02449  -8752737.75646  22773759.967    22773759.794    22773763.843
 -26220129.84349 -20409351.90248  20337806.554    20337806.669    20337807.261
 08  8  8  1 30  0.0000000  0  7G14G12G31G18G30G 9G22
 -18273388.32149 -13808978.18147  21099486.190    21099486.190    21099488.417
 -19139144.91449 -14852535.74847  21929671.855    21929672.484    21929673.745
 -14541447.32749 -11310562.38546  23370033.389    23370033.502    23370035.552
 -16370370.36249 -12715205.79946  21891180.066    21891179.732    21891182.158
 -15958639.75149 -12403396.05047  21479459.544    21479459.699    21479462.616
 -11235621.54349  -8672632.72346  22793322.457    22793322.751    22793325.139
 -26201335.99749 -20394707.36148  20341382.882    20341383.104    20341383.622
 08  8  8  1 30 30.0000000  0  7G14G12G31G18G30G 9G22
 -18312126.36849 -13839163.66647  21092114.611    21092114.203    21092116.716
 -19127372.80949 -14843362.66647  21931912.006    21931912.443    21931913.519
 -14628087.81549 -11378074.43146  23353546.128    23353546.686    23353549.577
 -16282650.20549 -12646852.44146  21907872.645    21907872.475    21907874.737
 -16032697.97249 -12461103.72947  21465366.605    21465366.996    21465369.880
 -11132687.91749  -8592424.73946  22812910.249    22812910.471    22812913.765
 -26182002.63449 -20379642.41148  20345061.944    20345062.276    20345062.835
 08  8  8  1 31  0.0000000  0  7G14G12G31G18G30G 9G22
 -18350669.05849 -13869196.92847  21084780.120    21084780.170    21084782.300
 -19115002.56049 -14833723.50047  21934265.981    21934266.233    21934268.179
 -14714493.18749 -11445403.27346  23337103.727    23337103.849    23337106.293
 -16194567.06049 -12578216.25246  21924634.226    21924634.381    21924636.693
 -16106296.70349 -12518453.37047  21451361.230    21451361.861    21451364.421
 -11029622.37649  -8512113.94246  22832522.921    22832522.683    22832526.645
 -26162128.54549 -20364156.11948  20348843.859    20348844.128    20348844.513
 08  8  8  1 31 30.0000000  0  7G14G12G31G18G30G 9G22
 -18389017.67649 -13899078.96847  21077482.646    21077482.323    21077484.808
 -19102036.27649 -14823619.91147  21936733.365    21936733.765    21936735.322
 -14800664.38249 -11512549.63046  23320705.794    23320705.711    23320708.064
 -16106124.69349 -12509300.12546  21941464.279    21941463.711    21941466.366
 -16179435.20649 -12575444.38547  21437443.369    21437443.757    21437446.775
 -10926428.96349  -8431703.52046  22852159.889    22852159.209    22852162.781
 -26141714.92949 -20348249.41847  20352728.454    20352728.659    20352729.142
 08  8  8  1 32  0.0000000  0  7G14G12G31G18G30G 9G22
 -18427170.57049 -13928808.49347  21070222.474    21070222.249    21070224.592
 -19088473.60049 -14813051.59147  21939314.157    21939314.559    21939316.303
 -14886599.59949 -11579512.12146  23304352.814    23304353.682    23304355.778
 -16017324.07349 -12440104.85646  21958362.506    21958362.382    21958364.623
 -16252109.65949 -12632073.81047  21423613.873    21423614.121    21423616.728
 -10823109.01149  -8351194.48845  22871820.919    22871821.158    22871825.004
 -26120761.56849 -20331922.13847  20356715.735    20356715.959    20356716.599
 08  8  8  1 32 30.0000000  0  7G14G12G31G18G30G 9G22
 -18465127.49749 -13958385.30747  21062999.484    21062999.349    21063001.630
 -19074315.64149 -14802019.40647  21942008.344    21942008.703    21942010.200
 -14972298.81549 -11646290.71346  23288044.906    23288045.691    23288047.467
 -15928168.32149 -12370632.83546  21975328.361    21975327.637    21975330.558
 -16324318.32649 -12688340.28447  21409873.011    21409873.253    21409875.983
 -10719665.57349  -8270589.22846  22891505.498    22891506.550    22891508.745
 -26099268.99749 -20315174.69447  20360805.662    20360805.877    20360806.429
 08  8  8  1 33  0.0000000  0  7G14G12G31G18G30G 9G22
 -18502887.38949 -13987808.59547  21055813.934    21055814.073    21055816.143
 -19059562.28749 -14790523.28847  21944815.838    21944815.570    21944818.179
 -15057760.69749 -11712884.36346  23271782.011    23271782.280    23271784.795
 -15838658.76549 -12300885.13646  21992361.446    21992361.275    21992363.715
 -16396058.12249 -12744241.43247  21396221.314    21396221.454    21396224.583
 -10616100.40249  -8189889.10046  22911213.399    22911213.107    22911216.537
 -26077236.92549 -20298006.86447  20364998.230    20364998.055    20364999.137
 08  8  8  1 33 30.0000000  0  7G14G12G31G18G30G 9G22
 -18540450.88449 -14017078.83847  21048665.852    21048665.672    21048667.935
 -19044215.31349 -14778564.60247  21947736.221    21947736.898    21947738.508
 -15142985.93149 -11779293.59946  23255564.060    23255564.558    23255567.148
 -15748799.15449 -12230864.67246  22009461.080    22009461.467    22009463.050
 -16467327.66849 -12799776.15147  21382659.151    21382659.683    21382662.469
 -10512416.67049  -8109096.60345  22930943.756    22930944.008    22930946.613
 -26054666.54849 -20280419.57647  20369293.193    20369293.422    20369294.065
 08  8  8  1 34  0.0000000  0  7G14G12G31G18G30G 9G22
 -18577814.34649 -14046193.21547  21041555.841    21041556.034    21041558.045
 -19028272.40649 -14766141.55147  21950770.107    21950770.468    21950771.995
 -15227970.82349 -11845515.57646  23239391.938    23239392.134    23239393.762
 -15658588.41549 -12160570.62146  22026627.705    22026627.373    22026629.280
 -16538121.26049 -12854939.99247  21369187.642    21369187.879    21369191.182
 -10408613.65049  -8028211.17245  22950696.866    22950697.093    22950700.046
 -26031555.58349 -20262411.04947  20373691.081    20373691.197    20373692.129
 08  8  8  1 34 30.0000000  0  7G14G12G31G18G30G 9G22
 -18614978.46249 -14075152.26147  21034483.763    21034483.540    21034485.782
 -19011735.47249 -14753255.61947  21953916.960    21953917.000    21953919.286
 -15312715.40149 -11911550.30546  23223265.591    23223265.938    23223268.143
 -15568029.72249 -12090005.40946  22043860.489    22043859.833    22043862.038
 -16608437.82349 -12909732.11447  21355806.862    21355807.122    21355810.144
 -10304695.29049  -7947235.82545  22970471.864    22970471.613    22970475.170
 -26007905.55949 -20243982.47147  20378191.516    20378191.801    20378192.614
 08  8  8  1 35  0.0000000  0  7G14G12G31G18G30G 9G22
 -18651942.21049 -14103955.17347  21027449.794    21027449.600    21027451.633
 -18994605.01449 -14739907.20747  21957176.754    21957177.243    21957178.951
 -15397219.26849 -11977397.45846  23207185.053    23207185.550    23207186.957
 -15477125.07249 -12019170.64346  22061159.033    22061159.447    22061160.146
 -16678274.98049 -12964150.69147  21342517.289    21342517.952    21342520.326
 -10200663.47149  -7866172.09745  22990268.324    22990268.858    22990271.715
 -25983716.55849 -20225133.92147  20382794.567    20382795.085    20382795.526
 08  8  8  1 35 30.0000000  0  7G14G12G31G18G30G 9G22
 -18688704.77549 -14132601.32347  21020454.178    21020454.032    21020456.363
 -18976881.46949 -14726096.65247  21960549.446    21960550.177    21960551.512
 -15481481.58649 -12043056.39646  23191150.537    23191151.600    23191152.758
 -15385876.90549 -11948068.20846  22078523.017    22078522.827    22078524.402
 -16747629.59849 -13018193.24447  21329319.445    21329319.919    21329323.020
 -10096520.11549  -7785021.44645  23010086.155    23010086.309    23010089.114
 -25958989.19849 -20205865.86447  20387500.097    20387500.177    20387500.977
 08  8  8  1 36  0.0000000  0  7G14G12G31G18G30G 9G22
 -18725265.93749 -14161090.53947  21013496.805    21013496.359    21013498.779
 -18958566.31049 -14711825.09547  21964034.705    21964035.355    21964036.807
 -15565501.98849 -12108526.84246  23175162.033    23175162.769    23175164.894
 -15294287.62349 -11876699.94446  22095952.031    22095951.951    22095953.520
 -16816499.69449 -13071858.24847  21316213.970    21316214.432    21316217.036
  -9992267.82949  -7703785.92245  23029924.815    23029925.464    23029926.735
 -25933723.55949 -20186178.36947  20392308.002    20392308.189    20392308.795
 08  8  8  1 36 30.0000000  0  7G14G12G31G18G30G 9G22
 -18761626.22149 -14189423.22047  21006577.667    21006577.569    21006579.760
 -18939660.97849 -14697093.66147  21967632.344    21967632.564    21967634.139
 -15649280.85649 -12173809.07446  23159219.566    23159220.106    23159221.790
 -15202360.70449 -11805068.61046  22113445.151    22113444.631    22113447.289
 -16884884.15449 -13125144.84047  21303200.831    21303201.490    21303203.978
  -9887910.40249  -7622468.48545  23049783.403    23049783.087    23049786.442
 -25907921.72049 -20166073.04247  20397217.962    20397218.040    20397218.892
 08  8  8  1 37  0.0000000  0  7G14G12G31G18G30G 9G22
 -18797782.25549 -14217596.75347  20999697.434    20999697.302    20999699.335
 -18920163.62149 -14681900.91147  21971342.520    21971342.766    21971344.441
 -15732814.86049 -12238900.50746  23143323.504    23143324.390    23143326.445
 -15110095.57349 -11733173.72746  22131002.581    22131002.935    22131005.352
 -16952777.69049 -13178048.89747  21290281.153    21290281.395    21290284.542
  -9783447.03149  -7541068.46745  23069662.124    23069662.805    23069666.539
 -25881581.06149 -20145547.85847  20402230.414    20402230.660    20402231.397
 08  8  8  1 37 30.0000000  0  7G14G12G31G18G30G 9G22
 -18833733.38649 -14245610.61547  20992856.147    20992855.978    20992858.357
 -18900075.01349 -14666247.45147  21975165.215    21975165.480    21975166.977
 -15816103.42749 -12303800.70346  23127474.167    23127474.363    23127476.412
 -15017494.63949 -11661017.17946  22148624.064    22148623.297    22148626.274
 -17020177.80449 -13230568.46647  21277455.329    21277455.914    21277458.624
  -9678880.17249  -7459587.83745  23089560.526    23089561.529    23089563.510
 -25854701.75949 -20124602.95547  20407345.415    20407345.539    20407346.267
 08  8  8  1 38  0.0000000  0  7G14G12G31G18G30G 9G22
 -18869478.91949 -14273464.27147  20986054.004    20986053.777    20986056.151
 -18879396.05549 -14650133.96947  21979100.383    21979100.855    21979102.559
 -15899145.96349 -12368509.16046  23111671.738    23111672.002    23111673.873
 -14924560.03149 -11588600.62346  22166309.012    22166308.084    22166310.995
 -17087082.20449 -13282701.77147  21264723.905    21264724.268    21264726.952
  -9574211.94749  -7378028.20945  23109478.230    23109479.260    23109482.236
 -25827284.52549 -20103238.88047  20412562.746    20412563.037    20412563.479
 08  8  8  1 38 30.0000000  0  7G14G12G31G18G30G 9G22
 -18905018.37349 -14301157.34347  20979291.044    20979290.969    20979293.003
 -18858128.17649 -14633561.58847  21983147.526    21983147.424    21983149.319
 -15981942.09349 -12433025.62046  23095916.245    23095916.829    23095918.266
 -14831294.32649 -11515926.07046  22184056.750    22184056.487    22184058.857
 -17153488.86449 -13334447.21447  21252087.171    21252087.386    21252090.305
  -9469444.89549  -7296391.56845  23129414.736    23129414.709    23129418.392
 -25799330.24049 -20081456.31847  20417882.288    20417882.344    20417883.242
 08  8  8  1 39  0.0000000  0  7G14G12G31G18G30G 9G22
 -18940350.64149 -14328688.97347  20972567.525    20972567.284    20972569.588
 -18836271.28149 -14616530.23847  21987306.692    21987307.134    21987308.387
 -16064490.56149 -12497349.10346  23080207.789    23080209.024    23080210.453
 -14737699.02649 -11442994.69646  22201867.356    22201866.378    22201869.792
 -17219394.67949 -13385802.38847  21239545.745    21239545.928    21239548.842
  -9364580.44949  -7214679.05145  23149369.670    23149369.255    23149373.203
 -25770839.04949 -20059255.39647  20423303.981    20423304.241    20423304.976
 08  8  8  1 39 30.0000000  0  7G14G12G31G18G30G 9G22
 -18975475.47549 -14356058.96747  20965883.379    20965883.201    20965885.680
 -18813826.98049 -14599041.17447  21991577.708    21991577.947    21991579.582
 -16146791.19449 -12561479.45446  23064546.443    23064546.097    23064548.972
 -14643777.09649 -11369808.81246  22219740.088    22219739.644    22219743.149
 -17284797.93449 -13436765.95047  21227099.847    21227100.314    21227103.146
  -9259621.51249  -7132892.87645  23169342.600    23169342.808    23169347.047
 -25741811.43449 -20036636.47747  20428827.779    20428827.827    20428828.634
 08  8  8  1 40  0.0000000  0  7G14G12G31G18G30G 9G22
 -19010390.84649 -14383265.73547  20959239.203    20959238.811    20959241.387
 -18790794.66749 -14581093.91047  21995960.593    21995960.673    21995962.680
 -16228842.05349 -12625415.17146  23048932.591    23048932.966    23048934.303
 -14549529.49549 -11296369.15446  22237674.863    22237674.398    22237677.667
 -17349695.15549 -13487335.20047  21214750.342    21214750.694    21214753.392
  -9154568.68149  -7051033.55145  23189333.518    23189333.748    23189337.176
 -25712246.85649 -20013599.15647  20434453.700    20434453.822    20434454.313
 08  8  8  1 40 30.0000000  0  7G14G12G31G18G30G 9G22
 -19045097.50049 -14410309.88047  20952634.733    20952634.593    20952636.726
 -18767176.84149 -14562690.41547  22000454.936    22000455.552    22000456.963
 -16310644.31849 -12689157.18746  23033366.083    23033365.313    23033367.952
 -14454959.82149 -11222678.51546  22255670.836    22255670.850    22255673.120
 -17414085.47949 -13537509.46547  21202497.304    21202497.576    21202500.276
  -9049425.43249  -6969103.79445  23209341.829    23209341.717    23209345.314
 -25682147.71749 -19990145.29847  20440181.392    20440181.387    20440182.150
 08  8  8  1 41  0.0000000  0  7G14G12G31G18G30G 9G22
 -19079594.32649 -14437190.52047  20946070.281    20946070.157    20946072.137
 -18742974.10849 -14543831.14347  22005060.575    22005060.873    22005062.484
 -16392196.89949 -12752704.64646  23017847.061    23017847.486    23017850.545
 -14360070.32649 -11148738.67646  22273727.769    22273727.230    22273729.765
 -17477966.22349 -13587286.65547  21190341.139    21190341.652    21190344.297
  -8944193.65149  -6887105.02945  23229366.967    23229367.254    23229369.618
 -25651513.92749 -19966274.81747  20446010.854    20446011.031    20446011.729
 08  8  8  1 41 30.0000000  0  7G14G12G31G18G30G 9G22
 -19113879.85949 -14463906.51347  20939545.970    20939545.834    20939547.928
 -18718186.69349 -14524516.27447  22009777.411    22009777.568    22009779.429
 -16473498.15149 -12816056.27146  23002376.000    23002376.336    23002378.280
 -14264862.35049 -11074550.66746  22291845.354    22291845.187    22291847.236
 -17541333.78749 -13636663.97247  21178282.747    21178282.860    21178285.591
  -8838875.01449  -6805038.59445  23249408.514    23249408.140    23249411.613
 -25620344.95449 -19941987.31747  20451942.106    20451942.245    20451942.989
 08  8  8  1 42  0.0000000  0  7G14G12G31G18G30G 9G22
 -19147955.43749 -14490458.90447  20933061.614    20933061.173    20933063.722
 -18692817.83249 -14504748.33247  22014604.988    22014605.576    22014606.695
 -16554549.88349 -12879213.46146  22986952.395    22986953.243    22986954.518
 -14169340.46249 -11000118.04946  22310022.702    22310022.623    22310025.525
 -17604188.52149 -13685641.67947  21166321.852    21166322.580    21166324.787
  -8733473.67449  -6722907.72145  23269465.729    23269466.114    23269469.479
 -25588644.03849 -19917285.30947  20457974.560    20457974.549    20457975.649
 08  8  8  1 42 30.0000000  0  7G14G12G31G18G30G 9G22
 -19181816.95049 -14516844.49247  20926617.975    20926617.884    20926619.960
 -18666865.13649 -14484525.43847  22019543.608    22019543.967    22019545.456
 -16635348.42949 -12942173.35246  22971577.018    22971577.728    22971579.279
 -14073503.54749 -10925439.96246  22328259.821    22328259.028    22328261.598
 -17666524.61749 -13734215.24547  21154459.695    21154460.182    21154462.528
  -8627988.42849  -6640711.46545  23289539.057    23289539.317    23289542.843
 -25556408.12249 -19892166.42647  20464108.823    20464108.932    20464110.131
 08  8  8  1 43  0.0000000  0  7G14G12G31G18G30G 9G22
 -19215464.78449 -14543063.57847  20920214.969    20920214.467    20920217.000
 -18640330.43449 -14463849.05547  22024593.024    22024592.982    22024594.861
 -16715893.64349 -13004935.82746  22956249.802    22956249.579    22956251.504
 -13977354.55549 -10850518.69946  22346556.240    22346555.302    22346558.849
 -17728340.91249 -13782383.77747  21142696.429    21142696.896    21142699.541
  -8522421.97749  -6558451.93745  23309627.796    23309627.061    23309630.914
 -25523638.71849 -19866631.83747  20470344.647    20470345.095    20470345.808
 08  8  8  1 43 30.0000000  0  7G14G12G31G18G30G 9G22
 -19248897.08749 -14569114.71847  20913852.946    20913852.811    20913855.187
 -18613213.74249 -14442719.15547  22029753.113    22029753.999    22029755.168
 -16796184.08849 -13067499.78546  22940970.986    22940971.466    22940973.114
 -13880895.17949 -10775355.57646  22364911.849    22364911.864    22364914.993
 -17789634.00649 -13830144.62147  21131032.765    21131033.320    21131035.732
  -8416775.43349  -6476129.99245  23329731.753    23329730.903    23329734.874
 -25490335.71149 -19840681.46047  20476682.083    20476682.288    20476683.062
 08  8  8  1 44  0.0000000  0  7G14G12G31G18G30G 9G22
 -19282114.09849 -14594998.10147  20907531.968    20907531.717    20907534.149
 -18585517.06049 -14421137.31747  22035023.649    22035023.990    22035025.242
 -16876220.13049 -13129865.50246  22925740.607    22925741.260    22925743.848
 -13784128.51349 -10699953.01746  22383326.026    22383326.466    22383328.932
 -17850402.47449 -13877496.66547  21119468.841    21119469.096    21119471.786
  -8311051.49049  -6393747.72945  23349850.382    23349849.166    23349854.097
 -25456500.62949 -19814316.46647  20483120.654    20483120.691    20483121.655
 08  8  8  1 44 30.0000000  0  7G14G12G31G18G30G 9G22
 -19315113.93649 -14620712.24947  20901252.373    20901252.294    20901254.427
 -18557241.09749 -14399104.09147  22040404.340    22040404.485    22040406.110
 -16956000.62249 -13192032.10046  22910558.848    22910559.440    22910561.848
 -13687056.42649 -10624312.46346  22401798.284    22401798.538    22401800.106
 -17910644.07049 -13924438.14747  21108005.276    21108005.692    21108008.456
  -8205252.07049  -6311306.66545  23369983.389    23369982.598    23369986.682
 -25422133.50949 -19787536.90047  20489660.476    20489660.573    20489661.549
 08  8  8  1 45  0.0000000  0  7G14G12G31G18G30G 9G22
 -19347896.94249 -14646257.42447  20895013.970    20895013.793    20895015.860
 -18528387.55349 -14376620.79947  22045894.875    22045895.484    22045896.705
 -17035525.70249 -13253999.68446  22895425.774    22895426.276    22895428.577
 -13589681.93649 -10548436.27546  22420328.121    22420327.960    22420330.021
 -17970356.72249 -13970967.46347  21096642.337    21096642.688    21096645.525
  -8099379.62649  -6228808.69245  23390130.178    23390130.570    23390133.412
 -25387235.87049 -19760343.94647  20496301.290    20496301.546    20496302.101
 08  8  8  1 45 30.0000000  0  7G14G12G31G18G30G 9G22
 -19380461.54349 -14671632.43047  20888817.132    20888816.873    20888819.184
 -18498956.62649 -14353687.60347  22051495.516    22051495.607    22051497.748
 -17114794.03249 -13315767.18746  22880341.517    22880341.409    22880344.273
 -13492006.45849 -10472325.53646  22438915.146    22438914.703    22438917.275
 -18029537.59249 -14017082.40147  21085380.548    21085380.895    21085383.480
  -7993435.56149  -6146254.90845  23410290.681    23410289.574    23410294.031
 -25351807.52249 -19732737.44747  20503043.148    20503043.308    20503044.035
 08  8  8  1 46  0.0000000  0  7G14G12G31G18G30G 9G22
 -19412806.93249 -14696836.61947  20882662.008    20882662.104    20882663.884
 -18468949.63549 -14330305.51247  22057205.706    22057206.174    22057207.710
 -17193804.97849 -13377334.14346  22865306.307    22865307.147    22865308.824
 -13394032.33849 -10395982.09246  22457559.008    22457559.065    22457561.186
 -18088184.46049 -14062781.24747  21074220.473    21074220.761    21074223.456
  -7887421.69049  -6063646.72045  23430464.502    23430464.047    23430468.437
 -25315849.20849 -19704717.98747  20509885.748    20509885.921    20509886.886
 08  8  8  1 46 30.0000000  0  7G14G12G31G18G30G 9G22
 -19444932.20449 -14721869.26747  20876548.744    20876548.586    20876550.814
 -18438367.81349 -14306475.51047  22063025.154    22063025.265    22063027.098
 -17272558.29349 -13438700.35346  22850320.031    22850320.762    22850322.854
 -13295761.93349 -10319407.78546  22476259.220    22476258.560    22476261.119
 -18146295.19249 -14108062.33147  21063162.325    21063162.616    21063165.280
  -7781340.23749  -5980985.88245  23450651.072    23450650.812    23450654.147
 -25279361.58349 -19676286.07847  20516829.119    20516829.175    20516830.130
 08  8  8  1 47  0.0000000  0  7G14G12G31G18G30G 9G22
 -19476836.38849 -14746729.64747  20870477.566    20870477.189    20870479.539
 -18407212.29049 -14282198.46547  22068953.835    22068954.201    22068955.918
 -17351053.06749 -13499865.10046  22835382.969    22835382.883    22835385.537
 -13197197.62949 -10242604.44846  22495015.450    22495015.465    22495017.350
 -18203867.82749 -14152924.11347  21052206.621    21052207.180    21052209.399
  -7675192.80449  -5898273.63645  23470850.280    23470850.708    23470853.895
 -25242345.35649 -19647442.27147  20523873.076    20523873.098    20523874.011
 08  8  8  1 47 30.0000000  0  7G14G12G31G18G30G 9G22
 -19508517.90449 -14771416.52847  20864448.750    20864448.363    20864450.611
 -18375483.32949 -14257474.58147  22074991.607    22074991.961    22074993.663
 -17429287.79249 -13560827.20546  22820495.380    22820495.730    22820497.745
 -13098341.06649 -10165573.37846  22513827.230    22513827.052    22513829.843
 -18260899.01749 -14197363.99047  21041353.915    21041354.663    21041356.845
  -7568980.66249  -5815510.95945  23491061.850    23491061.427    23491065.108
 -25204800.96649 -19618186.91347  20531017.572    20531017.392    20531018.312
 08  8  8  1 48  0.0000000  0  7G14G12G31G18G30G 9G22
 -19539977.23049 -14795930.27547  20858462.248    20858462.167    20858464.310
 -18343183.37449 -14232305.77647  22081138.057    22081137.856    22081140.584
 -17507263.25449 -13621587.30946  22805657.112    22805658.131    22805659.394
 -12999195.68449 -10088317.26546  22532693.975    22532692.691    22532695.330
 -18317387.88449 -14241381.27347  21030604.417    21030604.855    21030607.135
  -7462706.74249  -5732700.14445  23511285.056    23511284.466    23511288.084
 -25166730.12049 -19588521.32947  20538262.233    20538262.387    20538263.095
 08  8  8  1 48 30.0000000  0  7G14G12G31G18G30G 9G22
 -19571212.38249 -14820269.34147  20852518.385    20852518.272    20852520.329
 -18310312.80349 -14206692.33947  22087393.113    22087393.716    22087394.951
 -17584978.06849 -13682144.31046  22790868.442    22790868.710    22790870.891
 -12899762.64849 -10010836.99046  22551615.478    22551614.722    22551618.059
 -18373331.87549 -14284973.97447  21019958.589    21019959.105    21019961.677
  -7356372.14649  -5649842.05545  23531519.914    23531519.678    23531523.975
 -25128132.40549 -19558445.19247  20545607.159    20545607.212    20545608.136
 08  8  8  1 49  0.0000000  0  7G14G12G31G18G30G 9G22
 -19602223.31049 -14844433.69847  20846617.166    20846616.827    20846619.121
 -18276873.33649 -14180635.61147  22093756.447    22093756.840    22093758.327
 -17662432.15549 -13742498.14646  22776129.514    22776129.983    22776131.553
 -12800044.97449  -9933134.94546  22570591.068    22570591.645    22570593.516
 -18428729.04649 -14328140.58747  21009416.937    21009417.173    21009420.109
  -7249979.56949  -5566938.77145  23551765.770    23551765.712    23551768.712
 -25089009.55749 -19527959.85947  20553051.965    20553051.838    20553053.015
 08  8  8  1 49 30.0000000  0  7G14G12G31G18G30G 9G22
 -19633007.83549 -14868421.63547  20840759.041    20840758.883    20840761.031
 -18242864.96149 -14154135.57347  22100228.028    22100228.730    22100230.224
 -17739623.90849 -13802647.54946  22761440.370    22761440.453    22761442.888
 -12700044.00349  -9855212.12446  22589620.697    22589620.701    22589623.899
 -18483576.03849 -14370878.49047  20998979.881    20998980.019    20998983.030
  -7143529.17549  -5483990.44845  23572022.448    23572022.269    23572025.920
 -25049360.96649 -19497064.85147  20560596.802    20560596.625    20560597.619
 08  8  8  1 50  0.0000000  0  7G14G12G31G18G30G 9G22
 -19663565.81349 -14892233.03247  20834944.029    20834943.928    20834946.217
 -18208290.17849 -14127194.18947  22106807.445    22106807.885    22106809.285
 -17816553.76949 -13862592.86346  22746800.991    22746801.827    22746803.611
 -12599762.80549  -9777070.95546  22608703.612    22608703.180    22608705.349
 -18537871.68949 -14413186.77447  20988647.728    20988648.061    20988650.671
  -7037024.00849  -5400999.43145  23592289.827    23592289.708    23592293.060
 -25009188.71349 -19465761.79347  20568241.330    20568241.393    20568242.065
 08  8  8  1 50 30.0000000  0  7G14G12G31G18G30G 9G22
 -19693898.18449 -14915868.64647  20829171.968    20829171.724    20829173.973
 -18173151.78549 -14099813.62647  22113494.080    22113494.396    22113495.964
 -17893222.77149 -13922334.94046  22732211.361    22732211.587    22732213.729
 -12499205.39749  -9698714.55946  22627839.034    22627839.263    22627842.293
 -18591616.18849 -14455065.58947  20978420.450    20978420.762    20978423.388
  -6930467.64549  -5317968.53145  23612566.965    23612568.179    23612570.668
 -24968495.41249 -19434052.73247  20575985.025    20575985.062    20575986.061
 08  8  8  1 51  0.0000000  0  7G14G12G31G18G30G 9G22
 -19724001.22449 -14939325.55447  20823443.528    20823443.350    20823445.528
 -18137448.36649 -14071992.78647  22120288.240    22120289.043    22120290.383
 -17969627.73749 -13981871.25846  22717671.965    22717672.642    22717674.191
 -12398371.66949  -9620142.85146  22647027.094    22647026.640    22647029.963
 -18644804.46449 -14496510.98747  20968299.021    20968299.558    20968301.852
  -6823859.17949  -5234897.02245  23632853.939    23632854.086    23632857.652
 -24927278.99249 -19401936.04347  20583828.247    20583828.472    20583829.108
 08  8  8  1 51 30.0000000  0  7G14G12G31G18G30G 9G22
 -19753874.37949 -14962603.33347  20817758.851    20817758.775    20817761.158
 -18101181.69149 -14043733.05347  22127189.572    22127189.695    22127191.698
 -18045768.47149 -14041201.70346  22703182.835    22703182.864    22703185.542
 -12297263.91849  -9541357.62546  22666267.271    22666266.510    22666269.693
 -18697434.68149 -14537521.53047  20958283.822    20958283.912    20958287.002
  -6717200.70449  -5151786.55745  23653150.426    23653151.234    23653152.962
 -24885540.82949 -19369412.81847  20591770.763    20591770.724    20591771.919
 08  8  8  1 52  0.0000000  0  7G14G12G31G18G30G 9G22
 -19783516.87049 -14985701.34947  20812118.076    20812118.090    20812119.931
 -18064353.16449 -14015035.50647  22134197.742    22134198.423    22134199.978
 -18121644.33949 -14100325.77446  22688744.125    22688744.649    22688746.488
 -12195884.92949  -9462361.03546  22685559.051    22685559.534    22685560.829
 -18749504.94449 -14578095.74847  20948375.094    20948375.531    20948378.280
  -6610494.11249  -5068638.59945  23673456.130    23673456.777    23673458.786
 -24843281.99649 -19336483.87547  20599812.351    20599812.417    20599813.267
 08  8  8  1 52 30.0000000  0  7G14G12G31G18G30G 9G22
 -19812927.61449 -15008618.80247  20806521.410    20806521.475    20806523.329
 -18026963.69649 -13985900.86547  22141312.736    22141312.948    22141314.193
 -18197254.67249 -14159242.90946  22674355.948    22674356.290    22674358.254
 -12094236.76649  -9383154.71146  22704902.091    22704901.784    22704904.064
 -18801013.41149 -14618232.19447  20938573.348    20938574.357    20938576.079
  -6503740.84749  -4985454.27845  23693770.654    23693770.624    23693773.866
 -24800502.90949 -19303149.53747  20607952.931    20607952.891    20607953.836
 08  8  8  1 53  0.0000000  0  7G14G12G31G18G30G 9G22
 -19842106.38149 -15031355.49447  20800968.881    20800968.749    20800970.832
 -17989015.78649 -13956331.07447  22148534.000    22148534.319    22148536.143
 -18272600.04449 -14217953.59046  22660018.116    22660017.936    22660020.639
 -11992322.78749  -9303741.26346  22724295.717    22724295.717    22724299.227
 -18851958.87249 -14657929.94347  20928878.805    20928879.069    20928881.892
  -6396943.49249  -4902235.61445  23714093.587    23714092.625    23714096.817
 -24757205.50649 -19269411.31247  20616192.150    20616192.417    20616193.020
 08  8  8  1 53 30.0000000  0  7G14G12G31G18G30G 9G22
 -19871051.32949 -15053909.99547  20795460.829    20795460.632    20795462.972
 -17950510.07549 -13926326.63647  22155861.456    22155862.206    22155862.969
 -18347678.79749 -14276456.51346  22645731.129    22645731.386    22645734.227
 -11890144.36549  -9224121.74046  22743739.750    22743739.777    22743742.320
 -18902338.22349 -14697186.56347  20919291.835    20919292.155    20919294.927
  -6290103.03949  -4818983.35845  23734424.590    23734424.490    23734428.129
 -24713389.60849 -19235269.05347  20624530.045    20624530.215    20624530.979
 08  8  8  1 54  0.0000000  0  7G14G12G31G18G30G 9G22
 -19899762.29549 -15076282.17147  20789997.256    20789997.154    20789999.299
 -17911448.37649 -13895888.94946  22163294.644    22163294.990    22163296.741
 -18422490.88449 -14334751.63146  22631494.884    22631494.902    22631498.165
 -11787704.17349  -9144298.23946  22763233.600    22763233.451    22763235.600
 -18952150.07749 -14736000.98747  20909812.886    20909813.587    20909816.167
  -6183221.67149  -4735699.23045  23754763.294    23754764.029    23754766.623
 -24669057.14949 -19200724.28547  20632966.241    20632966.195    20632967.296
 08  8  8  1 54 30.0000000  0  7G14G12G31G18G30G 9G22
 -19928237.71749 -15098470.80247  20784578.571    20784578.286    20784580.622
 -17871831.68949 -13865018.80746  22170833.424    22170833.571    22170835.772
 -18497035.86549 -14392838.62946  22617309.513    22617309.892    22617312.725
 -11685004.69849  -9064272.71446  22782776.699    22782775.992    22782778.133
 -19001392.66349 -14774371.82547  20900442.399    20900442.884    20900445.475
  -6076301.19649  -4652384.62145  23775109.554    23775109.444    23775113.541
 -24624208.75549 -19165777.48147  20641500.596    20641500.686    20641501.720
 08  8  8  1 55  0.0000000  0  7G14G12G31G18G30G 9G22
 -19956476.08149 -15120474.71347  20779204.938    20779204.836    20779206.827
 -17831661.00949 -13833716.97646  22178477.650    22178478.219    22178479.271
 -18571312.45049 -14450716.48646  22603175.194    22603175.367    22603178.229
 -11582047.23849  -8984046.17146  22802368.877    22802369.708    22802371.378
 -19050063.19049 -14812296.90547  20891180.730    20891181.336    20891183.951
  -5969342.50949  -4569040.22245  23795463.048    23795462.654    23795466.135
 -24578844.74649 -19130428.90647  20650133.086    20650133.300    20650134.086
 08  8  8  1 55 30.0000000  0  7G14G12G31G18G30G 9G22
 -19984477.78149 -15142294.21947  20773876.410    20773876.235    20773878.355
 -17790938.95649 -13801985.50146  22186226.753    22186227.015    22186228.854
 -18645321.44949 -14508385.83446  22589091.782    22589092.647    22589094.501
 -11478835.55849  -8903621.52745  22822009.405    22822009.142    22822011.793
 -19098161.01749 -14849775.72247  20882027.975    20882028.343    20882030.906
  -5862348.39949  -4485668.22445  23815823.427    23815822.249    23815826.768
 -24532967.37649 -19094680.31447  20658863.245    20658863.227    20658864.213
 08  8  8  1 56  0.0000000  0  7G14G12G31G18G30G 9G22
 -20012241.15049 -15163927.99447  20768593.234    20768593.142    20768595.264
 -17749666.17349 -13769824.88946  22194080.678    22194081.097    22194082.495
 -18719061.63149 -14565845.73146  22575059.492    22575060.441    22575061.657
 -11375371.56449  -8823000.26545  22841697.921    22841696.513    22841700.704
 -19145683.40749 -14886806.15647  20872984.758    20872985.073    20872987.796
  -5755319.76849  -4402269.33345  23836190.340    23836189.699    23836193.678
 -24486577.03549 -19058532.00847  20667691.055    20667691.155    20667691.691
 08  8  8  1 56 30.0000000  0  7G14G12G31G18G30G 9G22
 -20039764.79949 -15185374.96547  20763355.643    20763355.318    20763357.687
 -17707844.61049 -13737236.65046  22202039.054    22202039.538    22202041.057
 -18792532.34149 -14623095.63746  22561078.502    22561079.050    22561080.700
 -11271657.43949  -8742184.09245  22861433.848    22861433.679    22861435.742
 -19192628.54549 -14923386.77447  20864051.375    20864051.947    20864054.675
  -5648258.25849  -4318844.82645  23856563.543    23856563.385    23856566.764
 -24439674.48849 -19021984.57447  20676616.359    20676616.456    20676617.437
 08  8  8  1 57  0.0000000  0  7G14G12G31G18G30G 9G22
 -20067047.99649 -15206634.57947  20758163.822    20758163.782    20758165.700
 -17665475.36049 -13704221.65146  22210101.707    22210102.246    22210103.992
 -18865732.89749 -14680135.02646  22547148.827    22547149.074    22547151.746
 -11167695.39049  -8661174.73945  22881217.049    22881216.923    22881219.375
 -19238994.48149 -14959516.07447  20855228.271    20855228.786    20855231.362
  -5541165.44349  -4235395.93545  23876942.569    23876945.165    23876946.936
 -24392260.92149 -18985038.95347  20685638.834    20685638.590    20685639.884
 08  8  8  1 57 30.0000000  0  7G14G12G31G18G30G 9G22
 -20094089.75649 -15227706.06447  20753017.956    20753018.144    20753019.843
 -17622559.95749 -13670781.07646  22218268.251    22218268.863    22218270.034
 -18938663.19549 -14736963.83146  22533270.677    22533271.141    22533273.453
 -11063487.83349  -8579974.09145  22901047.003    22901046.785    22901048.886
 -19284779.79049 -14995192.94347  20846515.620    20846516.127    20846518.416
  -5434043.12949  -4151924.03545  23897327.404    23897326.495    23897330.166
 -24344337.53249 -18947696.06647  20694758.276    20694758.247    20694759.370
 08  8  8  1 58  0.0000000  0  7G14G12G31G18G30G 9G22
 -20120889.43049 -15248588.91347  20747918.206    20747918.105    20747920.027
 -17579100.48649 -13636916.55446  22226538.271    22226538.428    22226540.556
 -19011323.19249 -14793581.99746  22519443.912    22519444.773    22519446.643
 -10959037.97349  -8498584.61745  22920923.330    22920922.815    22920924.959
 -19329982.84949 -15030416.10247  20837913.710    20837914.272    20837916.605
  -5326893.20649  -4068430.63045  23917717.487    23917716.519    23917721.405
 -24295905.74549 -18909957.01547  20703974.524    20703974.527    20703975.513
 08  8  8  1 58 30.0000000  0  7G14G12G31G18G30G 9G22
 -20147446.25449 -15269282.52447  20742864.599    20742864.204    20742866.233
 -17535098.87849 -13602629.58946  22234911.495    22234911.841    22234913.879
 -19083712.51249 -14849989.26046  22505668.713    22505669.040    22505670.833
 -10854348.42549  -8417008.37945  22940845.210    22940845.373    22940847.697
 -19374602.58149 -15065184.71447  20829422.810    20829423.310    20829426.179
  -5219717.63649  -3984917.24845  23938112.375    23938112.300    23938116.782
 -24246967.51649 -18871823.33247  20713287.216    20713287.160    20713288.294
 08  8  8  1 59  0.0000000  0  7G14G12G31G18G30G 9G22
 -20173758.21749 -15289785.32847  20737857.572    20737857.310    20737859.353
 -17490555.72249 -13567920.63246  22243387.813    22243388.143    22243390.013
 -19155829.97849 -14906184.66546  22491945.135    22491944.811    22491947.111
 -10749419.90049  -8335245.93745  22960812.587    22960813.260    22960814.587
 -19418635.85949 -15099496.35347  20821043.602    20821044.231    20821046.840
  -5112516.86749  -3901384.21645  23958511.971    23958510.508    23958515.338
 -24197522.43849 -18833294.70947  20722696.271    20722696.686    20722697.307
 08  8  8  1 59 30.0000000  0  7G14G12G31G18G30G 9G22
 -20199826.23749 -15310098.04747  20732896.984    20732896.794    20732898.645
 -17445474.69149 -13532792.55446  22251966.483    22251966.704    22251968.587
 -19227676.93749 -14962169.29846  22478273.020    22478273.945    22478274.429
 -10644257.35849  -8253301.12745  22980824.475    22980824.826    22980827.252
 -19462083.18449 -15133351.39047  20812775.871    20812776.015    20812779.166
  -5005294.84549  -3817834.63845  23978915.674    23978915.432    23978918.940
 -24147573.95049 -18794373.82647  20732201.168    20732201.366    20732202.362
 08  8  8  2  0  0.0000000  0  7G14G12G31G18G30G 9G22
 -20225647.07749 -15330218.15247  20727983.454    20727983.406    20727985.168
 -17399855.08649 -13497244.81446  22260647.580    22260648.184    22260649.507
 -19299250.74449 -15017941.06946  22464652.954    22464652.814    22464655.100
 -10538860.95649  -8171174.08845  23000880.771    23000880.852    23000882.281
 -19504940.17649 -15166746.43447  20804620.379    20804620.731    20804623.829
  -4898050.82349  -3734267.92145  23999323.718    23999324.314    23999327.125
 -24097120.88549 -18755059.76547  20741802.114    20741802.129    20741803.277
 08  8  8  2  0 30.0000000  0  7G14G12G31G18G30G 9G22
 -20251219.86949 -15350144.98947  20723117.083    20723116.875    20723118.771
 -17353698.59649 -13461278.71846  22269430.819    22269431.174    22269431.928
 -19370551.11249 -15073499.80646  22451084.904    22451085.347    22451087.280
 -10433233.08249  -8088866.69745  23020981.175    23020980.437    23020983.415
 -19547206.10949 -15199680.91347  20796577.404    20796577.719    20796580.487
  -4790786.17849  -3650685.13345  24019735.458    24019736.103    24019737.797
 -24046164.87649 -18715353.78447  20751498.703    20751498.976    20751499.951
 08  8  8  2  1  0.0000000  0  7G14G12G31G18G30G 9G22
 -20276544.11849 -15369878.14947  20718298.032    20718297.861    20718299.662
 -17307007.32049 -13424895.91646  22278315.891    22278316.422    22278317.966
 -19441577.97149 -15128845.40546  22437568.980    22437569.564    22437570.945
 -10327376.71949  -8006381.26345  23041124.930    23041124.571    23041128.269
 -19588879.57949 -15232153.72947  20788647.164    20788647.639    20788650.442
  -4683503.07249  -3567087.97645  24040150.741    24040150.170    24040153.805
 -23994707.16449 -18675256.87347  20761290.822    20761290.917    20761291.915
 08  8  8  2  1 30.0000000  0  7G14G12G31G18G30G 9G22
 -20301618.89449 -15389416.91747  20713526.444    20713526.274    20713528.077
 -17259783.43449 -13388098.08446  22287302.330    22287302.821    22287304.794
 -19512331.33949 -15183977.88246  22424105.035    22424105.885    22424106.606
 -10221294.11549  -7923719.53245  23061311.868    23061311.606    23061313.346
 -19629958.77849 -15264163.47647  20780830.013    20780830.490    20780833.184
  -4576203.28449  -3483477.78545  24060569.085    24060569.245    24060572.439
 -23942749.26549 -18634770.20547  20771178.066    20771178.073    20771179.203
 08  8  8  2  2  0.0000000  0  7G14G12G31G18G30G 9G22
 -20326442.84049 -15408760.22647  20708802.563    20708802.235    20708804.342
 -17212028.06249 -13350886.10946  22296389.831    22296390.550    22296391.994
 -19582810.54849 -15238896.72246  22410693.273    22410693.770    22410695.985
 -10114988.04149  -7840883.65945  23081541.316    23081541.301    23081543.533
 -19670441.99149 -15295708.81847  20773126.339    20773126.874    20773129.606
  -4468887.99649  -3399855.55545  24080990.639    24080991.077    24080994.130
 -23890292.55449 -18593894.84047  20781160.242    20781160.322    20781161.175
 08  8  8  2  2 30.0000000  0  7G14G12G31G18G30G 9G22
 -20351015.70249 -15427907.87347  20704126.439    20704126.252    20704128.289
 -17163743.71349 -13313261.94446  22305577.992    22305578.649    22305579.623
 -19653015.17549 -15293601.61046  22397333.782    22397334.208    22397336.088
 -10008461.42449  -7757875.93245  23101812.744    23101812.428    23101815.464
 -19710328.72949 -15326789.37547  20765536.186    20765536.458    20765539.495
  -4361559.33549  -3316222.87245  24101414.683    24101416.656    24101415.989
 -23837338.88449 -18552632.23447  20791236.971    20791237.006    20791238.005
 08  8  8  2  3  0.0000000  0  7G14G12G31G18G30G 9G22
 -20375335.99249 -15446858.72047  20699498.416    20699498.475    20699500.108
 -17114931.53349 -13275226.47946  22314866.642    22314866.939    22314868.527
 -19722945.39249 -15348092.68146  22384026.598    22384027.470    22384029.239
  -9901715.93049  -7674697.68145  23122125.770    23122125.256    23122128.556
 -19749616.54549 -15357403.24247  20758059.940    20758060.354    20758063.016
  -4254218.54749  -3232580.77245  24121840.881    24121841.696    24121843.797
 -23783888.52149 -18510982.60347  20801408.227    20801408.425    20801409.078
 08  8  8  2  3 30.0000000  0  7G14G12G31G18G30G 9G22
 -20399402.94949 -15465612.18247  20694918.585    20694918.366    20694920.045
 -17065593.73549 -13236781.44946  22324255.307    22324255.330    22324257.500
 -19792600.40749 -15402369.30046  22370771.764    22370772.926    22370774.484
  -9794753.97649  -7591350.73545  23142480.008    23142480.234    23142482.028
 -19788304.53749 -15387549.70747  20750697.835    20750698.320    20750701.003
  -4146867.42649  -3148930.61644  24142269.201    24142269.105    24142272.558
 -23729943.39949 -18468947.44047  20811673.655    20811673.948    20811675.071
 08  8  8  2  4  0.0000000  0  7G14G12G31G18G30G 9G22
 -20423215.35049 -15484167.28747  20690387.208    20690386.913    20690388.990
 -17015732.03749 -13197928.18546  22333743.666    22333744.361    22333746.015
 -19861980.09149 -15456431.38946  22357569.248    22357569.826    22357571.867
  -9687578.64949  -7507837.52745  23162874.817    23162874.276    23162878.222
 -19826390.87049 -15417227.35847  20743450.261    20743450.898    20743453.441
  -4039507.34549  -3065273.47144  24162698.919    24162699.241    24162701.344
 -23675505.11849 -18426528.00147  20822032.936    20822033.007    20822033.639
 08  8  8  2  4 30.0000000  0  7G14G12G31G18G30G 9G22
 -20446771.13449 -15502522.41047  20685904.671    20685904.386    20685906.694
 -16965347.46149 -13158667.47846  22343331.597    22343331.753    22343333.786
 -19931083.32749 -15510278.08646  22344419.298    22344419.250    22344421.725
  -9580191.27349  -7424159.10945  23183310.006    23183309.899    23183313.205
 -19863873.22249 -15446434.37647  20736317.631    20736318.146    20736320.916
  -3932138.67749  -2981609.64744  24183130.724    24183127.579    24183133.610
 -23620573.94449 -18383724.48947  20832486.004    20832486.350    20832487.050
 08  8  8  2  5  0.0000000  0  7G14G12G31G18G30G 9G22
 -20470070.20849 -15520677.52647  20681470.939    20681470.756    20681472.823
 -16914442.36549 -13119001.17646  22353018.496    22353018.827    22353021.064
 -19999910.10649 -15563909.34346  22331321.976    22331323.057    22331324.814
  -9472594.86849  -7340317.78645  23203784.966    23203784.704    23203787.458
 -19900750.80749 -15475170.14547  20729300.020    20729300.394    20729303.521
  -3824763.73149  -2897940.91644  24203563.604    24203564.161    24203566.313
 -23565151.80549 -18340538.40647  20843032.540    20843032.569    20843033.613
 08  8  8  2  5 30.0000000  0  7G14G12G31G18G30G 9G22
 -20493111.73649 -15538631.93547  20677086.271    20677086.261    20677088.028
 -16863018.86049 -13078930.91446  22362803.991    22362804.113    22362805.498
 -20068460.77949 -15617325.44746  22318277.224    22318277.558    22318279.756
  -9364792.55649  -7256316.03645  23224299.069    23224299.322    23224301.486
 -19937022.92349 -15503434.11847  20722397.671    20722398.002    20722401.010
  -3717384.63548  -2814268.95544  24223997.037    24223998.465    24224003.062
 -23509240.81949 -18296971.40847  20853672.068    20853672.263    20853673.569
 08  8  8  2  6  0.0000000  0  7G14G12G31G18G30G 9G22
 -20515894.54649 -15556384.74847  20672750.894    20672750.842    20672752.744
 -16811078.70949 -13038458.07146  22372687.951    22372688.810    22372689.427
 -20136734.43349 -15670525.68646  22305285.139    22305285.392    22305288.058
  -9256786.39649  -7172155.43645  23244852.010    23244852.014    23244854.926
 -19972687.95549 -15531225.04847  20715610.871    20715611.391    20715613.788
  -3610001.95748  -2730594.19144  24244431.228    24244430.520    24244435.526
 -23452841.98649 -18253024.27247  20864404.389    20864404.713    20864405.603
 08  8  8  2  6 30.0000000  0  7G14G12G31G18G30G 9G22
 -20538416.34149 -15573934.17547  20668465.102    20668464.919    20668466.806
 -16758622.62549 -12997583.21246  22382669.969    22382670.640    22382672.119
 -20204729.84549 -15723509.10346  22292345.869    22292346.799    22292348.613
  -9148577.54649  -7087836.89945  23265443.463    23265443.139    23265447.140
 -20007743.06049 -15558540.70847  20708940.126    20708940.679    20708943.090
  -3502616.57649  -2646917.33444  24264865.965    24264865.423    24264871.805
 -23395955.48449 -18208697.12947  20875229.546    20875229.649    20875230.598
 08  8  8  2  7  0.0000000  0  7G14G12G31G18G30G 9G22
 -20560677.38849 -15591280.44247  20664228.957    20664228.732    20664230.632
 -16705653.66649 -12956308.69346  22392749.590    22392749.932    22392752.031
 -20272447.66749 -15776276.21746  22279459.583    22279459.861    22279462.224
  -9040169.72649  -7003363.33045  23286072.740    23286072.248    23286075.145
 -20042188.22349 -15585381.08647  20702385.465    20702385.866    20702388.283
  -3395231.24349  -2563240.51444  24285300.753    24285301.825    24285304.676
 -23338583.22849 -18163991.47347  20886147.113    20886147.071    20886148.363
 08  8  8  2  7 30.0000000  0  7G14G12G31G18G30G 9G22
 -20582676.46549 -15608422.57847  20660042.730    20660042.730    20660044.462
 -16652173.70349 -12914635.99846  22402926.511    22402927.136    22402928.657
 -20339887.82349 -15828826.96446  22266626.057    22266626.315    22266628.999
  -8931565.52849  -6918736.72945  23306739.347    23306739.670    23306742.231
 -20076022.13649 -15611745.16947  20695947.090    20695947.434    20695950.296
  -3287847.08549  -2479564.59144  24305735.402    24305735.949    24305739.501
 -23280727.77549 -18118909.29847  20897156.607    20897156.949    20897157.707
 08  8  8  2  8  0.0000000  0  7G14G12G31G18G30G 9G22
 -20604413.64349 -15625360.64447  20655906.313    20655906.104    20655908.131
 -16598185.54049 -12872567.30446  22413200.157    22413200.784    22413202.120
 -20407050.72549 -15881161.66146  22253845.371    22253846.283    22253847.869
  -8822768.34449  -6833959.73245  23327442.718    23327442.018    23327444.924
 -20109244.50349 -15637632.72447  20689625.065    20689625.560    20689628.071
  -3180466.47549  -2395891.41844  24326169.500    24326170.583    24326171.933
 -23222391.39249 -18073452.37847  20908257.657    20908257.574    20908258.653
 08  8  8  2  8 30.0000000  0  7G14G12G31G18G30G 9G22
 -20625879.11749 -15642086.97847  20651821.527    20651821.462    20651823.243
 -16543683.01749 -12830097.81146  22423571.600    22423572.254    22423573.747
 -20473928.13949 -15933273.89846  22241119.066    22241119.793    22241121.634
  -8713772.42749  -6749027.91145  23348183.942    23348183.579    23348186.820
 -20141845.65249 -15663036.20947  20683421.302    20683421.865    20683424.485
  -3073082.14549  -2312215.35744  24346604.281    24346604.377    24346610.067
 -23163567.16649 -18027615.33147  20919451.498    20919451.705    20919452.790
 08  8  8  2  9  0.0000000  0  7G14G12G31G18G30G 9G22
 -20647082.11449 -15658608.78047  20647786.693    20647786.495    20647788.403
 -16488677.83449 -12787236.63946  22434038.794    22434039.208    22434040.797
 -20540529.32349 -15985170.90246  22228445.231    22228445.737    22228446.966
  -8604589.84449  -6663950.63445  23368960.711    23368959.676    23368964.002
 -20173834.40549 -15687962.50647  20677334.045    20677334.399    20677337.143
  -2965705.89349  -2228545.60744  24367037.230    24367037.901    24367040.075
 -23104265.94549 -17981406.59147  20930736.170    20930736.433    20930737.116
 08  8  8  2  9 30.0000000  0  7G14G12G31G18G30G 9G22
 -20668020.65849 -15674924.53147  20643802.203    20643802.013    20643803.914
 -16433171.22349 -12743984.73246  22444601.438    22444601.436    22444603.727
 -20606853.09749 -16036851.75046  22215824.273    22215824.805    22215826.414
  -8495222.44149  -6578729.31745  23389772.574    23389772.617    23389774.746
 -20205208.69449 -15712409.99647  20671363.707    20671363.853    20671366.551
  -2858337.96349  -2144882.32344  24387468.724    24387470.376    24387472.763
 -23044489.10449 -17934827.23547  20942111.334    20942111.518    20942112.406
 08  8  8  2 10  0.0000000  0  7G14G12G31G18G30G 9G22
 -20688691.98349 -15691032.03847  20639868.622    20639868.466    20639870.864
 -16377163.29349 -12700342.20046  22455259.400    22455260.017    22455261.806
 -20672897.92649 -16088315.24246  22203256.350    22203256.965    22203258.881
  -8385670.95749  -6493364.59345  23410619.513    23410618.656    23410623.625
 -20235965.82049 -15736376.58347  20665510.781    20665511.064    20665513.673
  -2750977.90148  -2061225.19144  24407898.549    24407896.705    24407904.537
 -22984236.66949 -17887877.29147  20953576.966    20953576.961    20953577.877
 08  8  8  2 10 30.0000000  0  7G14G12G31G18G30G 9G22
 -20709095.93849 -15706931.22447  20635985.886    20635985.824    20635987.428
 -16320656.83649 -12656311.19946  22466012.329    22466013.243    22466014.034
 -20738664.25249 -16139561.72446  22190741.500    22190741.769    22190743.914
  -8275938.86349  -6407859.09945  23431500.841    23431500.550    23431503.521
 -20266104.96349 -15759861.63147  20659775.524    20659775.795    20659778.493
  -2643628.13448  -1977576.07444  24428326.604    24428329.090    24428333.605
 -22923510.80049 -17840558.43547  20965132.728    20965132.671    20965133.857
 08  8  8  2 11  0.0000000  0  7G14G12G31G18G30G 9G22
 -20729230.43949 -15722620.43947  20632154.358    20632154.237    20632156.420
 -16263653.61649 -12611893.11446  22476859.680    22476859.674    22476860.890
 -20804150.75649 -16190590.16646  22178279.877    22178280.596    22178282.549
  -8166027.51349  -6322213.92745  23452416.350    23452416.890    23452418.781
 -20295624.57849 -15782863.92347  20654158.182    20654158.853    20654160.951
  -2536289.55748  -1893935.68744  24448752.255    24448752.301    24448758.331
 -22862312.13649 -17792871.17447  20976778.427    20976778.468    20976779.617
 08  8  8  2 11 30.0000000  0  7G14G12G31G18G30G 9G22
 -20749094.44249 -15738098.87147  20628374.377    20628374.124    20628376.286
 -16206154.84749 -12567088.89346  22487801.196    22487801.319    22487803.041
 -20869357.07149 -16241400.27347  22165871.566    22165872.486    22165874.493
  -8055939.38749  -6236431.02945  23473365.388    23473364.558    23473368.531
 -20324523.21549 -15805382.32947  20648658.942    20648659.490    20648661.970
  -2428963.05548  -1810304.66944  24469175.665    24469175.512    24469181.593
 -22800642.43549 -17744816.85947  20988513.773    20988514.024    20988514.677
 08  8  8  2 12  0.0000000  0  8G14G12G31G18G30G 9G22G32
 -20768685.94749 -15753364.95447  20624646.273    20624645.995    20624648.120
 -16148162.29049 -12521899.89246  22498836.724    22498837.099    22498838.904
 -20934282.70449 -16291991.65847  22153516.708    22153516.869    22153519.173
  -7945676.55749  -6150511.99445  23494347.757    23494347.931    23494350.714
 -20352799.48849 -15827415.77747  20643278.096    20643278.456    20643281.260
  -2321649.28348  -1726683.59944  24489596.515    24489596.805    24489600.444
 -22738502.54749 -17696396.17447  21000338.661    21000338.888    21000339.678
  -1245970.06949   -943536.87444                                  24484920.048
 08  8  8  2 12 30.0000000  0  8G14G12G31G18G30G 9G22G32
 -20788007.08449 -15768420.38247  20620969.578    20620969.310    20620971.531
 -16089681.18549 -12476330.20446  22509965.348    22509966.085    22509967.342
 -20998930.29449 -16342366.37846  22141214.574    22141214.796    22141216.696
  -7835244.58549  -6064461.16345  23515362.278    23515361.494    23515366.072
 -20380455.54649 -15848965.94347  20638015.289    20638015.599    20638018.083
  -2214352.73048  -1643075.96744  24510014.587    24510013.601    24510021.022
 -22675897.38749 -17647612.94447  21012252.109    21012252.520    21012252.697
  -1339112.63349  -1016115.48845  24467192.641    24467189.357    24467194.183
 08  8  8  2 13  0.0000000  0  8G14G12G31G18G30G 9G22G32
 -20807056.77749 -15783264.27947  20617344.538    20617344.399    20617346.156
 -16030712.99749 -12430380.97446  22521186.692    22521187.167    22521188.577
 -21063299.33749 -16392524.05147  22128965.480    22128965.906    22128968.451
  -7724645.94349  -5978280.44945  23536408.638    23536408.453    23536412.106
 -20407489.72449 -15870031.52347  20632870.805    20632871.280    20632874.053
  -2107074.24048  -1559482.36344  24530429.244    24530430.846    24530430.861
 -22612828.26749 -17598468.17847  21024253.807    21024253.932    21024254.873
  -1432090.90849  -1088566.03645  24449498.241    24449496.536    24449501.418
 08  8  8  2 13 30.0000000  0  8G14G12G31G18G30G 9G22G32
 -20825831.77149 -15797894.14747  20613771.772    20613771.683    20613773.555
 -15971257.91349 -12384052.34746  22532500.722    22532500.405    22532502.758
 -21127387.28849 -16442462.69647  22116769.850    22116770.139    22116772.991
  -7613880.36249  -5891969.66845  23557486.602    23557487.011    23557489.471
 -20433898.74549 -15890609.97147  20627845.302    20627845.829    20627848.401
  -1999812.83548  -1475902.09444  24550840.374    24550842.216    24550844.322
 -22549294.80349 -17548961.59647  21036343.829    21036344.022    21036345.090
  -1524900.32649  -1160885.03245  24431836.838    24431835.522    24431841.286
 08  8  8  2 14  0.0000000  0  8G14G12G31G18G30G 9G22G32
 -20844329.90649 -15812308.27347  20610251.665    20610251.520    20610253.356
 -15911317.20849 -12337345.32346  22543907.030    22543907.388    22543908.970
 -21191193.56249 -16492181.85847  22104627.878    22104628.754    22104630.630
  -7502949.92149  -5805530.41245  23578596.198    23578596.237    23578598.449
 -20459681.42949 -15910700.36147  20622939.032    20622939.576    20622942.100
  -1892569.66448  -1392336.00544  24571248.235    24571247.709    24571254.041
 -22485297.99749 -17499093.95247  21048522.051    21048522.311    21048523.030
  -1617538.09749  -1233070.24745  24414208.265    24414207.846    24414211.847
 08  8  8  2 14 30.0000000  0  8G14G12G31G18G30G 9G22G32
 -20862548.84249 -15826504.85047  20606784.715    20606784.450    20606786.549
 -15850891.43049 -12290260.30446  22555405.686    22555405.538    22555407.195
 -21254716.37349 -16541680.15047  22092539.826    22092540.133    22092542.004
  -7391855.74249  -5718963.57245  23599736.902    23599735.263    23599738.665
 -20484835.25949 -15930300.73747  20618152.473    20618153.060    20618155.580
  -1785344.47548  -1308783.99144  24591652.803    24591652.243    24591655.604
 -22420837.61149 -17448865.08447  21060788.443    21060788.559    21060789.403
  -1710000.31149  -1305118.68945  24396613.202    24396613.236    24396616.518
 08  8  8  2 15  0.0000000  0  8G14G12G31G18G30G 9G22G32
 -20880488.81949 -15840484.06647  20603370.836    20603370.563    20603372.766
 -15789984.04949 -12242800.02446  22566996.038    22566996.473    22566998.081
 -21317956.69749 -16590958.33547  22080505.577    22080506.254    22080508.072
  -7280601.31049  -5632271.83845  23620908.061    23620908.465    23620908.970
 -20509360.63349 -15949411.40347  20613485.457    20613485.771    20613488.365
  -1678139.26748  -1225247.48944  24612053.431    24612054.469    24612057.461
 -22355916.74949 -17398277.40347  21073142.458    21073142.257    21073142.862
  -1802286.04649  -1377029.61145  24379051.699    24379051.214    24379055.276
 08  8  8  2 15 30.0000000  0  8G14G12G31G18G30G 9G22G32
 -20898148.98049 -15854245.24547  20600010.171    20600010.040    20600011.837
 -15728597.41949 -12194966.29546  22578677.542    22578677.767    22578679.204
 -21380914.63949 -16640016.46147  22068525.121    22068525.917    22068527.706
  -7169189.71449  -5545457.66245  23642109.089    23642108.559    23642111.626
 -20533256.88149 -15968031.84247  20608938.130    20608938.519    20608940.997
  -1570955.80748  -1141727.99444  24632449.816    24632450.220    24632452.320
 -22290537.64649 -17347332.65147  21085583.665    21085583.644    21085583.996
  -1894393.20049  -1448801.37945  24361524.163    24361523.009    24361528.138
 08  8  8  2 16  0.0000000  0  8G14G12G31G18G30G 9G22G32
 -20915527.69449 -15867787.11547  20596703.149    20596703.119    20596704.937
 -15666733.58949 -12146760.71146  22590449.811    22590450.017    22590451.485
 -21443589.62249 -16688854.10947  22056598.444    22056598.674    22056600.895
  -7057622.94849  -5458522.57445  23663339.514    23663339.261    23663341.921
 -20556522.66949 -15986161.02447  20604510.774    20604511.064    20604514.016
  -1463794.88949  -1058225.99344  24652841.812    24652841.773    24652847.960
 -22224701.84249 -17296032.03847  21098111.823    21098111.611    21098112.728
  -1986319.09349  -1520431.92845  24344031.095    24344030.688    24344034.886
 08  8  8  2 16 30.0000000  0  8G14G12G31G18G30G 9G22G32
 -20932626.27049 -15881110.69147  20593449.406    20593449.412    20593451.030
 -15604397.14249 -12098186.86346  22602312.080    22602311.965    22602313.810
 -21505983.89149 -16737473.01847  22044725.357    22044725.994    22044727.187
  -6945905.66249  -5371470.19345  23684598.780    23684597.484    23684600.616
 -20579159.41749 -16003800.03447  20600203.148    20600203.466    20600206.060
  -1356659.92048   -974744.25744  24673228.813    24673229.489    24673233.168
 -22158413.09049 -17244378.45947  21110726.139    21110726.398    21110726.946
  -2078063.82249  -1591921.30245  24326572.652    24326573.624    24326576.166
 08  8  8  2 17  0.0000000  0  8G14G12G31G18G30G 9G22G32
 -20949442.12849 -15894213.95747  20590249.418    20590249.367    20590251.349
 -15541587.89749 -12049244.60446  22614264.247    22614264.361    22614266.055
 -21568095.40349 -16785871.57647  22032906.130    22032906.556    22032908.601
  -6834038.86049  -5284301.30845  23705886.377    23705885.747    23705889.444
 -20601164.63449 -16020946.95047  20596015.685    20596015.815    20596018.612
  -1249550.67748   -891282.58644  24693610.872    24693611.778    24693615.103
 -22091671.49049 -17192372.01847  21123426.646    21123426.686    21123427.567
  -2169623.28149  -1663266.31945  24309149.519    24309150.076    24309154.106
 08  8  8  2 17 30.0000000  0  8G14G12G31G18G30G 9G22G32
 -20965973.52249 -15907095.55447  20587103.607    20587103.285    20587105.510
 -15478308.40749 -11999935.92546  22626305.843    22626306.034    22626308.280
 -21629923.72849 -16834049.47247  22021140.543    22021141.051    22021142.289
  -6722024.68649  -5197017.58745  23727202.074    23727201.560    23727203.080
 -20622537.56149 -16037601.16847  20591948.524    20591948.741    20591951.633
  -1142468.22648   -807841.76344  24713987.900    24713984.505    24713991.910
 -22024478.66149 -17140013.97247  21136213.027    21136213.014    21136213.973
  -2260994.90349  -1734464.96845  24291762.154    24291761.843    24291766.029
 08  8  8  2 18  0.0000000  0  8G14G12G31G18G30G 9G22G32
 -20982219.47749 -15919754.73947  20584012.144    20584012.005    20584013.693
 -15414560.77449 -11950262.45146  22638436.588    22638436.477    22638438.406
 -21691468.88249 -16882006.71647  22009428.943    22009429.389    22009431.091
  -6609865.99449  -5109621.26345  23748544.944    23748544.715    23748546.529
 -20643277.30549 -16053761.99547  20588001.884    20588002.363    20588004.610
  -1035413.70448   -724422.73144  24734359.941    24734359.809    24734362.876
 -21956836.64749 -17087305.91847  21149084.863    21149085.083    21149085.909
  -2352176.69349  -1805515.69045  24274410.807    24274410.875    24274413.519
 08  8  8  2 18 30.0000000  0  8G14G12G31G18G30G 9G22G32
 -20998178.88749 -15932190.64347  20580975.204    20580975.167    20580976.850
 -15350346.83849 -11900225.62846  22650656.125    22650656.497    22650657.615
 -21752730.66949 -16929743.16747  21997771.145    21997771.510    21997773.815
  -6497564.98749  -5022114.01745  23769915.075    23769915.420    23769917.569
 -20663383.08549 -16069428.83047  20584175.921    20584176.111    20584178.687
   -928387.92549   -641026.07344  24754726.107    24754726.629    24754731.029
 -21888746.90449 -17034248.98647  21162041.955    21162042.113    21162042.743
  -2443165.93849  -1876416.36745  24257096.174    24257096.242    24257099.774
 08  8  8  2 19  0.0000000  0  8G14G12G31G18G30G 9G22G32
 -21013851.41449 -15944403.00247  20577992.842    20577992.622    20577994.477
 -15285669.51649 -11849827.72646  22662963.879    22662964.476    22662966.030
 -21813709.53749 -16977259.15647  21986167.033    21986166.873    21986169.277
  -6385124.69049  -4934498.24145  23791311.715    23791311.578    23791314.216
 -20682854.92949 -16084601.68547  20580470.515    20580470.617    20580473.552
   -821392.95149   -557653.38844  24775086.736    24775089.672    24775093.945
 -21820212.07149 -16980845.22547  21175083.756    21175084.224    21175084.654
  -2533961.00649  -1947165.75645  24239818.408    24239818.063    24239820.922
 08  8  8  2 19 30.0000000  0  8G14G12G31G18G30G 9G22G32
 -21029235.78249 -15956390.82247  20575065.284    20575065.149    20575067.290
 -15220530.88449 -11799070.36046  22675359.385    22675359.545    22675361.380
 -21874404.92849 -17024554.25747  21974617.007    21974617.759    21974619.410
  -6272547.47849  -4846775.80445  23812734.557    23812734.327    23812736.982
 -20701692.14049 -16099280.02747  20576885.915    20576886.478    20576888.931
   -714429.41248   -474305.19844  24795441.547    24795440.873    24795446.402
 -21751233.90749 -16927096.01247  21188209.923    21188209.648    21188210.707
  -2624559.43049  -2017761.90045  24222578.094    24222578.318    24222581.209
 08  8  8  2 20  0.0000000  0  8G14G12G31G18G30G 9G22G32
 -21044331.66649 -15968153.86747  20572192.641    20572192.717    20572194.540
 -15154933.98249 -11747955.90046  22687842.011    22687842.244    22687843.927
 -21934818.11349 -17071629.46547  21963120.708    21963121.347    21963123.975
  -6159836.93349  -4758949.44245  23834182.658    23834182.079    23834184.418
 -20719894.62749 -16113463.77347  20573422.050    20573422.616    20573425.081
   -607499.97449   -390983.58844  24815789.591    24815789.976    24815792.769
 -21681815.09849 -16873003.43347  21201419.786    21201419.792    21201420.425
  -2714959.97349  -2088203.84845  24205375.468    24205375.447    24205378.313
 08  8  8  2 20 30.0000000  0  8G14G12G31G18G30G 9G22G32
 -21059136.58349 -15979690.14947  20569375.390    20569375.268    20569377.171
 -15088880.31149 -11696485.52846  22700411.610    22700412.511    22700414.294
 -21994947.26049 -17118483.34047  21951678.457    21951678.599    21951681.444
  -6046994.17649  -4671020.07945  23855656.020    23855656.812    23855657.476
 -20737460.44649 -16127151.41847  20570079.445    20570080.020    20570082.294
   -500604.07849   -307688.11444  24836131.298    24836132.603    24836135.067
 -21611956.25349 -16818567.97747  21214713.448    21214713.609    21214714.207
  -2805158.72849  -2158488.56145  24188211.200    24188211.849    24188214.452
 08  8  8  2 21  0.0000000  0  8G14G12G31G18G30G 9G22G32
 -21073650.63049 -15990999.79247  20566613.485    20566613.490    20566615.277
 -15022372.99649 -11644661.64546  22713067.521    22713068.430    22713069.779
 -22054793.41049 -17165116.69847  21940290.144    21940290.893    21940293.050
  -5934022.72949  -4582990.42045  23877154.070    23877152.591    23877156.441
 -20754390.23749 -16140343.45247  20566857.818    20566858.030    20566860.657
   -393744.26549   -224420.76844  24856466.239    24856466.626    24856470.402
 -21541660.34749 -16763791.95247  21228090.242    21228090.229    21228091.158
  -2895154.58449  -2228615.18345  24171085.598    24171085.636    24171089.050
 08  8  8  2 21 30.0000000  0  8G14G12G31G18G30G 9G22G32
 -21087863.73249 -16002074.95147  20563908.840    20563908.492    20563910.680
 -14955405.62549 -11592479.29446  22725810.994    22725811.618    22725813.856
 -22114348.00149 -17211522.85947  21928957.338    21928958.138    21928960.319
  -5820916.48849  -4494855.74645  23898677.558    23898677.780    23898680.289
 -20770674.93649 -16153032.81847  20563758.893    20563759.286    20563761.844
   -286912.60648   -141175.37344  24876795.576    24876796.302    24876799.081
 -21470920.44849 -16708669.97047  21241551.649    21241551.840    21241552.645
   -544991.64649   -404489.82443
 08  8  8  2 22  0.0000000  0  8G14G12G31G18G30G 9G22G32
 -21101786.60449 -16012923.94947  20561259.371    20561259.256    20561261.199
 -14887991.70249 -11539948.96546  22738639.404    22738640.067    22738641.935
 -22173621.90949 -17257710.29447  21917677.956    21917678.387    21917680.797
  -5707689.31449  -4406626.83445  23920224.021    23920223.864    23920227.705
 -20786325.40149 -16165227.96847  20560780.676    20560781.027    20560783.403
   -180121.68449    -57961.72044  24897117.209    24897118.424    24897120.768
 -21399750.04649 -16653212.53047  21255094.969    21255095.354    21255095.864
   -634568.83449   -474290.65243
 08  8  8  2 22 30.0000000  0  7G14G12G31G18G30G22G32
 -21115416.84049 -16023544.91647  20558665.644    20558665.272    20558667.409
 -14820132.55349 -11487071.71546  22751552.601    22751552.668    22751554.677
 -22232614.53649 -17303678.56147  21906452.070    21906452.628    21906454.341
  -5594342.82549  -4318304.91645  23941793.208    23941793.541    23941795.510
 -20801339.70349 -16176927.42047  20557923.593    20557924.095    20557926.575
 -21328150.20049 -16597420.44847  21268719.941    21268719.902    21268720.685
   -723937.88649   -543928.88943
 08  8  8  2 23  0.0000000  0  7G14G12G31G18G30G22G32
 -21128752.50249 -16033936.33847  20556127.932    20556127.649    20556129.787
 -14751829.55349 -11433848.61346  22764550.239    22764550.230    22764552.582
 -22291324.40249 -17349426.48547  21895279.930    21895280.113    21895282.099
  -5480878.47249  -4229891.18245  23963384.867    23963385.254    23963388.254
 -20815716.64149 -16188130.21547  20555187.725    20555187.800    20555190.676
 -21256121.90149 -16541294.50047  21282426.428    21282426.473    21282427.564
   -813095.39449   -613402.14445                                  24102986.413
 08  8  8  2 23 30.0000000  0  7G14G12G31G18G30G22G32
 -21141793.08549 -16044097.83147  20553646.395    20553646.147    20553648.170
 -14683085.87649 -11380282.12646  22777631.743    22777631.614    22777634.366
 -22349752.40149 -17394954.77847  21884161.454    21884161.860    21884163.928
  -5367299.47349  -4141388.10245  23984998.274    23984997.052    23985000.740
 -20829457.06449 -16198837.03047  20552572.981    20552573.429    20552575.965
 -21183667.52149 -16484836.55147  21296214.089    21296214.258    21296214.750
   -902039.80649   -682709.46345  24086056.046    24086056.130    24086059.832
 08  8  8  2 24  0.0000000  0  7G14G12G31G18G30G22G32
 -21154538.33849 -16054029.19647  20551221.068    20551220.706    20551222.712
 -14613904.04549 -11326374.21646  22790796.650    22790797.030    22790799.018
 -22407898.94149 -17440263.75247  21873096.529    21873096.610    21873098.668
  -5253608.86649  -4052798.06445  24006632.812    24006630.526    24006636.849
 -20842560.51349 -16209047.50447  20550079.428    20550079.846    20550082.346
 -21110789.86149 -16428048.77347  21310082.297    21310082.447    21310083.107
   -990769.24049   -751849.27345  24069171.339    24069170.830    24069175.103
 08  8  8  2 24 30.0000000  0  7G14G12G31G18G30G22G32
 -21166984.46049 -16063727.47047  20548852.621    20548852.525    20548854.297
 -14544284.59949 -11272125.31246  22804044.766    22804044.948    22804047.342
 -22465761.67049 -17485351.60347  21862085.614    21862086.073    21862088.166
  -5139807.06549  -3964121.38145  24028288.521    24028288.642    24028291.506
 -20855024.51749 -16218759.70947  20547707.625    20547708.128    20547710.588
 -21037488.59849 -16370930.93347  21324031.083    21324031.220    21324031.939
  -1079279.23349   -820818.08145  24052328.303    24052328.220    24052332.377
 08  8  8  2 25  0.0000000  0  7G14G12G31G18G30G22G32
 -21179130.77649 -16073192.14447  20546541.235    20546541.006    20546543.130
 -14474229.57949 -11217536.99946  22817375.781    22817375.999    22817377.812
 -22523340.56149 -17530218.28047  21851128.702    21851129.258    21851130.700
  -5025896.42749  -3875359.88245  24049965.059    24049964.506    24049968.568
 -20866848.42249 -16227973.13647  20545457.620    20545457.915    20545460.388
 -20963765.87749 -16313484.66947  21338060.133    21338060.368    21338061.450
  -1167567.34949   -889614.00745  24035527.612    24035527.251    24035531.426
 08  8  8  2 25 30.0000000  0  7G14G12G31G18G30G22G32
 -21190974.70449 -16082421.18847  20544287.424    20544287.466    20544289.254
 -14403739.98049 -11162610.06646  22830789.525    22830789.253    22830791.762
 -22580634.00949 -17574862.52947  21840226.072    21840226.556    21840228.162
  -4911878.18249  -3786514.55945  24071661.976    24071662.045    24071665.971
 -20878030.60249 -16236686.51847  20543329.698    20543330.288    20543332.421
 -20889622.08849 -16255710.30247  21352169.235    21352169.261    21352170.390
  -1255629.93449   -958234.18145  24018769.835    24018769.692    24018773.740
 08  8  8  2 26  0.0000000  0  7G14G12G31G18G30G22G32
 -21202515.50349 -16091413.99647  20542091.252    20542091.216    20542092.967
 -14332818.43949 -11107346.53546  22844285.502    22844285.520    22844287.648
 -22637642.39649 -17619284.64547  21829377.675    21829377.726    21829379.822
  -4797755.23549  -3697587.61445  24093378.740    24093379.071    24093382.246
 -20888571.23349 -16244899.99147  20541323.922    20541324.287    20541326.932
 -20815059.82649 -16197609.84947  21366357.959    21366358.018    21366358.930
  -1343464.97749  -1026677.06545  24002055.343    24002055.603    24002058.923
 08  8  8  2 26 30.0000000  0  7G14G12G31G18G30G22G32
 -21213750.65949 -16100168.66647  20539953.287    20539952.976    20539954.990
 -14261466.73449 -11051747.82246  22857863.289    22857864.170    22857865.803
 -22694364.91849 -17663484.01147  21818583.614    21818584.208    21818586.147
  -4683529.16349  -3608580.32545  24115115.045    24115113.155    24115116.319
 -20898469.22549 -16252612.71247  20539440.409    20539440.781    20539443.349
 -20740080.32149 -16139184.28447  21380626.102    21380626.101    21380626.917
  -1431069.18949  -1094940.06745  23985384.868    23985384.954    23985388.568
 08  8  8  2 27  0.0000000  0  7G14G12G31G18G30G22G32
 -21224681.38949 -16108686.12547  20537873.229    20537873.046    20537874.755
 -14189689.05949 -10995817.19546  22871522.134    22871522.564    22871523.682
 -22750803.45249 -17707462.07547  21807843.774    21807843.874    21807846.366
  -4569204.12749  -3519495.92645  24136870.320    24136870.952    24136873.602
 -20907726.27849 -16259826.00047  20537678.830    20537679.440    20537681.686
 -20664687.40549 -16080436.56447  21394972.843    21394972.639    21394973.854
  -1518442.26649  -1163022.97445  23968758.386    23968758.554    23968762.816
 08  8  8  2 27 30.0000000  0  7G14G12G31G18G30G22G32
 -21235306.23649 -16116965.24647  20535851.372    20535851.336    20535853.193
 -14117487.45949 -10939556.22046  22885261.718    22885262.472    22885263.684
 -22806957.61549 -17751218.55747  21797157.988    21797158.611    21797160.662
  -4454782.57449  -3430336.31745  24158644.240    24158642.600    24158647.928
 -20916341.73049 -16266539.34047  20536039.390    20536039.995    20536042.118
 -20588882.69549 -16021367.96947  21409397.989    21409398.172    21409399.160
  -1605581.30549  -1230923.51145  23952176.441    23952176.283    23952179.673
 08  8  8  2 28  0.0000000  0  7G14G12G31G18G30G22G32
 -21245625.09949 -16125005.92147  20533887.779    20533887.635    20533889.467
 -14044865.52149 -10882967.71946  22899081.236    22899081.616    22899083.355
 -22862828.34449 -17794754.17347  21786526.167    21786526.801    21786528.539
  -4340268.22749  -3341104.39244  24180435.623    24180433.644    24180438.649
 -20924316.53149 -16272753.47347  20534521.838    20534522.026    20534524.605
 -20512669.85449 -15961981.34847  21423900.798    21423900.812    21423901.815
  -1692485.28349  -1298640.88245  23935639.190    23935639.761    23935643.209
 08  8  8  2 28 30.0000000  0  7G14G12G31G18G30G22G32
 -21255634.87349 -16132805.76547  20531982.970    20531983.084    20531984.848
 -13971823.50149 -10826051.87846  22912980.631    22912981.313    22912982.963
 -22918413.55249 -17838067.31047  21775948.687    21775949.344    21775951.109
  -4225661.38049  -3251800.40544  24202244.454    24202243.306    24202248.371
 -20931648.35049 -16278466.58247  20533126.637    20533126.942    20533129.326
 -20436048.08849 -15902276.06347  21438481.356    21438481.878    21438482.402
  -1779149.56049  -1366171.47445  23919147.545    23919147.609    23919150.787
 08  8  8  2 29  0.0000000  0  7G14G12G31G18G30G22G32
 -21265335.97449 -16140365.07647  20530136.937    20530136.962    20530138.805
 -13898365.24849 -10768811.70846  22926959.253    22926959.616    22926961.922
 -22973714.74349 -17881159.13647  21765425.255    21765425.789    21765427.719
  -4110965.91949  -3162427.38544  24224070.502    24224071.614    24224074.423
 -20938338.47849 -16283679.66947  20531853.548    20531854.023    20531856.355
 -20359021.51349 -15842255.35547  21453139.039    21453138.701    21453140.158
  -1865573.25049  -1433514.59245  23902701.740    23902701.984    23902704.941
 08  8  8  2 29 30.0000000  0  7G14G12G31G18G30G22G32
 -21274727.28949 -16147682.98847  20528349.861    20528349.839    20528351.708
 -13824493.00249 -10711248.94046  22941016.738    22941017.604    22941018.827
 -23028732.21149 -17924029.87447  21754955.756    21754956.317    21754958.569
  -3996184.40949  -3072987.30144  24245912.894    24245912.994    24245915.035
 -20944386.93049 -16288392.74547  20530702.553    20530703.030    20530705.302
 -20281592.30749 -15781920.92347  21467873.264    21467873.201    21467874.236
  -1951754.21449  -1500668.57945  23886301.971    23886301.627    23886305.275
 08  8  8  2 30  0.0000000  0  7G14G12G31G18G30G22G32
 -21283807.42149 -16154758.42947  20526621.968    20526621.865    20526623.924
 -13750209.34849 -10653365.60146  22955152.470    22955153.028    22955154.049
 -23083465.17349 -17966678.92547  21744540.348    21744541.047    21744542.233
  -3881319.13349  -2983481.90144  24267771.024    24267770.262    24267772.939
 -20949793.53149 -16292605.68047  20529673.710    20529674.082    20529676.535
 -20203762.63149 -15721274.43747  21482683.758    21482683.728    21482684.815
  -2037689.82149  -1567631.37645  23869948.837    23869948.309    23869952.402
 08  8  8  2 30 30.0000000  0  7G14G12G31G18G30G22G32
 -21292574.43149 -16161589.88147  20524953.683    20524953.550    20524955.450
 -13675515.71449 -10595162.77946  22969366.245    22969367.058    22969367.822
 -23137913.03149 -18009105.82747  21734179.291    21734179.920    21734181.517
  -3766371.39549  -2893912.27444  24289644.786    24289643.660    24289646.574
 -20954557.20149 -16296317.62947  20528767.163    20528767.480    20528770.115
 -20125533.28849 -15660316.51347  21497570.315    21497570.821    21497571.706
  -2123376.75449  -1634400.40145  23853642.994    23853641.967    23853646.734
 08  8  8  2 31  0.0000000  0  7G14G12G31G18G30G22G32
 -21301028.64349 -16168177.59947  20523344.934    20523344.894    20523346.587
 -13600415.88749 -10536643.44846  22983657.329    22983657.745    22983659.610
 -23192077.11649 -18051311.59647  21723872.246    21723872.606    21723874.583
  -3651345.41149  -2804281.67444  24311533.722    24311534.895    24311536.280
 -20958679.10349 -16299529.49947  20527982.834    20527983.283    20527985.811
 -20046908.09349 -15599050.13847  21512532.270    21512532.414    21512533.651
  -2208813.85949  -1700974.76845  23837384.957    23837385.421    23837388.865
 08  8  8  2 31 30.0000000  0  7G14G12G31G18G30G22G32
 -21309168.55749 -16174520.39747  20521795.970    20521795.776    20521797.855
 -13524912.13749 -10477809.37646  22998025.184    22998025.478    22998027.162
 -23245957.26149 -18093296.10647  21713619.176    21713619.404    21713621.690
  -3536243.32949  -2714591.79744  24333437.120    24333436.143    24333439.561
 -20962159.35349 -16302241.38047  20527320.568    20527321.041    20527323.429
 -19967888.65749 -15537476.56947  21527569.189    21527569.614    21527570.425
  -2293998.84249  -1767352.66245  23821175.047    23821174.864    23821179.667
 08  8  8  2 32  0.0000000  0  7G14G12G31G18G30G22G32
 -21316993.69849 -16180617.92347  20520306.895    20520306.827    20520308.801
 -13449007.42049 -10418662.86246  23012469.305    23012469.779    23012471.347
 -23299554.19249 -18135059.93847  21703419.973    21703420.405    21703421.947
  -3421068.45249  -2624845.17744  24355354.331    24355354.119    24355357.070
 -20964998.50949 -16304453.70447  20526780.309    20526780.635    20526783.186
 -19888477.94849 -15475598.09747  21542680.630    21542680.653    21542681.328
  -2378929.71349  -1833532.55245  23805013.254    23805012.543    23805016.256
 08  8  8  2 32 30.0000000  0  8G14G12G31G18G30G22G29G32
 -21324501.79449 -16186468.40047  20518878.144    20518878.136    20518879.874
 -13372702.85349 -10359204.77046  23026989.643    23026990.196    23026992.013
 -23352866.34549 -18176601.85047  21693275.030    21693275.548    21693277.272
  -3305821.81849  -2535042.66944  24377284.911    24377284.147    24377288.346
 -20967195.02249 -16306165.26447  20526362.323    20526362.755    20526365.307
 -19808676.63949 -15413415.27647  21557866.296    21557866.789    21557867.556
   -389120.86349   -266478.63443
  -2463602.80049  -1899511.57645  23788900.554    23788900.437    23788904.520
 08  8  8  2 33  0.0000000  0  8G14G12G31G18G30G22G29G32
 -21331691.91249 -16192071.10447  20517509.907    20517509.853    20517511.793
 -13296001.21849 -10299437.28246  23041585.494    23041585.322    23041587.791
 -23405894.16749 -18217922.21247  21683184.121    21683184.833    21683186.381
  -3190505.82349  -2445186.10144  24399228.807    24399228.775    24399233.359
 -20968749.16649 -16307376.28347  20526066.515    20526066.830    20526069.425
 -19728487.60949 -15350930.33647  21573125.875    21573125.506    21573126.516
   -467456.09749   -327518.83544                                  25110049.580
  -2548016.18449  -1965288.22845  23772837.295    23772837.347    23772840.964
 08  8  8  2 33 30.0000000  0  8G14G12G31G18G30G22G29G32
 -21338564.71249 -16197426.54247  20516202.063    20516202.279    20516203.893
 -13218907.10849 -10239363.97146  23056256.077    23056256.326    23056258.706
 -23458639.94449 -18259022.80347  21673146.973    21673147.332    21673149.249
  -3075125.59749  -2355279.45344  24421184.723    24421184.856    24421187.182
 -20969663.38549 -16308088.65447  20525892.552    20525893.160    20525895.506
 -19647914.90049 -15288146.42047  21588458.302    21588458.151    21588459.236
   -545775.22149   -388546.59244  25095144.441    25095140.905    25095146.792
  -2632169.42149  -2030862.16645  23756823.496    23756823.034    23756827.158
 08  8  8  2 34  0.0000000  0  8G14G12G31G18G30G22G29G32
 -21345116.80049 -16202532.08447  20514955.277    20514954.962    20514956.928
 -13141420.51349 -10178984.82546  23071001.321    23071001.108    23071003.528
 -23511100.69849 -18299901.30947  21663164.035    21663164.543    21663166.371
  -2959680.82649  -2265322.53744  24443153.078    24443152.598    24443157.041
 -20969935.28249 -16308300.52047  20525840.768    20525841.146    20525843.497
 -19566958.20549 -15225063.30047  21603863.826    21603863.856    21603865.062
   -624072.22549   -449557.14344  25080243.857    25080241.130    25080243.643
  -2716057.64449  -2096229.59045  23740860.037    23740859.835    23740862.528
 08  8  8  2 34 30.0000000  0  8G14G12G31G18G30G22G29G32
 -21351346.99349 -16207386.80147  20513769.724    20513769.643    20513771.499
 -13063543.67449 -10118301.60446  23085820.817    23085821.079    23085823.249
 -23563276.77449 -18340557.99247  21653235.288    21653235.657    21653237.195
  -2844174.16849  -2175317.41444  24465133.198    24465131.072    24465134.695
 -20969564.93549 -16308011.93547  20525911.223    20525911.657    20525914.152
 -19485619.70349 -15161682.66347  21619342.028    21619341.961    21619343.034
   -702344.61149   -510548.50745  25065348.714    25065347.861    25065352.522
  -2799678.40749  -2161388.60845  23724947.415    23724946.821    23724951.482
 08  8  8  2 35  0.0000000  0  8G14G12G31G18G30G22G29G32
 -21357253.55849 -16211989.34247  20512645.745    20512645.631    20512647.507
 -12985278.32849 -10057315.63846  23100714.169    23100714.558    23100716.288
 -23615167.40949 -18380992.26447  21643360.832    21643361.393    21643363.045
  -2728607.08649  -2085265.17544  24487124.798    24487125.796    24487126.783
 -20968551.71549 -16307222.41247  20526104.041    20526104.454    20526107.070
 -19403900.90549 -15098005.68647  21634892.557    21634892.556    21634894.297
   -780588.68349   -571517.75545  25050459.021    25050459.478    25050461.769
  -2883028.52349  -2226336.75545  23709086.323    23709086.031    23709089.716
 08  8  8  2 35 30.0000000  0  8G14G12G31G18G30G22G29G32
 -21362829.73649 -16216334.43447  20511584.617    20511584.426    20511586.401
 -12906621.64949  -9996024.73946  23115682.017    23115682.116    23115684.124
 -23666766.88649 -18421199.66047  21633541.774    21633542.260    21633544.023
  -2612976.38148  -1995163.34444  24509128.589    24509126.275    24509129.270
 -20966890.04049 -16305927.59447  20526420.272    20526420.765    20526423.043
 -19321798.46749 -15034029.76847  21650516.095    21650515.820    21650517.446
   -858795.71449   -632458.16845  25035576.584    25035576.791    25035580.214
  -2966100.13149  -2291067.85845  23693278.337    23693278.425    23693282.171
 08  8  8  2 36  0.0000000  0  8G14G12G31G18G30G22G29G32
 -21368085.63949 -16220429.97347  20510584.491    20510584.348    20510586.065
 -12827587.32849  -9934439.57146  23130721.669    23130722.194    23130723.788
 -23718086.76049 -18461189.16647  21623775.870    21623775.921    21623778.309
  -2497295.32249  -1905022.32844  24531141.871    24531141.564    24531144.204
 -20964591.64049 -16304136.63447  20526857.655    20526858.072    20526860.608
 -19239325.77049 -14969765.33147  21666210.123    21666210.315    21666211.369
   -936974.04049   -693376.23245  25020699.608    25020699.021    25020703.026
  -3048902.02249  -2355588.79645  23677521.739    23677522.023    23677524.913
 08  8  8  2 36 30.0000000  0  8G14G12G31G18G30G22G29G32
 -21373019.07649 -16224274.22347  20509645.682    20509645.398    20509647.371
 -12748176.34749  -9872560.90546  23145833.135    23145833.383    23145835.465
 -23769125.47649 -18500959.58947  21614063.433    21614063.635    21614066.047
  -2381565.60249  -1814843.39344  24553164.436    24553166.297    24553164.898
 -20961655.23749 -16301848.52047  20527416.418    20527416.705    20527419.356
 -19156483.74849 -14905213.10947  21681974.485    21681974.871    21681975.910
  -1015119.41449   -754268.62445  25005828.841    25005828.745    25005832.637
  -3131430.52849  -2419896.72345  23661817.092    23661816.435    23661820.622
 08  8  8  2 37  0.0000000  0  8G14G12G31G18G30G22G29G32
 -21377626.80149 -16227864.66647  20508768.872    20508768.895    20508770.761
 -12668389.67149  -9810389.50146  23161016.183    23161016.642    23161018.438
 -23819881.80549 -18540509.97247  21604404.820    21604405.221    21604407.463
  -2265788.38349  -1724627.40144  24575195.982    24575196.276    24575199.937
 -20958079.76649 -16299062.43747  20528096.811    20528097.024    20528099.547
 -19073273.06849 -14840373.63847  21697808.931    21697809.339    21697809.651
  -1093227.11849   -815131.67645  24990965.310    24990966.594    24990968.960
  -3213681.70849  -2483988.56345  23646165.221    23646164.451    23646168.409
 08  8  8  2 37 30.0000000  0  8G14G12G31G18G30G22G29G32
 -21381907.90549 -16231200.59647  20507954.242    20507954.149    20507956.102
 -12588229.68949  -9747927.18646  23176270.133    23176269.842    23176271.804
 -23870355.74849 -18579840.31047  21594799.922    21594800.171    21594802.510
  -2149965.53348  -1634375.90244  24597236.351    24597237.887    24597238.148
 -20953865.33749 -16295778.46547  20528898.787    20528899.239    20528901.732
 -18989695.88349 -14775248.57147  21713713.194    21713713.509    21713714.225
  -1171294.03949   -875962.99545  24976109.268    24976109.209    24976112.882
  -3295653.04349  -2547862.31445  23630566.576    23630565.860    23630570.216
 08  8  8  2 38  0.0000000  0  8G14G12G31G18G30G22G29G32
 -21385861.14549 -16234281.07347  20507201.963    20507201.790    20507203.960
 -12507698.77949  -9685175.86146  23191594.546    23191595.083    23191596.436
 -23920546.58849 -18618950.05447  21585248.948    21585249.173    21585251.419
  -2034099.43549  -1544090.70544  24619284.764    24619283.784    24619287.963
 -20949011.88249 -16291996.54847  20529822.397    20529822.899    20529825.400
 -18905754.13449 -14709839.43447  21729686.795    21729686.781    21729688.367
  -1249317.17648   -936760.23345  24961261.703    24961262.617    24961265.377
  -3377341.87949  -2611515.94145  23615021.667    23615020.392    23615025.414
 08  8  8  2 38 30.0000000  0  8G14G12G31G18G30G22G29G32
 -21389485.15349 -16237105.01347  20506512.288    20506512.027    20506514.136
 -12426799.23549  -9622137.27446  23206989.175    23206989.635    23206991.392
 -23970454.81849 -18657839.57747  21575751.728    21575752.258    21575753.923
  -1918192.79349  -1453773.90144  24641341.251    24641343.083    24641343.785
 -20943519.85649 -16287717.04347  20530867.525    20530868.126    20530870.465
 -18821450.43449 -14644148.24747  21745729.295    21745729.635    21745730.030
  -1327293.35248   -997520.86144  24946423.352    24946423.910    24946425.599
  -3458745.68749  -2674947.47145  23599530.957    23599530.475    23599534.484
 08  8  8  2 39  0.0000000  0  8G14G12G31G18G30G22G29G32
 -21392777.98549 -16239670.86247  20505885.736    20505885.611    20505887.835
 -12345532.76049  -9558812.76646  23222453.765    23222454.279    23222455.691
 -24020079.45749 -18696508.10847  21566308.482    21566308.765    21566310.832
  -1802246.64648  -1363426.31844  24663405.249    24663402.832    24663407.323
 -20937388.64749 -16282939.46947  20532034.254    20532034.738    20532037.455
 -18736786.28249 -14578176.19247  21761840.367    21761840.661    21761841.225
  -1405218.41549  -1058241.65645  24931594.531    24931593.837    24931598.695
  -3539861.36749  -2738154.49145  23584095.160    23584095.211    23584098.299
 08  8  8  2 39 30.0000000  0  8G14G12G31G18G30G22G29G32
 -21395740.12549 -16241979.02647  20505322.049    20505321.761    20505324.217
 -12263903.25049  -9495205.38546  23237987.479    23237987.966    23237990.116
 -24069421.58649 -18734956.51047  21556919.024    21556919.805    21556921.257
  -1686264.87749  -1273050.97044  24685475.998    24685475.651    24685479.474
 -20930620.05349 -16277665.24247  20533322.237    20533322.497    20533325.237
 -18651765.20249 -14511926.00447  21778019.456    21778019.951    21778020.387
  -1483090.87349  -1118921.47045  24916775.802    24916776.235    24916778.994
  -3620687.90549  -2801136.21345  23568714.289    23568713.579    23568718.268
 08  8  8  2 40  0.0000000  0  8G14G12G31G18G30G22G29G32
 -21398369.97049 -16244028.26347  20504821.595    20504821.497    20504823.462
 -12181912.61049  -9431316.59746  23253589.834    23253589.705    23253591.781
 -24118481.25649 -18773184.81347  21547583.356    21547583.848    21547585.328
  -1570249.23648  -1182649.25444  24707553.332    24707554.016    24707559.274
 -20923214.24049 -16271894.46947  20534731.530    20534731.881    20534734.317
 -18566388.80149 -14445398.94046  21794266.075    21794266.124    21794266.745
  -1560907.33548  -1179557.66244  24901967.726    24901969.305    24901969.776
  -3701222.33649  -2863890.32345  23553389.125    23553389.478    23553392.362
 08  8  8  2 40 30.0000000  0  8G14G12G31G18G30G22G29G32
 -21400666.17049 -16245817.53547  20504384.643    20504384.610    20504386.730
 -12099563.46649  -9367148.45146  23269260.268    23269260.396    23269262.103
 -24167258.75049 -18811193.24447  21538301.288    21538301.854    21538303.556
  -1454202.50049  -1092223.33144  24729636.401    24729635.829    24729640.388
 -20915171.61949 -16265627.49147  20536261.958    20536262.321    20536264.984
 -18480659.23549 -14378596.70546  21810579.890    21810580.289    21810580.392
  -1638664.59049  -1240147.71644  24887170.964    24887172.089    24887175.301
  -3781462.43949  -2926415.07345  23538119.959    23538120.358    23538123.473
 08  8  8  2 41  0.0000000  0  8G14G12G31G18G30G22G29G32
 -21402627.74349 -16247346.05347  20504011.382    20504011.428    20504013.298
 -12016858.48349  -9302703.04846  23284998.570    23284999.200    23285000.221
 -24215753.96949 -18848981.70947  21529073.015    21529073.283    21529075.327
  -1338127.20949  -1001775.16444  24751724.703    24751722.649    24751727.859
 -20906492.77549 -16258864.74947  20537913.463    20537913.788    20537916.336
 -18394579.15649 -14311521.33246  21826960.504    21826961.009    21826961.133
  -1716359.94949  -1300689.59845  24872386.301    24872387.225    24872390.537
  -3861405.81749  -2988708.62145  23522907.305    23522908.050    23522911.367
 08  8  8  2 41 30.0000000  0  8G14G12G31G18G30G22G29G32
 -21404254.00249 -16248613.28447  20503701.943    20503702.072    20503704.025
 -11933800.66349  -9237982.67346  23300804.020    23300804.798    23300805.755
 -24263967.44649 -18886550.64347  21519898.282    21519898.464    21519900.541
  -1222025.83549   -911306.60444  24773818.284    24773817.683    24773821.001
 -20897178.44849 -16251606.82647  20539685.920    20539686.341    20539688.922
 -18308151.30349 -14244174.96246  21843407.127    21843407.384    21843408.123
  -1793990.81449  -1361181.13645  24857613.509    24857613.482    24857617.728
  -3941050.50349  -3050769.41645  23507751.439    23507750.753    23507753.751
 08  8  8  2 42  0.0000000  0  8G14G12G31G18G30G22G29G32
 -21405543.94049 -16249618.45847  20503456.482    20503456.572    20503458.305
 -11850392.31649  -9172989.17946  23316676.138    23316676.441    23316678.593
 -24311898.95949 -18923899.87847  21510777.080    21510777.129    21510779.553
  -1105900.68849   -820819.52944  24795916.133    24795914.845    24795920.041
 -20887229.20449 -16243854.15947  20541579.217    20541579.650    20541582.149
 -18221378.15449 -14176559.52446  21859919.456    21859918.813    21859920.171
  -1871553.52549  -1421619.60445  24842853.757    24842854.010    24842857.313
  -4020393.93449  -3112595.46645  23492652.845    23492653.235    23492656.865
 08  8  8  2 42 30.0000000  0  8G14G12G31G18G30G22G29G32
 -21406495.59749 -16250360.02347  20503275.414    20503275.318    20503277.504
 -11766635.09849  -9107723.83246  23332614.650    23332615.207    23332616.958
 -24359547.98149 -18961028.98147  21501709.678    21501710.266    21501712.302
   -989753.96349   -730315.66344  24818018.152    24818018.124    24818022.804
 -20876644.71149 -16235606.48847  20543593.380    20543594.136    20543596.087
 -18134261.50449 -14108676.43546  21876497.069    21876496.766    21876498.251
  -1949044.53449  -1482002.21445  24828107.779    24828108.748    24828111.076
  -4099433.14649  -3174184.46245  23477612.153    23477612.377    23477616.386
 08  8  8  2 43  0.0000000  0  8G14G12G31G18G30G22G29G32
 -21407107.89149 -16250837.16247  20503158.943    20503158.968    20503161.108
 -11682531.71649  -9042188.77246  23348618.997    23348619.267    23348620.801
 -24406914.68949 -18997938.10447  21492696.145    21492696.376    21492698.632
   -873587.90449   -639796.73544  24840123.766    24840123.860    24840126.620
 -20865425.83749 -16226864.50447  20545728.216    20545728.778    20545730.978
 -18046803.42149 -14040527.28746  21893139.720    21893139.505    21893141.089
  -2026460.93649  -1542326.62845  24813375.936    24813376.407    24813381.015
  -4178165.73249  -3235534.51845  23462629.851    23462629.560    23462633.728
 08  8  8  2 43 30.0000000  0  8G14G12G31G18G30G22G29G32
 -21407380.09349 -16251049.29347  20503107.147    20503107.254    20503108.880
 -11598085.04049  -8976386.18846  23364688.531    23364688.713    23364690.700
 -24453999.43949 -19034627.51347  21483736.236    21483736.838    21483738.542
   -757405.14249   -549264.79144  24862232.711    24862234.393    24862235.976
 -20853573.42349 -16217628.84947  20547983.626    20547984.147    20547986.510
 -17959006.46249 -13972114.07446  21909846.940    21909846.819    21909847.980
  -2103800.19449  -1602590.95345  24798658.663    24798660.854    24798662.457
  -4256589.56949  -3296643.99945  23447706.333    23447705.711    23447709.037
 08  8  8  2 44  0.0000000  0  8G14G12G31G18G30G22G29G32
 -21407311.01549 -16250995.48547  20503120.317    20503120.235    20503122.223
 -11513297.47049  -8910317.97446  23380823.044    23380823.423    23380825.291
 -24500802.42049 -19071097.36947  21474829.952    21474830.544    21474832.253
   -641207.73448   -458721.39644  24884344.529    24884343.398    24884343.460
 -20841087.74249 -16207899.73147  20550359.616    20550359.882    20550362.373
 -17870873.13449 -13903438.76446  21926618.211    21926618.348    21926619.692
  -2181058.99548  -1662792.66244  24783956.855    24783954.685    24783958.332
  -4334702.29149  -3357511.03645  23432842.011    23432841.611    23432844.899
 08  8  8  2 44 30.0000000  0  8G14G12G31G18G30G22G29G32
 -21406900.91549 -16250675.94147  20503198.336    20503198.301    20503200.273
 -11428172.90049  -8843987.15446  23397021.699    23397022.289    23397023.919
 -24547324.74749 -19107348.52647  21465977.040    21465977.613    21465979.275
   -524999.39549   -368169.49244  24906458.127    24906458.817    24906460.186
 -20827970.90249 -16197678.81647  20552855.686    20552856.134    20552858.400
 -17782406.74449 -13834503.93546  21943452.784    21943452.924    21943454.370
  -2258235.19648  -1722929.92844  24769270.300    24769270.311    24769274.279
  -4412502.51649  -3418134.57945  23418037.114    23418036.361    23418040.644
 08  8  8  2 45  0.0000000  0  8G14G12G31G18G30G22G29G32
 -21406147.59349 -16250088.95547  20503341.704    20503341.722    20503343.884
 -11342712.80249  -8777394.89046  23413284.307    23413284.321    23413286.106
 -24593565.67649 -19143380.41647  21457177.709    21457178.135    21457179.964
   -408781.81549   -277610.42444  24928573.750    24928571.659    24928577.007
 -20814222.72349 -16186965.94447  20555471.854    20555472.393    20555474.673
 -17693608.44049 -13765310.46446  21960350.579    21960350.786    21960351.703
  -2335324.89348  -1782999.73944  24754600.570    24754599.757    24754606.097
  -4489987.09049  -3478512.16545  23403292.234    23403292.388    23403296.052
 08  8  8  2 45 30.0000000  0  8G14G12G31G18G30G22G29G32
 -21405050.23149 -16249233.89747  20503550.565    20503550.557    20503552.559
 -11256920.12549  -8710543.47746  23429610.102    23429610.598    23429612.552
 -24639525.79449 -19179193.49447  21448431.806    21448432.559    21448434.443
   -292557.66448   -187046.18944  24950690.485    24950691.306    24950691.665
 -20799844.17649 -16175761.88147  20558208.017    20558208.418    20558211.031
 -17604481.90149 -13695861.24146  21977310.837    21977310.674    21977311.748
  -2412325.38849  -1843000.13544  24739948.011    24739947.910    24739951.241
  -4567154.09649  -3538642.30745  23388607.964    23388607.804    23388611.578
 08  8  8  2 46  0.0000000  0  8G14G12G31G18G30G22G29G32
 -21403608.80549 -16248110.71647  20503824.877    20503824.598    20503826.857
 -11170798.14549  -8643435.45846  23445998.591    23445997.943    23446000.428
 -24685206.03349 -19214788.48547  21439739.112    21439739.567    21439741.411
   -176329.52549    -96478.86544  24972808.014    24972806.786    24972813.127
 -20784836.75649 -16164067.78547  20561063.812    20561064.391    20561066.428
 -17515030.05449 -13626158.50346  21994332.867    21994332.710    21994334.306
  -2489234.66049  -1902929.39244  24725312.683    24725312.762    24725316.738
  -4644001.92449  -3598523.72745  23373984.436    23373984.227    23373987.894
 08  8  8  2 46 30.0000000  0  8G14G12G31G18G30G22G29G32
 -21401820.65949 -16246717.37847  20504165.185    20504165.102    20504167.240
 -11084348.12449  -8576071.81346  23462449.489    23462449.144    23462451.857
 -24730604.89549 -19250164.21047  21431100.000    21431100.658    21431102.430
    -60098.98849     -5909.69944  24994925.886    24994925.743    24994929.375
 -20769199.71349 -16151883.07847  20564039.466    20564040.041    20564042.305
 -17425253.76149 -13556202.95446  22011416.755    22011417.013    22011417.629
  -2566047.92549  -1962783.79245  24710695.506    24710697.100    24710699.664
  -4720526.87649  -3658153.54945  23359422.246    23359421.929    23359426.076
 08  8  8  2 47  0.0000000  0  7G14G12G31G30G22G29G32
 -21399685.45349 -16245053.59447  20504571.536    20504571.381    20504573.372
 -10997573.33049  -8508455.12146  23478962.177    23478962.972    23478964.399
 -24775723.42249 -19285321.50047  21422514.195    21422514.692    21422516.470
 -20752934.67749 -16139209.03047  20567134.542    20567134.949    20567137.397
 -17335156.08749 -13485996.98046  22028561.789    22028561.664    22028562.642
  -2642762.87949  -2022561.59445  24696097.267    24696098.617    24696099.768
  -4796727.06049  -3717530.31345  23344921.647    23344921.327    23344925.265
 08  8  8  2 47 30.0000000  0  7G14G12G31G30G22G29G32
 -21397204.71049 -16243120.55247  20505043.589    20505043.344    20505045.271
 -10910478.75349  -8440589.22846  23495535.723    23495536.069    23495537.687
 -24820564.25149 -19320262.40147  21413981.274    21413981.819    21413983.394
 -20736045.19149 -16126048.39447  20570348.531    20570349.054    20570351.609
 -17244742.11349 -13415544.55946  22045767.042    22045767.533    22045768.239
  -2719379.07849  -2082262.47545  24681517.667    24681517.761    24681521.281
  -4872602.83849  -3776654.29845  23330483.058    23330483.922    23330486.525
 08  8  8  2 48  0.0000000  0  7G14G12G31G30G22G29G32
 -21394378.12749 -16240918.02647  20505581.482    20505581.202    20505583.476
 -10823067.50349  -8372476.58146  23512169.548    23512169.724    23512172.567
 -24865128.05249 -19354987.44147  21405501.120    21405501.530    21405503.443
 -20718532.62249 -16112402.23647  20573681.089    20573681.637    20573683.766
 -17154014.43749 -13344847.68446  22063032.008    22063032.400    22063032.511
  -2795893.89649  -2141884.35245  24666957.292    24666956.991    24666961.645
  -4948152.36149  -3835524.04145  23316106.555    23316106.445    23316110.300
 08  8  8  2 48 30.0000000  0  7G14G12G31G30G22G29G32
 -21391199.87349 -16238441.46647  20506186.289    20506186.333    20506188.325
 -10735337.25749  -8304115.38046  23528863.999    23528864.776    23528866.533
 -24909410.10349 -19389492.94547  21397074.491    21397075.113    21397077.164
 -20700392.75149 -16098267.27647  20577133.016    20577133.507    20577135.733
 -17062971.29649 -13273905.00646  22080356.946    22080356.687    22080357.822
  -2872299.56749  -2201421.15945  24652417.890    24652418.286    24652421.973
  -5023368.73949  -3894134.21345  23301793.249    23301792.405    23301796.635
 08  8  8  2 49  0.0000000  0  7G14G12G31G30G22G29G32
 -21387668.67249 -16235689.89047  20506858.278    20506857.868    20506860.451
 -10647290.82849  -8235507.81146  23545618.706    23545619.996    23545621.514
 -24953410.77349 -19423779.18247  21388701.462    21388702.240    21388704.114
 -20681626.71349 -16083644.39447  20580704.046    20580704.515    20580706.788
 -16971615.16549 -13202718.42746  22097741.409    22097741.262    22097742.101
  -2948593.05649  -2260870.52745  24637899.784    24637900.686    24637903.565
  -5098249.44049  -3952482.79845  23287543.842    23287543.629    23287547.242
 08  8  8  2 49 30.0000000  0  7G14G12G31G30G22G29G32
 -21383785.40049 -16232663.97147  20507597.191    20507597.066    20507599.252
 -10558932.81849  -8166657.44846  23562432.797    23562432.897    23562434.896
 -24997131.97349 -19457847.64747  21380381.577    21380382.219    21380384.018
 -20662237.30349 -16068535.76247  20584393.753    20584394.360    20584396.243
 -16879950.06049 -13131291.07546  22115184.758    22115184.686    22115185.585
  -3024772.87849  -2320231.41345  24623403.131    24623402.903    24623405.357
  -5172794.01549  -4010569.48445  23273358.417    23273357.780    23273362.422
 08  8  8  2 50  0.0000000  0  7G14G12G31G30G22G29G32
 -21379548.68049 -16229362.65047  20508403.405    20508403.328    20508405.231
 -10470264.84449  -8097565.53845  23579305.765    23579306.296    23579307.913
 -25040573.34049 -19491698.05947  21372114.946    21372115.412    21372117.457
 -20642224.78449 -16052941.58847  20588202.040    20588201.994    20588204.663
 -16787977.92149 -13059624.50046  22132686.424    22132686.480    22132687.154
  -3100835.69448  -2379501.07745  24608928.495    24608927.514    24608933.227
  -5246999.56549  -4068391.98145  23259237.576    23259237.225    23259242.034
 08  8  8  2 50 30.0000000  0  7G14G12G31G30G22G29G32
 -21374959.18849 -16225786.43747  20509276.778    20509276.773    20509278.695
 -10381291.62949  -8028235.78745  23596236.797    23596236.985    23596239.461
 -25083737.02849 -19525332.10247  21363901.148    21363901.579    21363903.404
 -20621592.07749 -16036864.14847  20592128.267    20592128.766    20592130.811
 -16695703.53749 -12987722.39946  22150245.656    22150245.324    22150246.699
  -3176780.22749  -2438678.55345  24594476.873    24594478.507    24594481.354
  -5320865.73849  -4125950.02145  23245181.376    23245180.406    23245185.019
 08  8  8  2 51  0.0000000  0  7G14G12G31G30G22G29G32
 -21370014.90949 -16221933.76847  20510217.622    20510217.522    20510219.573
 -10292014.66849  -7958669.34045  23613225.642    23613226.344    23613227.481
 -25126622.34949 -19558749.22347  21355740.283    21355740.898    21355742.760
 -20600339.31849 -16020303.55747  20596172.525    20596173.056    20596175.284
 -16603128.26449 -12915585.83046  22167862.125    22167862.598    22167863.277
  -3252602.47349  -2497760.82745  24580048.454    24580049.286    24580051.266
  -5394389.27949  -4183241.09045  23231190.270    23231190.531    23231193.858
 08  8  8  2 51 30.0000000  0  7G14G12G31G30G22G29G32
 -21364714.04549 -16217803.24147  20511226.349    20511226.353    20511228.299
 -10202435.38149  -7888867.32245  23630272.000    23630272.872    23630274.172
 -25169228.20149 -19591948.57947  21347632.694    21347633.401    21347634.910
 -20578466.73049 -16003259.97847  20600334.772    20600335.315    20600337.693
 -16510253.35149 -12843215.78246  22185535.546    22185534.974    22185537.038
  -3328298.47149  -2556744.68245  24565643.892    24565644.378    24565647.628
  -5467566.94849  -4240262.64745  23217264.951    23217264.572    23217269.512
 08  8  8  2 52  0.0000000  0  7G14G12G31G30G22G29G32
 -21359056.26549 -16213394.59447  20512302.984    20512302.818    20512304.999
 -10112557.46249  -7818832.61045  23647375.254    23647375.463    23647377.662
 -25211555.73949 -19624931.07047  21339578.090    21339578.337    21339580.531
 -20555976.14349 -15985734.84147  20604614.554    20604615.122    20604617.399
 -16417082.18449 -12770614.88546  22203265.405    22203265.269    22203266.002
  -3403865.64449  -2615628.15245  24551264.023    24551264.353    24551268.847
  -5540397.15949  -4297013.45445  23203405.764    23203404.837    23203409.619
 08  8  8  2 52 30.0000000  0  7G14G12G31G30G22G29G32
 -21353041.23749 -16208707.55647  20513447.583    20513447.846    20513449.671
 -10022384.11649  -7748567.68745  23664534.742    23664535.493    23664536.514
 -25253605.67949 -19657697.24947  21331576.220    21331576.307    21331578.629
 -20532869.25049 -15967729.46647  20609011.663    20609012.118    20609014.354
 -16323618.27249 -12697785.87346  22221050.971    22221050.997    22221052.136
  -3479301.68949  -2674409.45045  24536909.026    24536908.342    24536913.926
  -5612878.24349  -4353492.20945  23189613.081    23189612.106    23189616.567
 08  8  8  2 53  0.0000000  0  7G14G12G31G30G22G29G32
 -21346667.90649 -16203741.34147  20514660.448    20514660.506    20514662.299
  -9931917.39649  -7678074.14945  23681750.053    23681750.176    23681752.118
 -25295377.85249 -19690246.98547  21323627.221    21323627.370    21323629.557
 -20509146.52249 -15949244.21847  20613525.878    20613526.003    20613528.574
 -16229863.50449 -12624730.23146  22238891.906    22238892.155    22238893.228
  -3554603.08749  -2733085.85645  24522579.411    24522579.372    24522583.961
  -5685007.52949  -4409696.84145  23175887.321    23175887.547    23175891.325
 08  8  8  2 53 30.0000000  0  7G14G12G31G30G22G29G32
 -21339934.83149 -16198494.80947  20515941.752    20515941.669    20515943.836
  -9841160.13649  -7607354.25545  23699020.497    23699020.679    23699022.409
 -25336872.80049 -19722580.70147  21315730.978    21315731.616    21315733.029
 -20484809.12749 -15930280.01047  20618157.057    20618157.497    20618159.669
 -16135820.40449 -12551449.90446  22256787.788    22256788.326    22256789.139
  -3629766.95149  -2791655.07245  24508276.147    24508275.584    24508279.769
  -5756783.00049  -4465625.77745  23162228.904    23162228.703    23162231.870
 08  8  8  2 54  0.0000000  0  7G14G12G31G30G22G29G32
 -21332841.26749 -16192967.36047  20517291.648    20517291.605    20517293.697
  -9750114.57149  -7536409.68945  23716345.906    23716346.885    23716348.537
 -25378090.58049 -19754698.43847  21307887.496    21307887.906    21307889.793
 -20459858.25649 -15910837.76747  20622905.076    20622905.640    20622908.212
 -16041491.62749 -12477946.97346  22274738.015    22274738.399    22274739.107
  -3704790.07649  -2850114.59645  24493999.538    24494000.276    24494003.437
  -5828202.27249  -4521277.15045  23148638.258    23148638.061    23148642.118
 08  8  8  2 54 30.0000000  0  7G14G12G31G30G22G29G32
 -21325386.73549 -16187158.63747  20518710.251    20518710.193    20518712.261
  -9658784.06749  -7465243.09045  23733725.455    23733726.273    23733728.515
 -25419031.79549 -19786600.66847  21300096.639    21300097.230    21300099.040
 -20434295.85449 -15890919.00847  20627769.450    20627769.862    20627772.426
 -15946879.81349 -12404223.48046  22292742.081    22292742.136    22292743.567
  -3779669.88049  -2908462.45445  24479750.459    24479750.541    24479754.614
  -5899263.35149  -4576649.41446  23135115.777    23135114.753    23135119.480
 08  8  8  2 55  0.0000000  0  7G14G12G31G30G22G29G32
 -21317570.22049 -16181067.87047  20520197.661    20520197.313    20520199.724
  -9567171.05949  -7393856.36345  23751158.859    23751159.654    23751161.238
 -25459696.52149 -19818287.45447  21292358.370    21292358.657    21292360.739
 -20408123.05449 -15870524.61247  20632749.951    20632750.464    20632752.686
 -15851987.77549 -12330281.64146  22310799.507    22310799.835    22310800.469
  -3854403.22149  -2966696.15845  24465529.075    24465528.807    24465532.588
  -5969964.14349  -4631740.93846  23121661.908    23121661.207    23121665.586
 08  8  8  2 55 30.0000000  0  7G14G12G31G30G22G29G32
 -21309390.84249 -16174694.35847  20521754.132    20521754.255    20521756.079
  -9475278.34949  -7322251.70045  23768645.496    23768646.458    23768648.293
 -25500085.20549 -19849759.14747  21284672.695    21284673.327    21284675.016
 -20381340.96749 -15849655.44947  20637846.435    20637846.846    20637849.260
 -15756818.02449 -12256123.40546  22328909.741    22328909.937    22328911.375
  -3928986.86949  -3024813.21045  24451336.086    24451335.912    24451340.255
  -6040302.50349  -4686550.03846  23108277.052    23108276.463    23108280.780
 08  8  8  2 56  0.0000000  0  7G14G12G31G30G22G29G32
 -21300847.63749 -16168037.32847  20523379.906    20523379.640    20523381.863
  -9383108.32249  -7250430.93745  23786184.919    23786185.576    23786186.870
 -25540198.44149 -19881016.19747  21277039.424    21277039.982    21277041.529
 -20353950.72649 -15828312.39447  20643058.662    20643058.978    20643061.651
 -15661373.17949 -12181750.80646  22347072.294    22347072.324    22347073.238
  -4003417.96549  -3082811.42245  24437172.290    24437172.308    24437175.877
  -6110276.06049  -4741074.87346  23094961.518    23094961.361    23094964.438
 08  8  8  2 56 30.0000000  0  7G14G12G31G30G22G29G32
 -21291939.34349 -16161095.82447  20525075.108    20525074.996    20525076.882
  -9290663.33049  -7178395.90145  23803776.709    23803776.918    23803779.607
 -25580035.98549 -19912058.42847  21269458.602    21269459.070    21269460.949
 -20325953.88749 -15806496.66847  20648386.239    20648386.529    20648389.011
 -15565655.94949 -12107165.96846  22365286.727    22365286.514    22365287.569
  -4077693.37049  -3140688.30045  24423038.051    24423038.173    24423042.337
  -6179882.43749  -4795313.60146  23081715.792    23081715.061    23081719.682
 08  8  8  2 57  0.0000000  0  7G14G12G31G30G22G29G32
 -21282665.70849 -16153869.63747  20526839.864    20526839.844    20526841.760
  -9197946.40649  -7106148.98145  23821420.199    23821420.334    23821423.209
 -25619598.07249 -19942886.01347  21261930.155    21261930.292    21261932.305
 -20297351.45849 -15784209.06347  20653829.054    20653829.561    20653831.801
 -15469668.80149 -12032370.79346  22383552.529    22383552.299    22383553.637
  -4151810.10449  -3198441.51845  24408934.091    24408934.256    24408936.714
  -6249119.68049  -4849264.70446  23068540.314    23068539.932    23068544.195
 08  8  8  2 57 30.0000000  0  7G14G12G31G30G22G29G32
 -21273025.37249 -16146357.71147  20528674.376    20528674.574    20528676.314
  -9104960.07049  -7033692.12345  23839114.794    23839116.213    23839117.345
 -25658885.07349 -19973499.25047  21254453.990    21254454.547    21254456.306
 -20268144.76149 -15761450.59047  20659386.901    20659387.414    20659389.591
 -15373413.91549 -11957366.99446  22401869.125    22401869.379    22401870.602
  -4225765.10549  -3256068.71545  24394860.815    24394861.939    24394864.319
  -6317985.46849  -4902926.34346  23055435.650    23055435.464    23055439.689
 08  8  8  2 58  0.0000000  0  7G14G12G31G30G22G29G32
 -21263018.09149 -16138559.85547  20530578.701    20530578.526    20530580.720
  -9011707.62549  -6961027.93245  23856860.171    23856861.379    23856863.261
 -25697897.78649 -20003898.75947  21247030.103    21247030.817    21247032.283
 -20238336.00549 -15738222.98647  20665059.347    20665060.087    20665062.219
 -15276895.15549 -11882157.59346  22420236.076    22420236.343    22420237.420
  -4299555.95749  -3313568.04645  24380819.187    24380820.379    24380823.796
  -6386478.28249  -4956297.35546  23042401.954    23042401.717    23042404.711
 08  8  8  2 58 30.0000000  0  7G14G12G31G30G22G29G32
 -21252642.18749 -16130474.75147  20532553.173    20532552.899    20532555.125
  -8918190.59549  -6888157.53645  23874656.006    23874656.909    23874659.533
 -25736635.96049 -20034084.33347  21239658.496    21239658.860    21239660.859
 -20207925.97249 -15714526.84747  20670846.160    20670846.651    20670849.078
 -15180114.43049 -11806744.07146  22438652.915    22438652.984    22438653.633
  -4373178.88949  -3370936.50845  24366809.210    24366809.159    24366813.200
  -6454595.24949  -5009375.52246  23029439.679    23029438.571    23029443.955
 08  8  8  2 59  0.0000000  0  7G14G12G31G30G22G29G32
 -21241897.09149 -16122101.97947  20534597.889    20534597.994    20534599.953
  -8824412.22149  -6815083.52545  23892501.609    23892502.385    23892503.919
 -25775100.01349 -20064056.31447  21232338.976    21232339.517    21232341.126
 -20176916.24849 -15690363.42447  20676747.125    20676747.376    20676750.011
 -15083074.43249 -11731128.50846  22457119.060    22457119.809    22457119.337
  -4446630.70949  -3428171.63045  24352831.764    24352832.595    24352834.092
  -6522334.21149  -5062159.11546  23016549.374    23016548.155    23016552.882
 08  8  8  2 59 30.0000000  0  7G14G12G31G30G22G29G32
 -21230783.68149 -16113442.21147  20536712.706    20536712.820    20536714.988
  -8730376.48749  -6741808.93345  23910396.175    23910395.528    23910399.235
 -25813291.64149 -20093816.01547  21225071.324    21225071.978    21225073.725
 -20145309.78349 -15665735.00147  20682761.619    20682762.112    20682764.569
 -14985779.24649 -11655314.08846  22475633.770    22475633.133    22475634.752
  -4519909.98349  -3485272.34745  24338887.274    24338887.269    24338890.655
  -6589694.80549  -5114647.88746  23003731.022    23003730.469    23003734.955
 08  8  8  3  0  0.0000000  0  7G14G12G31G30G22G29G32
 -21219298.61049 -16104492.81747  20538898.228    20538898.127    20538900.533
  -8636083.73349  -6668334.10145  23928339.381    23928339.755    23928341.140
 -25851209.02749 -20123362.01447  21217855.959    21217856.544    21217858.150
 -20113105.62649 -15640640.85347  20688889.887    20688890.169    20688892.665
 -14888229.25449 -11579301.12546  22494196.888    22494196.852    22494197.564
  -4593011.91549  -3542234.85845  24324976.467    24324977.109    24324980.018
  -6656672.39349  -5166838.20546  22990985.586    22990985.902    22990989.466
 08  8  8  3  0 30.0000000  0  7G14G12G31G30G22G29G32
 -21207441.40749 -16095253.45647  20541154.618    20541154.695    20541156.780
  -8541536.89249  -6594661.29045  23946330.945    23946331.140    23946333.143
 -25888852.78849 -20152694.79647  21210692.599    21210693.213    21210694.869
 -20080305.81549 -15615082.55247  20695131.519    20695132.028    20695134.058
 -14790427.45349 -11503091.94046  22512807.909    22512807.068    22512809.475
  -4665933.51549  -3599056.84745  24311099.970    24311099.956    24311104.278
  -6723265.37149  -5218728.83046  22978313.435    22978313.135    22978317.947
 08  8  8  3  1  0.0000000  0  7G14G12G31G30G22G29G32
 -21195211.15849 -16085723.40347  20543481.975    20543482.043    20543484.010
  -8446738.76549  -6520792.63045  23964370.371    23964370.372    23964373.508
 -25926223.46249 -20181814.77947  21203581.192    21203581.716    21203583.443
 -20046911.84549 -15589061.27047  20701486.121    20701486.609    20701488.890
 -14692376.23349 -11426688.42446  22531466.381    22531467.530    22531467.131
  -4738671.73449  -3655735.92645  24297258.080    24297257.669    24297261.404
  -6789471.60849  -5270318.08846  22965714.761    22965714.806    22965718.706
 08  8  8  3  1 30.0000000  0  7G14G12G31G30G22G29G32
 -21182607.01949 -16075902.01747  20545880.454    20545880.383    20545882.712
  -8351691.80649  -6446730.09245  23982457.101    23982457.480    23982460.451
 -25963320.76449 -20210721.75447  21196521.835    21196522.323    21196524.104
 -20012925.18849 -15562578.16047  20707953.525    20707953.822    20707956.416
 -14594078.12449 -11350092.49746  22550171.871    22550171.731    22550172.617
  -4811223.27249  -3712269.58245  24283452.032    24283453.095    24283455.028
  -6855288.69249  -5321604.12646  22953190.171    22953189.987    22953193.947
 08  8  8  3  2  0.0000000  0  7G14G12G31G30G22G29G32
 -21169629.18449 -16065789.43147  20548350.011    20548349.863    20548352.237
  -8256399.60649  -6372476.47645  24000590.506    24000591.476    24000592.988
 -26000146.40649 -20239417.03747  21189514.124    21189514.494    21189516.384
 -19978348.61549 -15535635.37147  20714533.207    20714533.577    20714536.303
 -14495537.40849 -11273307.53246  22568923.433    22568923.359    22568925.027
  -4883586.36049  -3768656.37545  24269681.910    24269682.159    24269685.693
  -6920715.75049  -5372586.23546  22940739.856    22940739.996    22940744.005
 08  8  8  3  2 30.0000000  0  7G14G12G31G30G22G29G32
 -21156276.58749 -16055384.82347  20550890.928    20550890.784    20550893.203
  -8160864.12549  -6298033.27645  24018770.354    24018770.951    24018773.290
 -26036699.93749 -20267900.28647  21182558.209    21182558.530    21182560.348
 -19943182.87449 -15508233.49447  20721225.064    20721225.334    20721227.995
 -14396755.82049 -11196334.88646  22587720.911    22587720.976    22587721.969
  -4955757.33049  -3824893.47645  24255948.150    24255948.636    24255951.326
  -6985749.99149  -5423262.25646  22928364.248    22928364.623    22928367.944
 08  8  8  3  3  0.0000000  0  7G14G12G31G30G22G29G32
 -21142548.12749 -16044687.33047  20553503.394    20553503.506    20553505.454
  -8065087.85549  -6223402.44745  24036996.034    24036996.624    24036998.909
 -26072982.12049 -20296172.09747  21175653.887    21175654.130    21175655.968
 -19907429.68149 -15480373.85947  20728028.664    20728028.854    20728031.416
 -14297736.02349 -11119176.61946  22606563.729    22606564.311    22606564.814
  -5027733.36749  -3880978.65045  24242251.650    24242251.808    24242255.573
  -7050389.56149  -5473630.75746  22916063.739    22916063.779    22916067.564
 08  8  8  3  3 30.0000000  0  7G14G12G31G30G22G29G32
 -21128443.55149 -16033696.77247  20556187.406    20556187.577    20556189.513
  -7969074.32049  -6148586.75145  24055267.055    24055266.905    24055268.863
 -26108993.34949 -20324232.78347  21168801.168    21168801.534    21168803.366
 -19871091.15649 -15452058.12947  20734943.672    20734944.197    20734946.437
 -14198481.37349 -11041835.35546  22625451.240    22625452.585    22625452.717
  -5099511.71449  -3936909.78845  24228592.519    24228592.395    24228596.262
  -7114632.68149  -5523690.32946  22903838.706    22903838.273    22903842.216
 08  8  8  3  4  0.0000000  0  7G14G12G31G30G22G29G32
 -21113961.89049 -16022412.37447  20558943.218    20558943.150    20558945.568
  -7872825.87349  -6073588.00245  24073582.529    24073582.636    24073585.469
 -26144733.87849 -20352082.52747  21161999.957    21162000.412    21162001.857
 -19834168.38649 -15423287.13347  20741969.821    20741970.343    20741972.586
 -14098994.13049 -10964312.85046  22644383.142    22644383.519    22644384.803
  -5171088.79649  -3992684.09545  24214971.838    24214971.954    24214974.834
  -7178476.92649  -5573439.08746  22891689.532    22891688.944    22891693.978
 08  8  8  3  4 30.0000000  0  7G14G12G31G30G22G29G32
 -21099101.67049 -16010832.99647  20561771.018    20561771.122    20561773.482
  -7776344.55449  -5998407.77845  24091942.332    24091942.675    24091944.453
 -26180203.59049 -20379721.24747  21155250.271    21155250.915    21155252.454
 -19796663.10149 -15394062.24047  20749106.869    20749107.202    20749109.833
 -13999276.40849 -10886610.72646  22663358.852    22663358.463    22663359.753
  -5242461.68049  -4048299.26145  24201389.920    24201389.976    24201393.725
  -7241920.04249  -5622875.28546  22879616.707    22879616.001    22879620.578
 08  8  8  3  5  0.0000000  0  7G14G12G31G30G22G29G32
 -21083862.59049 -15998958.39747  20564670.963    20564671.044    20564673.210
  -7679633.54449  -5923048.59845  24110345.895    24110346.574    24110347.884
 -26215403.25649 -20407149.54347  21148552.000    21148552.472    21148554.012
 -19758577.39449 -15364385.06347  20756354.323    20756354.805    20756356.917
 -13899331.50949 -10808731.61746  22682377.745    22682378.076    22682380.053
  -5313627.72149  -4103753.25745  24187847.533    24187848.081    24187850.507
  -7304960.43349  -5671997.66046  22867620.615    22867620.586    22867623.496
 08  8  8  3  5 30.0000000  0  7G14G12G31G30G22G29G32
 -21068243.72049 -15986787.86047  20567643.146    20567643.247    20567645.376
  -7582694.81449  -5847511.94445  24128792.779    24128793.014    24128795.165
 -26250332.80249 -20434367.35947  21141905.100    21141905.353    21141907.223
 -19719912.06449 -15334256.24247  20763712.064    20763712.641    20763714.848
 -13799161.86549 -10730677.34446  22701439.378    22701439.810    22701440.706
  -5384583.52449  -4159043.42245  24174345.033    24174344.739    24174347.575
  -7367595.43149  -5720804.14746  22855701.535    22855701.617    22855704.890
 08  8  8  3  6  0.0000000  0  7G14G12G31G30G22G29G32
 -21052244.66249 -15974321.07247  20570687.689    20570687.699    20570689.806
  -7485531.41949  -5771800.25945  24147282.288    24147283.044    24147285.107
 -26284992.78349 -20461375.11647  21135309.513    21135309.919    21135311.754
 -19680669.52949 -15303677.64347  20771179.695    20771180.381    20771182.520
 -13698770.50449 -10652450.32246  22720543.251    22720544.594    22720544.767
  -5455326.12349  -4214167.45945  24160883.059    24160883.189    24160886.553
  -7429823.48349  -5769293.52846  22843859.892    22843859.305    22843863.559
 08  8  8  3  6 30.0000000  0  7G14G12G31G30G22G29G32
 -21035863.88049 -15961556.83347  20573804.895    20573804.701    20573807.069
  -7388145.28349  -5695914.99645  24165814.274    24165815.314    24165818.316
 -26319382.89649 -20488172.58747  21128765.289    21128765.630    21128767.401
 -19640851.29749 -15272650.44747  20778756.868    20778757.156    20778759.786
 -13598159.21349 -10574051.91846  22739688.986    22739688.082    22739689.476
  -5525851.62249  -4269122.34145  24147462.483    24147463.009    24147465.270
  -7491641.70949  -5817463.57146  22832096.291    22832095.989    22832099.988
 08  8  8  3  7  0.0000000  0  7G14G12G31G30G22G29G32
 -21019101.41449 -15948495.18247  20576994.714    20576994.523    20576996.722
  -7290539.95149  -5619858.91945  24184387.943    24184388.686    24184390.906
 -26353504.69249 -20514760.98247  21122272.105    21122272.635    21122274.329
 -19600460.08349 -15241176.77547  20786443.099    20786443.744    20786445.763
 -13497331.85249 -10495485.16046  22758875.840    22758875.548    22758877.311
  -5596158.87649  -4323907.17645  24134083.417    24134082.882    24134087.216
  -7553049.41449  -5865313.72546  22820410.728    22820410.379    22820413.666
 08  8  8  3  7 30.0000000  0  8G14G12G31G20G30G22G29G32
 -21001956.24649 -15935135.31847  20580257.327    20580257.074    20580259.503
  -7192717.57749  -5543633.74745  24203002.906    24203002.860    24203006.306
 -26387357.80849 -20541140.02447  21115830.079    21115830.635    21115832.172
   -455776.31449   -316352.91644                                  24259324.907
 -19559496.55349 -15209257.13647  20794238.207    20794238.468    20794241.018
 -13396290.15549 -10416751.38846  22778103.475    22778103.727    22778105.038
  -5666243.74749  -4378518.68545  24120746.548    24120746.884    24120750.566
  -7614043.70449  -5912841.74446  22808803.848    22808803.884    22808807.991
 08  8  8  3  8  0.0000000  0  9G14G12G31G20G30G22G29G32G16
 -20984429.51149 -15921478.13547  20583592.549    20583592.356    20583594.772
  -7094682.67049  -5467242.94945  24221658.336    24221659.004    24221661.848
 -26420944.57249 -20567311.50347  21109438.724    21109439.059    21109440.701
   -540623.55149   -382467.61944  24243175.622    24243176.188    24243179.947
 -19517964.66249 -15176894.62547  20802141.492    20802141.897    20802144.385
 -13295039.12649 -10337854.49146  22797370.998    22797370.249    22797372.407
  -5736105.13749  -4432956.14845  24107452.456    24107453.367    24107455.709
  -7674624.53149  -5960047.57646  22797275.826    22797275.724    22797279.361
  -1645778.72849  -1244389.22543
 08  8  8  3  8 30.0000000  0  9G14G12G31G20G30G22G29G32G16
 -20966519.97549 -15907522.65247  20587000.563    20587000.306    20587002.432
  -6996437.17849  -5390688.04945  24240353.962    24240354.812    24240357.003
 -26454264.84349 -20593275.33847  21103098.006    21103098.239    21103100.238
   -625121.65749   -448310.30545  24227096.347    24227096.430    24227099.513
 -19475865.95449 -15144090.43147  20810152.571    20810153.191    20810155.137
 -13193580.89549 -10258796.14146  22816677.742    22816676.943    22816679.926
  -5805739.79449  -4487216.86845  24094201.413    24094201.581    24094205.575
  -7734789.71649  -6006929.53446  22785826.846    22785826.411    22785831.109
  -1760540.88049  -1333791.33543
 08  8  8  3  9  0.0000000  0  8G14G12G31G20G30G22G29G32
 -20948225.88549 -15893267.51447  20590481.789    20590481.706    20590483.876
  -6897982.63749  -5313970.27845  24259089.382    24259089.922    24259093.287
 -26487317.68849 -20619030.79147  21096808.249    21096808.833    21096810.427
   -709265.76249   -513877.12245  24211084.232    24211084.065    24211087.442
 -19433200.92749 -15110844.95847  20818271.452    20818271.900    20818274.105
 -13091917.03049 -10179577.57546  22836023.709    22836023.630    22836025.513
  -5875143.40949  -4541297.54645  24080994.191    24080993.715    24080998.146
  -7794535.82749  -6053484.92846  22774457.497    22774457.591    22774461.125
 08  8  8  3  9 30.0000000  0  8G14G12G31G20G30G22G29G32
 -20929546.78449 -15878712.37447  20594036.305    20594036.225    20594038.407
  -6799321.88649  -5237091.81445  24277864.003    24277864.034    24277866.327
 -26520103.99949 -20644578.54847  21090569.234    21090569.433    21090571.283
   -793054.45949   -579167.00145  24195139.853    24195139.274    24195143.021
 -19389971.81549 -15077159.93747  20826497.669    20826497.935    20826500.342
 -12990050.94649 -10100201.41546  22855408.173    22855408.780    22855409.855
  -5944313.52649  -4595196.32745  24067831.512    24067832.047    24067834.860
  -7853861.35249  -6099712.61346  22763168.234    22763167.887    22763171.897
 08  8  8  3 10  0.0000000  0  9G14G12G31G20G30G22G29G32G16
 -20910481.40449 -15863856.24247  20597664.347    20597664.164    20597666.736
  -6700456.76349  -5160054.11445  24296677.489    24296678.260    24296679.316
 -26552623.51349 -20669918.42247  21084380.974    21084381.416    21084382.944
   -876484.39249   -644177.32845  24179263.724    24179263.884    24179266.504
 -19346179.88949 -15043036.36147  20834831.031    20834831.536    20834833.863
 -12887984.31349 -10020668.98346  22874830.757    22874832.003    22874832.534
  -6013246.01149  -4648909.92945  24054714.131    24054714.658    24054717.565
  -7912763.73749  -6145610.55546  22751959.520    22751959.306    22751962.947
  -2104211.73949  -1108769.95743
 08  8  8  3 10 30.0000000  0  9G14G12G31G20G30G22G29G32G16
 -20891028.77449 -15848698.36047  20601366.066    20601365.761    20601368.386
  -6601390.08149  -5082859.31445  24315529.280    24315529.089    24315531.117
 -26584876.41349 -20695050.54647  21078243.460    21078244.035    21078245.539
   -959552.86849   -708905.99045  24163456.357    24163456.157    24163459.008
 -19301826.93949 -15008475.62147  20843271.094    20843271.413    20843273.910
 -12785719.72449  -9940982.29746  22894291.049    22894292.161    22894292.240
  -6081938.18149  -4702436.25845  24041642.247    24041642.447    24041646.514
  -7971240.96749  -6191177.22546  22740831.674    22740830.890    22740834.907
  -2218554.66049  -1197868.47144                                  24112207.431
 08  8  8  3 11  0.0000000  0  9G14G12G31G20G30G22G29G32G16
 -20871188.30249 -15833238.25447  20605141.578    20605141.377    20605143.838
  -6502124.33649  -5005509.43245  24334418.882    24334418.503    24334421.676
 -26616862.94149 -20719975.10347  21072156.637    21072157.289    21072158.819
  -1042257.36749   -773351.03145  24147718.020    24147717.353    24147721.788
 -19256914.80549 -14973479.15147  20851817.570    20851818.107    20851820.436
 -12683259.88049  -9861143.45946  22913788.452    22913788.864    22913790.384
  -6150386.88549  -4755772.86545  24028616.864    24028617.814    24028619.249
  -8029290.78249  -6236410.83946  22729785.120    22729784.707    22729788.465
  -2332786.52149  -1286880.27645  24090469.905    24090468.416    24090472.211
 08  8  8  3 11 30.0000000  0  9G14G12G31G20G30G22G29G32G16
 -20850957.91649 -15817474.32947  20608991.323    20608991.102    20608993.167
  -6402660.16049  -4928004.90845  24353346.168    24353346.769    24353348.940
 -26648581.87049 -20744691.14047  21066120.692    21066121.328    21066122.673
  -1124593.84649   -837509.32045  24132049.849    24132049.870    24132052.925
 -19211444.15849 -14938047.48347  20860470.393    20860470.717    20860473.408
 -12580606.11249  -9781153.51746  22933322.823    22933322.741    22933324.111
  -6218587.72749  -4808916.37945  24015638.671    24015639.079    24015641.799
  -8086909.95749  -6281308.88746  22718820.514    22718820.338    22718824.177
  -2446903.43449  -1375802.53045  24068754.001    24068750.821    24068756.277
 08  8  8  3 12  0.0000000  0  9G14G12G31G20G30G22G29G32G16
 -20830338.34949 -15801407.13847  20612915.110    20612915.116    20612917.130
  -6303001.83649  -4850349.11445  24372310.491    24372310.411    24372312.865
 -26680035.27749 -20769200.27947  21060135.295    21060135.881    21060137.594
  -1206561.29549   -901380.05145  24116451.987    24116451.428    24116454.870
 -19165418.38549 -14902183.24847  20869228.748    20869229.453    20869232.094
 -12477762.34749  -9701015.52646  22952893.493    22952893.672    22952894.250
  -6286539.21349  -4861865.56745  24002707.815    24002708.371    24002712.208
  -8144098.03249  -6325871.01646  22707937.939    22707937.872    22707941.026
  -2560904.33249  -1464634.38845  24047060.121    24047059.667    24047062.542
 08  8  8  3 12 30.0000000  0  9G14G12G31G20G30G22G29G32G16
 -20809329.23049 -15785036.41447  20616912.970    20616912.698    20616915.073
  -6203152.06649  -4772544.13845  24391311.368    24391311.886    24391314.808
 -26711223.38849 -20793502.69447  21054200.363    21054201.040    21054202.488
  -1288157.25249   -964961.29445  24100924.830    24100924.817    24100928.302
 -19118839.23549 -14865887.80947  20878092.515    20878093.177    20878095.504
 -12374731.71249  -9620731.93446  22972499.655    22972499.559    22972500.589
  -6354238.52949  -4914618.21345  23989825.164    23989825.779    23989828.398
  -8200853.24949  -6370095.84946  22697137.761    22697137.339    22697141.852
  -2674787.02749  -1553374.12545  24025388.893    24025389.139    24025390.829
 08  8  8  3 13  0.0000000  0  9G14G12G31G20G30G22G29G32G16
 -20787930.29449 -15768361.93847  20620985.081    20620985.169    20620987.299
  -6103114.05849  -4694592.48645  24410347.954    24410349.577    24410350.853
 -26742147.43349 -20817599.34347  21048315.756    21048316.174    21048317.713
  -1369380.00749  -1028251.74245  24085468.728    24085467.668    24085472.249
 -19071709.71549 -14829163.51547  20887060.976    20887061.408    20887063.756
 -12271517.65649  -9540305.41646  22992140.570    22992140.312    22992142.367
  -6421683.07549  -4967172.38945  23976990.975    23976990.975    23976994.398
  -8257174.46849  -6413982.50346  22686420.184    22686420.238    22686423.918
  -2788549.79749  -1642020.43745  24003740.697    24003740.586    24003743.384
 08  8  8  3 13 30.0000000  0  9G14G12G31G20G30G22G29G32G16
 -20766140.19549 -15751382.66247  20625131.616    20625131.748    20625133.697
  -6002889.74449  -4616495.68245  24429419.992    24429419.885    24429422.987
 -26772807.04749 -20841489.93947  21042481.411    21042481.703    21042483.667
  -1450226.29549  -1091248.82245  24070084.229    24070084.237    24070087.556
 -19024030.70949 -14792011.04147  20896133.952    20896134.387    20896136.872
 -12168121.77949  -9459737.22446  23011816.213    23011816.411    23011818.655
  -6488869.38249  -5019525.32045  23964205.856    23964206.325    23964209.513
  -8313058.93649  -6457528.84546  22675785.720    22675786.000    22675788.809
  -2902189.42449  -1730570.80745  23982115.752    23982114.907    23982116.914
 08  8  8  3 14  0.0000000  0  9G14G12G31G20G30G22G29G32G16
 -20743959.15449 -15734098.74547  20629352.524    20629352.466    20629354.774
  -5902482.16849  -4538256.02845  24448526.939    24448527.307    24448529.980
 -26803203.01549 -20865175.09947  21036697.240    21036697.687    21036699.364
  -1530694.06949  -1153950.97845  24054771.640    24054770.989    24054774.996
 -18975805.11649 -14754432.66047  20905311.000    20905311.484    20905314.078
 -12064547.32049  -9379029.84946  23031525.865    23031525.876    23031527.151
  -6555795.15549  -5071675.22845  23951470.370    23951470.722    23951473.537
  -8368505.34349  -6500733.84146  22665234.652    22665233.785    22665238.111
  -3015704.24149  -1819023.89445  23960514.489    23960513.901    23960517.495
 08  8  8  3 14 30.0000000  0  9G14G12G31G20G30G22G29G32G16
 -20721385.86549 -15716509.17747  20633648.115    20633648.253    20633650.298
  -5801893.02549  -4459874.92545  24467668.399    24467669.055    24467671.808
 -26833335.30049 -20888654.78247  21030963.265    21030963.467    21030965.294
  -1610780.50549  -1216355.96945  24039531.609    24039531.609    24039535.225
 -18927034.43149 -14716429.52547  20914591.781    20914592.219    20914594.247
 -11960796.90549  -9298185.38546  23051268.910    23051267.959    23051269.913
  -6622456.61549  -5123619.17645  23938785.044    23938785.604    23938789.370
  -8423511.34449  -6543595.65346  22654767.390    22654766.801    22654770.439
  -3129091.22449  -1907377.38045  23938937.674    23938937.149    23938941.237
 08  8  8  3 15  0.0000000  0  9G14G12G31G20G30G22G29G32G16
 -20698419.76549 -15698613.52247  20638018.445    20638018.357    20638020.618
  -5701125.20949  -4381354.59445  24486843.903    24486844.590    24486846.531
 -26863204.27649 -20911929.29147  21025279.369    21025280.002    21025281.530
  -1690483.15449  -1278461.90645  24024364.692    24024364.539    24024367.170
 -18877720.60249 -14678003.16547  20923975.904    20923976.443    20923978.650
 -11856873.53649  -9217206.15246  23071044.833    23071044.248    23071045.839
  -6688851.11249  -5175355.08345  23926150.426    23926151.300    23926152.932
  -8478075.09249  -6586112.84646  22644384.190    22644383.639    22644387.061
  -3242348.02949  -1995629.41845  23917385.572    23917385.309    23917388.546
 08  8  8  3 15 30.0000000  0  9G14G12G31G20G30G22G29G32G16
 -20675060.08149 -15680411.18947  20642463.684    20642463.800    20642465.893
  -5600181.48849  -4302697.18145  24506052.941    24506054.182    24506055.468
 -26892810.62149 -20934999.15147  21019645.476    21019646.212    21019647.532
  -1769799.85549  -1340267.10845  24009271.228    24009270.408    24009274.166
 -18827865.98649 -14639155.40947  20933462.910    20933463.315    20933465.854
 -11752779.90349  -9136094.23845  23090853.101    23090852.855    23090854.352
  -6754975.76849  -5226880.76145  23913567.278    23913568.141    23913570.231
  -8532195.06049  -6628284.26246  22634085.458    22634085.349    22634089.257
  -3355472.49049  -2083778.35645  23895858.735    23895858.232    23895860.884
 08  8  8  3 16  0.0000000  0  9G14G12G31G20G30G22G29G32G16
 -20651307.38349 -15661902.60947  20646983.719    20646983.681    20646985.881
  -5499064.96949  -4223905.13645  24525294.912    24525295.821    24525298.091
 -26922155.43849 -20957865.22547  21014061.386    21014061.678    21014063.396
  -1848728.65649  -1401770.04345  23994251.537    23994250.476    23994256.078
 -18777473.49949 -14599888.53947  20943052.301    20943052.716    20943054.973
 -11648518.81349  -9054851.86246  23110693.406    23110693.900    23110694.711
  -6820828.66749  -5278194.67145  23901035.935    23901035.797    23901039.407
  -8585870.09349  -6670108.94846  22623871.508    22623870.700    22623875.223
  -3468462.91349  -2171822.85445  23874357.328    23874357.236    23874359.931
 08  8  8  3 16 30.0000000  0  9G14G12G31G20G30G22G29G32G16
 -20627161.58149 -15643087.71247  20651578.516    20651578.360    20651580.761
  -5397778.58649  -4144980.71745  24544569.083    24544569.448    24544571.932
 -26951239.21349 -20980527.88747  21008526.868    21008527.419    21008528.739
  -1927267.62049  -1462969.21545  23979306.059    23979305.312    23979309.449
 -18726545.54749 -14560204.41747  20952743.561    20952744.017    20952746.250
 -11544093.92049  -8973481.80545  23130564.945    23130564.803    23130565.503
  -6886407.02149  -5329294.64845  23888556.632    23888557.206    23888560.170
  -8639098.61749  -6711585.71846  22613742.426    22613741.912    22613746.096
  -3581317.33049  -2259761.37845  23852881.920    23852882.563    23852885.475
 08  8  8  3 17  0.0000000  0  9G14G12G31G20G30G22G29G32G16
 -20602620.86049 -15623965.08147  20656248.464    20656248.377    20656250.785
  -5296323.31849  -4065924.70645  24563875.446    24563875.093    24563878.112
 -26980061.47249 -21002986.76447  21003042.181    21003042.476    21003044.183
  -2005413.07149  -1523861.74045  23964435.496    23964435.367    23964438.520
 -18675083.36049 -14520104.00947  20962536.469    20962536.708    20962539.358
 -11439506.59349  -8891985.20145  23150467.278    23150467.515    23150468.562
  -6951706.72649  -5380177.48245  23876130.511    23876131.228    23876133.646
  -8691877.95649  -6752712.47046  22603698.806    22603698.655    22603702.409
  -3694032.36949  -2347591.28945  23831432.951    23831432.293    23831435.230
 08  8  8  3 17 30.0000000  0  9G14G12G31G20G30G22G29G32G16
 -20577684.16849 -15604533.89747  20660993.733    20660993.582    20660995.846
  -5194702.06649  -3986739.35745  24583213.280    24583213.655    24583216.713
 -27008621.86549 -21025241.60047  20997607.268    20997607.629    20997609.405
  -2083162.23049  -1584445.48545  23949640.366    23949640.429    23949644.352
 -18623088.35949 -14479588.41847  20972430.760    20972431.178    20972433.661
 -11334759.29049  -8810363.95245  23170400.057    23170400.506    23170402.158
  -7016724.21049  -5430840.43445  23863758.137    23863758.134    23863761.319
  -8744205.67349  -6793487.30546  22593741.123    22593741.558    22593744.141
  -3806604.90549  -2435310.15445  23810010.976    23810010.623    23810013.726
 08  8  8  3 18  0.0000000  0  9G14G12G31G20G30G22G29G32G16
 -20552351.51049 -15584794.16647  20665814.399    20665814.125    20665816.684
  -5092917.45449  -3907426.73145  24602582.312    24602583.426    24602585.558
 -27036921.38949 -21047293.15647  20992221.995    20992222.247    20992224.174
  -2160513.25749  -1644718.98745  23934920.887    23934920.679    23934924.150
 -18570563.29349 -14438659.79347  20982425.944    20982426.199    20982428.921
 -11229855.08149  -8728620.43745  23190362.647    23190362.546    23190363.877
  -7081457.40949  -5481281.84645  23851439.680    23851439.752    23851443.152
  -8796080.72449  -6833909.42346  22583869.631    22583869.662    22583873.473
  -3919033.18149  -2522916.60045  23788616.562    23788615.904    23788619.033
 08  8  8  3 18 30.0000000  0  9G14G12G31G20G30G22G29G32G16
 -20526622.40549 -15564745.52147  20670710.470    20670710.605    20670712.676
  -4990972.05049  -3827988.80645  24621982.006    24621982.756    24621984.697
 -27064960.80849 -21069142.03447  20986886.252    20986886.571    20986888.544
  -2237463.90449  -1704680.52545  23920277.639    23920277.287    23920280.286
 -18517510.58949 -14397320.02447  20992521.499    20992522.069    20992524.266
 -11124797.18249  -8646757.17145  23210354.457    23210354.986    23210355.986
  -7145903.43549  -5531499.51145  23839176.063    23839176.532    23839179.921
  -8847501.32849  -6873977.41846  22574084.717    22574085.096    22574087.667
  -4031315.01249  -2610408.91445  23767249.975    23767249.575    23767252.880
 08  8  8  3 19  0.0000000  0  9G14G12G31G20G30G22G29G32G16
 -20500495.94149 -15544387.24147  20675682.172    20675682.063    20675684.574
  -4888867.83849  -3748427.10645  24641411.943    24641412.425    24641415.392
 -27092739.89149 -21090788.06047  20981600.016    20981600.390    20981602.279
  -2314011.14249  -1764327.72645  23905711.129    23905711.390    23905713.646
 -18463931.70849 -14355570.24847  21002717.177    21002717.621    21002719.867
 -11019587.49249  -8564775.62645  23230375.175    23230375.246    23230377.399
  -7210058.85649  -5581490.70245  23826967.812    23826967.813    23826971.098
  -8898465.26949  -6913689.57646  22564386.661    22564386.061    22564390.285
  -4143447.32649  -2697784.72645  23745911.804    23745911.787    23745914.651
 08  8  8  3 19 30.0000000  0  9G14G12G31G20G30G22G29G32G16
 -20473972.78949 -15523719.86547  20680729.378    20680729.219    20680731.648
  -4786608.56649  -3668744.62145  24660871.380    24660871.654    24660874.928
 -27120260.28649 -21112232.50347  20976363.022    20976363.256    20976365.143
  -2390154.08149  -1823659.88245  23891221.656    23891219.633    23891225.862
 -18409830.30849 -14313413.31347  21013012.356    21013012.674    21013015.516
 -10914230.16049  -8482679.02545  23250424.118    23250424.496    23250425.172
  -7273922.12349  -5631254.25345  23814814.915    23814814.947    23814817.638
  -8948972.23749  -6953045.65746  22554775.503    22554775.374    22554779.022
  -4255429.14349  -2785043.27245  23724602.341    23724602.360    23724605.379
 08  8  8  3 20  0.0000000  0  9G14G12G31G20G30G22G29G32G16
 -20447051.30249 -15502742.08747  20685852.398    20685852.222    20685854.320
  -4684195.22049  -3588942.07045  24680360.023    24680361.221    24680363.356
 -27147521.01649 -21133474.61947  20971175.460    20971176.037    20971177.623
  -2465888.56349  -1882673.77045  23876809.894    23876809.059    23876812.659
 -18355207.14149 -14270849.80547  21023406.833    21023407.498    21023409.638
 -10808726.40349  -8400468.33645  23270500.868    23270501.207    23270502.204
  -7337489.03849  -5680786.88845  23802718.504    23802718.861    23802721.731
  -8999018.88449  -6992043.03246  22545251.960    22545251.177    22545256.232
  -4367256.98549  -2872181.81545  23703322.265    23703321.832    23703325.573
 08  8  8  3 20 30.0000000  0  9G14G12G31G20G30G22G29G32G16
 -20419731.56349 -15481453.98647  20691051.137    20691050.774    20691053.251
  -4581631.69149  -3509022.46345  24699877.298    24699877.770    24699880.721
 -27174523.65349 -21154515.62147  20966037.035    20966037.294    20966039.407
  -2541213.58949  -1941368.60445  23862476.032    23862475.052    23862479.618
 -18300065.56049 -14227882.33347  21033899.958    21033900.174    21033902.912
 -10703080.31449  -8318146.73845  23290604.690    23290605.439    23290606.169
  -7400757.83649  -5730087.22345  23790678.806    23790679.555    23790682.320
  -9048604.82649  -7030681.42346  22535816.070    22535815.809    22535819.408
  -4478929.56949  -2959199.37145  23682071.708    23682071.103    23682074.663
 08  8  8  3 21  0.0000000  0  9G14G12G31G20G30G22G29G32G16
 -20392012.31849 -15459854.59347  20696325.942    20696325.652    20696327.866
  -4478919.13749  -3428986.76145  24719422.760    24719422.830    24719426.380
 -27201267.16249 -21175354.71347  20960947.944    20960948.407    20960949.996
  -2616125.83149  -1999741.78945  23848220.592    23848219.681    23848223.964
 -18244406.58949 -14184511.70647  21044491.490    21044491.961    21044493.952
 -10597293.39749  -8235715.39645  23310735.379    23310735.993    23310736.514
  -7463724.19249  -5779151.89445  23778696.688    23778696.791    23778699.748
  -9097727.06449  -7068958.48546  22526468.452    22526468.161    22526472.228
  -4590443.04649  -3046092.93745  23660851.371    23660851.194    23660854.016
 08  8  8  3 21 30.0000000  0  9G14G12G31G20G30G22G29G32G16
 -20363894.16949 -15437944.34847  20701676.625    20701676.558    20701678.773
  -4376061.26749  -3348837.83745  24738995.794    24738996.969    24738999.047
 -27227753.20049 -21195993.16647  20955907.822    20955908.177    20955909.861
  -2690623.55549  -2057791.94545  23834044.186    23834043.785    23834047.128
 -18188233.68549 -14140740.60647  21055180.823    21055181.391    21055183.472
 -10491369.24149  -8153177.11145  23330892.153    23330892.749    23330893.032
  -7526386.78449  -5827979.84645  23766772.282    23766771.526    23766775.410
  -9146385.15649  -7106873.87346  22517209.134    22517209.130    22517212.457
  -4701795.96349  -3132861.40745  23639661.735    23639661.413    23639664.586
 08  8  8  3 22  0.0000000  0  9G14G12G31G20G30G22G29G32G16
 -20335375.87049 -15415722.31547  20707103.451    20707103.101    20707105.702
  -4273059.57449  -3268576.82245  24758596.516    24758597.340    24758598.860
 -27253981.14249 -21216430.50247  20950916.822    20950917.292    20950918.900
  -2764703.68949  -2115516.73245  23819947.305    23819947.154    23819950.817
 -18131548.13649 -14096570.04247  21065967.734    21065968.134    21065970.734
 -10385309.85749  -8070533.44145  23351074.635    23351074.927    23351076.051
  -7588741.73549  -5876568.12245  23754906.502    23754907.180    23754910.735
  -9194576.44849  -7144425.53846  22508038.663    22508038.569    22508041.984
  -4812985.48449  -3219502.54245  23618503.138    23618503.470    23618505.126
 08  8  8  3 22 30.0000000  0  9G14G12G31G20G30G22G29G32G16
 -20306458.12549 -15393189.01647  20712606.274    20712606.061    20712608.404
  -4169917.54549  -3188206.45945  24778223.837    24778222.893    24778227.267
 -27279952.65049 -21236668.02347  20945974.612    20945974.943    20945976.524
  -2838365.40349  -2172915.46345  23805930.102    23805929.788    23805933.301
 -18074353.41249 -14052002.72747  21076851.565    21076851.949    21076854.642
 -10279118.95549  -7987787.30645  23371282.202    23371282.318    23371283.859
  -7650787.19949  -5924915.21445  23743099.710    23743099.734    23743103.602
  -9242300.65349  -7181613.23146  22498957.006    22498956.776    22498960.406
  -4924010.53749  -3306015.51445  23597375.850    23597375.687    23597378.082
 08  8  8  3 23  0.0000000  0  9G14G12G31G20G30G22G29G32G16
 -20277139.93649 -15370343.68747  20718185.370    20718185.169    20718187.675
  -4066637.32849  -3107728.40645  24797877.501    24797877.856    24797880.769
 -27305667.80649 -21256705.79847  20941081.139    20941081.611    20941083.324
  -2911605.87049  -2229985.92645  23791992.787    23791991.927    23791995.741
 -18016651.25249 -14007039.99947  21087831.935    21087832.118    21087834.805
 -10172798.92249  -7904940.56345  23391514.231    23391513.152    23391515.327
  -7712519.82749  -5973018.54945  23731352.450    23731352.756    23731356.136
  -9289555.55649  -7218435.22146  22489964.758    22489964.382    22489968.709
  -5034868.16349  -3392398.04945  23576280.393    23576279.621    23576282.785
 08  8  8  3 23 30.0000000  0  9G14G12G31G20G30G22G29G32G16
 -20247419.87149 -15347185.20247  20723840.911    20723840.963    20723843.273
  -3963220.28349  -3027143.77645  24817557.166    24817558.422    24817560.244
 -27331125.78149 -21276543.16247  20936236.624    20936236.905    20936238.734
  -2984421.53449  -2286725.41045  23778136.364    23778135.639    23778139.599
 -17958443.34349 -13961683.18947  21098908.438    21098908.639    21098911.195
 -10066351.56049  -7821994.58445  23411770.545    23411770.608    23411771.479
  -7773935.82549  -6020875.16945  23719665.369    23719665.377    23719669.123
  -9336338.61449  -7254889.55046  22481062.207    22481061.115    22481065.764
  -5145555.10749  -3478647.56745  23555217.211    23555216.443    23555219.800
 08  8  8  3 24  0.0000000  0  9G14G12G31G20G30G22G29G32G16
 -20217298.36749 -15323713.91047  20729572.883    20729572.905    20729575.330
  -3859669.56849  -2946454.94145  24837262.505    24837263.570    24837266.496
 -27356327.95049 -21296181.19747  20931440.771    20931441.245    20931442.906
  -3056811.03349  -2343132.79845  23764361.054    23764360.895    23764364.789
 -17899732.62749 -13915934.57747  21110080.702    21110081.425    21110083.519
  -9959780.23549  -7738952.03245  23432050.336    23432050.939    23432051.680
  -7835033.47649  -6068483.71145  23708038.681    23708038.826    23708042.125
  -9382648.95149  -7290975.52046  22472249.595    22472249.735    22472253.022
  -5256069.58249  -3564762.70045  23534186.939    23534186.782    23534189.349
 08  8  8  3 24 30.0000000  0  9G14G12G31G20G30G22G29G32G16
 -20186774.99049 -15299929.46247  20735381.308    20735381.354    20735383.512
  -3755987.65049  -2865663.88245  24856992.751    24856993.571    24856995.823
 -27381274.67149 -21315620.17747  20926693.575    20926694.151    20926695.739
  -3128772.01649  -2399206.28045  23750667.285    23750665.536    23750670.644
 -17840521.25049 -13869795.84547  21121348.230    21121348.705    21121350.934
  -9853087.61749  -7655814.94145  23452353.263    23452352.524    23452355.092
  -7895809.92249  -6115841.97745  23696473.261    23696472.773    23696476.638
  -9428485.01349  -7326691.92246  22463527.294    22463527.274    22463531.089
  -5366409.23049  -3650741.60245  23513189.926    23513189.528    23513192.553
 08  8  8  3 25  0.0000000  0  9G14G12G31G20G30G22G29G32G16
 -20155850.73349 -15275832.63847  20741266.009    20741265.860    20741268.136
  -3652178.72649  -2784773.87045  24876746.960    24876747.436    24876749.183
 -27405967.53149 -21334861.33547  20921994.647    20921994.994    20921996.707
  -3200303.59849  -2454945.14645  23737055.105    23737054.149    23737058.227
 -17780813.22349 -13823270.10947  21132710.322    21132710.899    21132713.338
  -9746278.28249  -7572586.93545  23472678.242    23472678.333    23472680.351
  -7956263.34049  -6162948.51045  23684969.402    23684969.976    23684973.067
  -9473846.60949  -7362038.62546  22454895.253    22454895.050    22454898.385
  -5476573.24549  -3736583.65245  23492226.467    23492226.990    23492229.166
 08  8  8  3 25 30.0000000  0  9G14G12G31G20G30G22G29G32G16
 -20124521.09549 -15251419.94447  20747227.888    20747227.893    20747230.091
  -3548240.87849  -2703783.39845  24896525.769    24896525.644    24896527.877
 -27430403.15349 -21353902.05447  20917344.699    20917345.273    20917346.938
  -3271399.66149  -2510344.65445  23723526.008    23723525.205    23723529.029
 -17720606.72849 -13776355.95547  21144167.242    21144167.767    21144169.747
  -9639350.76849  -7489266.81845  23493025.795    23493025.967    23493027.724
  -8016387.22549  -6209798.28145  23673528.207    23673528.038    23673531.958
  -9518728.27449  -7397011.34546  22446354.668    22446354.742    22446357.994
  -5586555.33949  -3822283.94945  23471297.547    23471296.380    23471299.602
 08  8  8  3 26  0.0000000  0  9G14G12G31G20G30G22G29G32G16
 -20092787.60649 -15226692.54447  20753266.615    20753266.433    20753268.818
  -3444178.28049  -2622695.71445  24916328.204    24916327.565    24916330.149
 -27454583.66449 -21372743.98847  20912743.284    20912743.879    20912745.111
  -3342059.38249  -2565404.16445  23710079.928    23710080.233    23710083.730
 -17659905.88049 -13729056.59547  21155718.238    21155718.891    21155721.133
  -9532309.41649  -7405857.98645  23513395.030    23513395.545    23513396.794
  -8076180.33749  -6256390.28545  23662149.940    23662149.865    23662152.298
  -9563130.13249  -7431610.18346  22437905.319    22437904.912    22437908.697
  -5696354.77849  -3907841.94645  23450403.379    23450403.274    23450406.078
 08  8  8  3 26 30.0000000  0  9G14G12G31G20G30G22G29G32G16
 -20060651.74849 -15201651.62047  20759381.880    20759381.719    20759383.790
  -3339995.15649  -2541514.11745  24936153.565    24936153.920    24936154.862
 -27478511.07949 -21391388.69247  20908190.085    20908190.661    20908191.908
  -3412282.52549  -2620123.47945  23696716.827    23696716.355    23696719.919
 -17598714.94149 -13681375.34047  21167362.519    21167363.099    21167365.310
  -9425158.63749  -7322363.90245  23533785.120    23533784.940    23533786.647
  -8135641.67349  -6302723.77345  23650834.821    23650835.787    23650838.356
  -9607052.35349  -7465835.29446  22429547.186    22429546.908    22429550.563
  -5805970.65849  -3993256.92745  23429544.076    23429544.194    23429545.802
 08  8  8  3 27  0.0000000  0  9G14G12G31G20G30G22G29G32G16
 -20028112.01649 -15176295.98747  20765573.959    20765574.082    20765576.002
  -3235692.57349  -2460239.43545  24956001.652    24956002.519    24956004.566
 -27502184.69549 -21409835.64247  20903685.165    20903685.769    20903687.098
  -3482066.06249  -2674500.24245  23683437.404    23683437.018    23683440.967
 -17537035.29449 -13633313.28647  21179099.802    21179100.334    21179102.448
  -9317900.30949  -7238786.02245  23554195.589    23554195.620    23554197.693
  -8194767.53449  -6348795.85045  23639583.621    23639584.456    23639586.988
  -9650492.50549  -7499684.76946  22421280.808    22421280.341    22421284.594
  -5915400.47149  -4078526.89645  23408720.357    23408720.430    23408722.898
 08  8  8  3 27 30.0000000  0  9G14G12G31G20G30G22G29G32G16
 -19995168.68649 -15150625.86347  20771842.887    20771842.653    20771845.031
  -3131273.69549  -2378874.14445  24975872.071    24975873.003    24975874.723
 -27525605.30949 -21428085.45647  20899228.359    20899228.905    20899230.442
  -3551407.33749  -2728532.39245  23670242.187    23670242.012    23670245.206
 -17474869.18749 -13584872.16147  21190929.550    21190930.084    21190932.344
  -9210537.16349  -7155126.46245  23574626.125    23574626.536    23574627.791
  -8253555.48849  -6394604.62645  23628396.631    23628396.292    23628400.162
  -9693449.20149  -7533157.51646  22413106.418    22413106.289    22413109.390
  -6024641.57649  -4163649.82045  23387932.480    23387931.862    23387934.716
 08  8  8  3 28  0.0000000  0  9G14G12G31G20G30G22G29G32G16
 -19961821.07349 -15124640.71747  20778188.760    20778188.899    20778191.171
  -3026740.95049  -2297420.10545  24995764.075    24995764.592    24995766.699
 -27548773.73649 -21446138.76447  20894819.558    20894819.887    20894821.250
  -3620305.07349  -2782218.92345  23657131.374    23657130.260    23657134.451
 -17412220.05649 -13536054.66947  21202851.272    21202851.721    21202854.039
  -9103072.77349  -7071388.00745  23595076.013    23595077.238    23595078.021
  -8312003.21249  -6440148.26845  23617274.329    23617274.621    23617277.765
  -9735921.61949  -7566252.90246  22405024.157    22405023.855    22405027.285
  -6133692.19849  -4248624.32945  23367180.797    23367180.378    23367184.545
 08  8  8  3 28 30.0000000  0  9G14G12G31G20G30G22G29G32G16
 -19928068.74749 -15098340.20847  20784611.587    20784611.443    20784613.641
  -2922096.52949  -2215879.04345  25015677.202    25015677.407    25015680.246
 -27571690.16149 -21463995.68847  20890458.665    20890459.136    20890460.533
  -3688756.76249  -2835557.88645  23644105.405    23644105.177    23644108.479
 -17349089.55049 -13486862.06247  21214864.618    21214865.154    21214867.386
  -8995509.17249  -6987572.23445  23615544.904    23615544.669    23615546.919
  -8370107.32049  -6485424.18945  23606217.533    23606217.945    23606221.035
  -9777907.90149  -7598969.48146  22397034.375    22397033.846    22397037.878
  -6242549.49649  -4333448.18345  23346465.831    23346465.558    23346468.058
 08  8  8  3 29  0.0000000  0  9G14G12G31G20G30G22G29G32G16
 -19893911.32849 -15071724.03547  20791111.506    20791111.183    20791113.639
  -2817342.26649  -2134252.41145  25035611.177    25035611.087    25035613.641
 -27594354.47949 -21481656.17647  20886145.791    20886145.872    20886147.617
  -3756759.73149  -2888547.19845  23631164.782    23631164.755    23631168.213
 -17285479.72649 -13437295.97947  21226969.142    21226969.485    21226972.089
  -8887848.62149  -6903680.91445  23636032.125    23636032.125    23636033.338
  -8427865.09449  -6530430.20545  23595226.621    23595226.654    23595229.921
  -9819406.08949  -7631305.72346  22389137.501    22389137.972    22389140.262
  -6351211.15249  -4418119.57945  23325788.226    23325788.033    23325790.455
 08  8  8  3 29 30.0000000  0  9G14G12G31G20G30G22G29G32G16
 -19859349.15249 -15044792.47547  20797688.471    20797688.510    20797690.941
  -2712481.08449  -2052542.45545  25055565.476    25055566.083    25055567.345
 -27616767.05849 -21499120.50247  20881880.750    20881881.115    20881882.525
  -3824312.08449  -2941185.36745  23618310.003    23618309.295    23618312.984
 -17221393.34849 -13387358.54647  21239164.381    21239165.072    21239167.104
  -8780094.23649  -6819716.47445  23656537.113    23656536.491    23656538.676
  -8485273.78149  -6575164.21845  23584302.025    23584302.457    23584304.819
  -9860415.21449  -7663260.87846  22381333.767    22381334.135    22381337.012
  -6459675.03949  -4502636.88945  23305148.208    23305147.712    23305151.139
 08  8  8  3 30  0.0000000  0  9G14G12G31G20G30G22G29G32G16
 -19824381.13949 -15017544.67447  20804342.660    20804342.433    20804344.896
  -2607514.91349  -1970750.68145  25075540.014    25075539.695    25075543.022
 -27638928.32749 -21516388.99747  20877663.597    20877664.024    20877665.589
  -3891411.26249  -2993470.44845  23605541.486    23605541.344    23605544.226
 -17156832.79349 -13337051.62447  21251449.836    21251449.967    21251452.879
  -8672248.54749  -6735680.88745  23677059.489    23677058.543    23677061.159
  -8542330.57349  -6619624.03845  23573444.485    23573444.724    23573447.438
  -9900933.57649  -7694833.62746  22373623.456    22373623.952    22373626.603
  -6567938.36049  -4586997.89845  23284546.264    23284545.285    23284548.818
 08  8  8  3 30 30.0000000  0  9G14G12G31G20G30G22G29G32G16
 -19789007.58149 -14989980.86547  20811074.019    20811073.853    20811076.306
  -2502446.74549  -1888879.43745  25095533.842    25095534.593    25095535.936
 -27660839.54649 -21533462.66047  20873493.978    20873494.241    20873495.933
  -3958055.90849  -3045401.31645  23592859.566    23592858.504    23592862.488
 -17091801.18949 -13286377.64647  21263824.965    21263825.220    21263827.871
  -8564314.74049  -6651576.65745  23697598.482    23697598.464    23697600.299
  -8599033.24449  -6663807.89845  23562654.355    23562655.343    23562657.622
  -9940960.29949  -7726023.27946  22366006.741    22366006.556    22366010.197
  -6675999.53549  -4671201.39445  23263982.739    23263981.231    23263985.810
 08  8  8  3 31  0.0000000  0  9G14G12G31G20G30G22G29G32G16
 -19753228.00549 -14962100.68047  20817882.604    20817882.590    20817885.207
  -2397278.45049  -1806930.16345  25115546.678    25115545.530    25115550.040
 -27682500.41849 -21550341.25447  20869372.018    20869372.244    20869374.080
  -4024243.32949  -3096975.92645  23580264.614    23580263.533    23580267.440
 -17026300.66749 -13235338.27647  21276289.323    21276289.781    21276292.147
  -8456295.22149  -6567405.62545  23718153.899    23718154.214    23718155.651
  -8655378.76249  -6707713.47345  23551932.141    23551932.726    23551935.435
  -9980493.59449  -7756828.45046  22358483.837    22358483.624    22358486.607
  -6783855.77249  -4755245.20145  23243458.265    23243458.279    23243461.497
 08  8  8  3 31 30.0000000  0  9G14G12G31G20G30G22G29G32G16
 -19717042.21949 -14933903.96647  20824768.596    20824768.613    20824770.853
  -2292012.43949  -1724904.74645  25135578.117    25135579.370    25135579.616
 -27703911.19949 -21567024.96147  20865297.684    20865298.065    20865299.617
  -4089971.70249  -3148192.81845  23567756.866    23567756.042    23567760.053
 -16960333.55149 -13183935.33147  21288842.536    21288842.961    21288845.378
  -8348192.60549  -6483169.83745  23738725.085    23738724.833    23738726.524
  -8711364.60649  -6751338.78346  23541278.255    23541278.882    23541281.607
 -10019532.17149  -7787248.11746  22351054.972    22351055.007    22351057.865
  -6891504.37049  -4839127.20345  23222973.416    23222973.340    23222975.939
 08  8  8  3 32  0.0000000  0  9G14G12G31G20G30G22G29G32G16
 -19680449.05449 -14905389.81447  20831732.036    20831732.072    20831734.343
  -2186650.28149  -1642804.43245  25155627.941    25155628.531    25155631.523
 -27725071.89949 -21583513.80447  20861270.868    20861271.462    20861272.913
  -4155238.16649  -3199049.77845  23555337.069    23555335.431    23555339.942
 -16893901.57149 -13132170.16147  21301484.123    21301484.399    21301486.966
  -8240009.08749  -6398871.01345  23759311.769    23759312.150    23759313.583
  -8766987.27949  -6794681.09145  23530693.558    23530694.079    23530696.673
 -10058074.04649  -7817280.75146  22343720.674    22343720.554    22343723.917
  -6998943.23749  -4922845.78445  23202528.460    23202527.854    23202531.472
 08  8  8  3 32 30.0000000  0  9G14G12G31G20G30G22G29G32G16
 -19643448.99649 -14876558.60647  20838772.887    20838772.758    20838775.055
  -2081194.96749  -1560631.52645  25175695.403    25175695.439    25175698.497
 -27745983.23649 -21599808.33147  20857291.552    20857292.107    20857293.805
  -4220041.05149  -3249545.52545  23543005.351    23543005.177    23543006.896
 -16827007.77349 -13080045.13047  21314213.561    21314214.067    21314216.427
  -8131747.55649  -6314511.39945  23779913.223    23779913.528    23779915.626
  -8822244.32549  -6837738.50746  23520178.586    23520178.919    23520181.525
 -10096118.42549  -7846925.72846  22336481.014    22336481.196    22336483.691
  -7106170.09449  -5006399.16145  23182123.733    23182123.110    23182127.128
 08  8  8  3 33  0.0000000  0  9G14G12G31G20G30G22G29G32G16
 -19606042.24149 -14847410.49547  20845891.127    20845891.030    20845893.376
  -1975649.00049  -1478387.95545  25195780.185    25195780.034    25195783.081
 -27766645.96749 -21615909.12947  20853359.509    20853359.879    20853361.222
  -4284378.56549  -3299678.63145  23530762.403    23530761.503    23530765.573
 -16759655.21549 -13027562.62047  21327030.343    21327030.614    21327033.312
  -8023411.11949  -6230093.43945  23800528.965    23800529.956    23800530.128
  -8877133.71549  -6880509.43446  23509733.453    23509733.340    23509736.607
 -10133664.28749  -7876182.24346  22329336.301    22329336.152    22329339.718
  -7213183.11449  -5089785.90645  23161759.809    23161759.498    23161763.565
 08  8  8  3 33 30.0000000  0  9G14G12G31G20G30G22G29G32G16
 -19568228.84449 -14817945.51647  20853086.830    20853086.798    20853088.914
  -1870015.05249  -1396075.83145  25215881.697    25215881.868    25215885.204
 -27787061.22649 -21631817.09647  20849474.595    20849474.929    20849476.686
  -4348249.11249  -3349447.87845  23518608.342    23518608.606    23518611.268
 -16691846.74849 -12974724.86247  21339933.848    21339934.551    21339936.554
  -7915003.21349  -6145619.78545  23821158.397    23821158.945    23821160.287
  -8931653.24849  -6922992.14945  23499358.660    23499358.872    23499361.027
 -10170710.56149  -7905049.47246  22322286.642    22322286.173    22322290.275
  -7319980.37049  -5173004.53145  23141437.097    23141437.286    23141439.790
 08  8  8  3 34  0.0000000  0  9G14G12G31G20G30G22G29G32G16
 -19530009.73149 -14788164.39947  20860359.721    20860359.644    20860362.025
  -1764296.57849  -1313697.89445  25235999.278    25235999.201    25236001.761
 -27807229.96649 -21647532.97047  20845636.585    20845636.956    20845638.423
  -4411651.62349  -3398852.42545  23506543.189    23506542.529    23506546.021
 -16623585.75749 -12921534.47547  21352923.533    21352924.138    21352926.577
  -7806527.43349  -6061093.24545  23841800.672    23841799.925    23841801.948
  -8985801.47549  -6965185.53345  23489054.650    23489054.196    23489058.116
 -10207257.17749  -7933527.35046  22315332.021    22315331.767    22315334.821
  -7426560.26149  -5256053.75945  23121155.679    23121155.967    23121158.748
 08  8  8  3 34 30.0000000  0  9G14G12G31G20G30G22G29G32G16
 -19491381.56549 -14758064.53047  20867710.399    20867710.315    20867712.598
  -1658492.57049  -1231253.19345  25256133.292    25256133.263    25256137.023
 -27827149.16649 -21663054.41047  20841846.095    20841846.530    20841848.101
  -4474580.77249  -3447888.10145  23494568.178    23494568.039    23494570.732
 -16554871.40249 -12867990.83047  21365999.438    21365999.916    21366002.332
  -7697982.92749  -5976513.14145  23862456.011    23862456.315    23862457.850
  -9039572.12249  -7007084.71145  23478822.245    23478822.459    23478825.003
 -10243299.57049  -7961612.33346  22308473.395    22308473.415    22308476.973
  -7532917.98549  -5338929.88445  23100916.476    23100915.569    23100918.700
 08  8  8  3 35  0.0000000  0  9G14G12G31G20G30G22G29G32G16
 -19452346.74849 -14727647.79547  20875138.502    20875138.512    20875140.401
  -1552607.76949  -1148745.59745  25276282.488    25276282.104    25276286.086
 -27846822.00049 -21678383.87247  20838102.435    20838102.962    20838104.412
  -4537037.13949  -3496555.39545  23482683.066    23482681.988    23482685.969
 -16485708.82749 -12814097.91247  21379160.621    21379161.045    21379163.492
  -7589375.04849  -5891883.65645  23883123.427    23883124.277    23883125.241
  -9092965.09949  -7048689.60745  23468661.932    23468662.073    23468665.520
 -10278839.10049  -7989305.47346  22301710.406    22301710.217    22301713.911
  -7639053.34749  -5421632.72645  23080719.625    23080719.690    23080722.723
 08  8  8  3 35 30.0000000  0  9G14G12G31G20G30G22G29G32G16
 -19412902.84349 -14696912.29347  20882644.419    20882644.326    20882646.748
  -1446642.37549  -1066175.21345  25296446.979    25296448.483    25296449.266
 -27866246.96349 -21693520.19147  20834406.000    20834406.550    20834407.848
  -4599016.70449  -3544851.12245  23470888.893    23470888.602    23470891.935
 -16416098.70649 -12759856.26447  21392406.893    21392407.734    21392409.944
  -7480704.51449  -5807205.35745  23903802.829    23903802.222    23903804.455
  -9145976.19249  -7089996.92445  23458574.149    23458573.877    23458577.273
 -10313872.49849  -8016604.22146  22295043.759    22295042.773    22295047.413
  -7744962.24649  -5504159.10145  23060565.953    23060565.663    23060567.937
 08  8  8  3 36  0.0000000  0  9G14G12G31G20G30G22G29G32G16
 -19373051.55649 -14665859.35047  20890227.860    20890227.636    20890230.202
  -1340600.63449   -983545.29445  25316626.132    25316626.044    25316630.081
 -27885426.30849 -21708465.10647  20830756.319    20830757.117    20830758.129
  -4660519.49449  -3592775.35445  23459185.341    23459184.944    23459188.121
 -16346045.59849 -12705269.43147  21405737.549    21405738.126    21405740.216
  -7371975.88549  -5722481.79745  23924493.357    23924493.838    23924493.968
  -9198604.44949  -7131005.93445  23448559.284    23448559.460    23448562.818
 -10348400.39049  -8043509.05946  22288473.257    22288472.851    22288476.561
  -7850644.16949  -5586508.60545  23040455.409    23040455.495    23040457.763
 08  8  8  3 36 30.0000000  0  9G14G12G31G20G30G22G29G32G16
 -19332791.90649 -14634488.19747  20897888.963    20897888.803    20897891.269
  -1234484.02049   -900857.08145  25336819.382    25336820.124    25336821.416
 -27904359.42849 -21723218.16147  20827153.462    20827153.731    20827155.168
  -4721542.24349  -3640325.52945  23447572.956    23447573.113    23447575.895
 -16275550.76449 -12650338.39747  21419152.288    21419152.429    21419154.966
  -7263190.72349  -5637714.16645  23945194.564    23945194.567    23945196.228
  -9250846.26149  -7171713.81545  23438617.921    23438617.383    23438621.052
 -10382420.73449  -8070018.42446  22281999.404    22281999.223    22282003.238
  -7956096.07549  -5668678.89145  23020388.594    23020388.707    23020391.423
 08  8  8  3 37  0.0000000  0  9G14G12G31G20G30G22G29G32G16
 -19292123.36449 -14602798.42747  20905627.896    20905627.825    20905630.215
  -1128294.11449   -818111.73945  25357026.538    25357028.235    25357029.840
 -27923046.29549 -21737779.33147  20823597.461    20823597.923    20823599.139
  -4782082.68149  -3687499.86845  23436052.527    23436052.748    23436054.993
 -16204616.57149 -12595064.99947  21432650.564    21432651.214    21432653.429
  -7154351.55949  -5552904.48545  23965906.098    23965905.909    23965906.487
  -9302698.95149  -7212118.48346  23428750.668    23428750.883    23428754.682
 -10415931.90049  -8096131.01646  22275622.350    22275621.588    22275625.912
  -8061315.09449  -5750667.70145  23000366.083    23000366.408    23000369.289
 08  8  8  3 37 30.0000000  0  9G14G12G31G20G30G22G29G32G16
 -19251047.54449 -14570791.29847  20913444.415    20913444.404    20913446.712
  -1022034.77149   -735312.28045  25377246.984    25377247.857    25377250.816
 -27941488.74949 -21752150.05047  20820088.014    20820088.523    20820090.101
  -4842140.21549  -3734297.92945  23424623.938    23424623.611    23424627.676
 -16133246.84749 -12539452.23247  21446231.778    21446232.442    21446234.806
  -7045462.55449  -5468055.96145  23986627.050    23986627.293    23986628.353
  -9354161.23349  -7252218.94146  23418957.826    23418958.013    23418960.773
 -10448934.23449  -8121847.12846  22269342.126    22269341.805    22269346.081
  -8166300.28349  -5832474.31545  22980388.021    22980387.459    22980389.513
 08  8  8  3 38  0.0000000  0  9G14G12G31G20G30G22G29G32G16
 -19209563.54449 -14538466.11047  20921338.518    20921338.479    20921340.921
   -915707.47549   -652459.87045  25397480.477    25397481.929    25397483.621
 -27959686.45849 -21766330.05547  20816625.075    20816625.500    20816626.852
  -4901712.76349  -3780718.06945  23413287.590    23413287.019    23413290.398
 -16061443.86049 -12483501.84747  21459895.489    21459896.053    21459898.513
  -6936525.77749  -5383170.19345  24007356.998    24007357.252    24007358.680
  -9405230.04949  -7292012.80146  23409239.741    23409239.671    23409242.771
 -10481425.94349  -8147165.34246  22263159.200    22263159.156    22263162.507
  -8271048.93649  -5914096.60045  22960454.981    22960455.098    22960456.783
 08  8  8  3 38 30.0000000  0  9G14G12G31G20G30G22G29G32G16
 -19167670.42049 -14505822.12447  20929310.476    20929310.110    20929312.803
   -809313.78549   -569555.69645  25417726.632    25417727.723    25417730.667
 -27977639.04949 -21780319.07347  20813208.791    20813209.065    20813210.630
  -4960797.47949  -3826758.09145  23402044.183    23402043.482    23402046.574
 -15989209.81649 -12427215.58647  21473641.166    21473641.327    21473643.911
  -6827543.10049  -5298248.66345  24028095.826    24028095.126    24028096.724
  -9455901.95849  -7331497.37846  23399597.157    23399597.416    23399599.903
 -10513405.17349  -8172084.21846  22257073.758    22257073.669    22257076.953
  -8375558.45149  -5995532.55645  22940567.470    22940567.586    22940569.262
 08  8  8  3 39  0.0000000  0  8G14G31G20G30G22G29G32G16
 -19125369.31649 -14472860.23347  20937360.119    20937360.317    20937362.649
 -27995348.04049 -21794118.27147  20809838.893    20809839.128    20809840.639
  -5019393.45649  -3872417.26845  23390893.677    23390893.032    23390895.835
 -15916547.90849 -12370595.91547  21487468.265    21487468.535    21487471.058
  -6718517.79549  -5213293.91745  24048842.596    24048842.323    24048844.459
  -9506175.46349  -7370671.49946  23390030.390    23390030.978    23390033.580
 -10544871.94349  -8196603.77546  22251085.727    22251085.734    22251088.788
  -8479827.41049  -6076781.06845  22920725.740    22920724.443    22920728.012
 08  8  8  3 39 30.0000000  0  8G14G31G20G30G22G29G32G16
 -19082658.67549 -14439579.21647  20945487.700    20945487.631    20945489.942
 -28012812.47249 -21807726.90647  20806515.510    20806516.139    20806517.536
  -5077497.36349  -3917693.00645  23379836.853    23379835.277    23379839.869
 -15843459.47049 -12313643.88347  21501376.532    21501376.807    21501379.262
  -6609451.39649  -5128307.15245  24069597.372    24069597.075    24069597.795
  -9556046.79249  -7409532.24446  23380540.149    23380540.479    23380542.668
 -10575823.63049  -8220721.97746  22245195.792    22245195.711    22245199.544
  -8583852.16349  -6157839.28645  22900930.446    22900930.196    22900932.829
 08  8  8  3 40  0.0000000  0  8G14G31G20G30G22G29G32G16
 -19039540.08449 -14405980.32747  20953692.958    20953692.890    20953695.415
 -28030034.15449 -21821146.38647  20803238.321    20803238.628    20803240.150
  -5135108.83549  -3962585.04845  23368873.785    23368872.886    23368876.736
 -15769948.69549 -12256362.77647  21515365.205    21515366.052    21515367.891
  -6500348.27349  -5043291.80545  24090358.953    24090358.752    24090360.341
  -9605515.08649  -7448078.96246  23371126.591    23371126.426    23371130.156
 -10606260.89349  -8244439.31946  22239403.689    22239403.062    22239407.716
  -8687632.05149  -6238706.69645  22881181.807    22881181.518    22881185.237
 08  8  8  3 40 30.0000000  0  8G14G31G20G30G22G29G32G16
 -18996012.69549 -14372062.88447  20961975.954    20961975.766    20961978.473
 -28047012.64749 -21834376.37547  20800007.384    20800007.974    20800009.215
  -5192225.12449  -4007091.22045  23358004.745    23358004.060    23358007.393
 -15696017.01049 -12198753.67347  21529433.974    21529434.263    21529436.901
  -6391210.22249  -4958249.21045  24111127.198    24111128.553    24111127.769
  -9654576.58149  -7486308.67946  23361790.495    23361791.129    23361793.387
 -10636181.71149  -8267754.24246  22233709.940    22233709.553    22233713.914
  -8791164.01449  -6319380.93645  22861480.276    22861480.087    22861482.868
 08  8  8  3 41  0.0000000  0  8G14G31G20G30G22G29G32G16
 -18952076.60049 -14337826.96747  20970336.760    20970336.948    20970339.103
 -28063748.46949 -21847417.27147  20796822.665    20796823.069    20796824.440
  -5248844.96049  -4051210.55145  23347230.406    23347230.239    23347232.726
 -15621667.60149 -12140819.07147  21543582.241    21543582.518    21543585.192
  -6282040.01049  -4873181.59045  24131901.690    24131902.042    24131903.593
  -9703229.62749  -7524220.10546  23352532.083    23352531.829    23352535.951
 -10665585.46649  -8290666.25046  22228114.585    22228114.287    22228118.524
  -8894446.12149  -6399860.49245  22841826.281    22841825.663    22841828.797
 08  8  8  3 41 30.0000000  0  8G14G31G20G30G22G29G32G16
 -18907732.40349 -14303273.04947  20978775.214    20978775.206    20978777.497
 -28080242.58349 -21860269.81947  20793683.880    20793684.392    20793685.667
  -5304966.63649  -4094941.72045  23336550.841    23336549.803    23336554.010
 -15546903.20349 -12082561.10547  21557809.480    21557810.039    21557812.291
  -6172840.78349  -4788091.34845  24152681.521    24152682.546    24152683.654
  -9751471.93549  -7561811.49446  23343351.943    23343351.524    23343354.877
 -10694471.53349  -8313174.88546  22222617.750    22222617.352    22222621.026
  -8997476.35149  -6480143.77545  22822220.303    22822219.776    22822222.572
 08  8  8  3 42  0.0000000  0  8G14G31G20G30G22G29G32G16
 -18862979.97049 -14268401.02947  20987291.316    20987291.291    20987293.673
 -28096495.24049 -21872934.21347  20790591.080    20790591.493    20790592.930
  -5360588.09249  -4138283.09045  23325966.264    23325966.050    23325969.486
 -15471726.70049 -12023982.02247  21572115.176    21572115.565    21572117.582
  -6063615.40449  -4702980.74145  24173466.671    24173466.467    24173467.618
  -9799301.25149  -7599081.07246  23334250.352    23334250.784    23334253.364
 -10722838.62549  -8335279.11046  22217219.632    22217219.619    22217223.086
  -9100252.42249  -6560229.00946  22802662.608    22802661.916    22802665.038
 08  8  8  3 42 30.0000000  0  8G14G31G20G30G22G29G32G16
 -18817819.72849 -14233211.23347  20995885.062    20995884.871    20995887.530
 -28112507.11949 -21885410.98847  20787544.104    20787544.612    20787545.814
  -5415708.40349  -4181233.97345  23315477.169    23315475.952    23315479.783
 -15396141.08249 -11965084.13847  21586498.616    21586499.158    21586501.197
  -5954366.32949  -4617851.66545  24194256.173    24194257.524    24194256.868
  -9846715.34549  -7636027.09046  23325227.646    23325228.350    23325230.825
 -10750686.44649  -8356978.70546  22211920.357    22211920.008    22211923.411
  -9202772.89949  -6640115.08846  22783153.561    22783153.071    22783156.762
 08  8  8  3 43  0.0000000  0  8G14G31G20G30G22G29G32G16
 -18772250.56149 -14197702.79447  21004556.583    21004556.548    21004558.333
 -28128277.64549 -21897699.69747  20784543.085    20784543.720    20784545.011
  -5470324.50449  -4223791.94945  23305084.042    23305083.047    23305086.511
 -15320147.74449 -11905868.55347  21600959.642    21600960.007    21600961.935
  -5845095.23049  -4532705.41645  24215049.879    24215051.519    24215051.295
  -9893710.68649  -7672646.81246  23316284.738    23316284.222    23316287.744
 -10778013.06049  -8378272.16846  22206720.369    22206720.557    22206723.255
  -9305034.43849  -6719799.39646  22763693.800    22763693.123    22763695.873
 08  8  8  3 43 30.0000000  0  8G14G31G20G30G22G29G32G16
 -18726272.74949 -14161875.93147  21013305.891    21013306.111    21013307.838
 -28143807.30649 -21909800.71747  20781587.872    20781588.546    20781589.893
  -5524434.52849  -4265955.59745  23294787.317    23294787.334    23294790.520
 -15243749.28149 -11846337.28847  21615497.780    21615498.172    21615500.385
  -5735804.88749  -4447544.15345  24235847.312    24235847.702    24235848.392
  -9940284.90349  -7708938.38146  23307421.852    23307422.807    23307424.532
 -10804817.41449  -8399158.67746  22201619.672    22201619.978    22201623.019
  -9407034.80849  -6799280.18846  22744283.750    22744282.461    22744285.776
 08  8  8  3 44  0.0000000  0  8G14G31G20G30G22G29G32G16
 -18679886.67349 -14125730.94347  21022132.874    21022132.870    21022135.140
 -28159096.85449 -21921714.64347  20778678.377    20778678.730    20778680.223
  -5578037.75149  -4307724.31345  23284586.966    23284586.416    23284589.519
 -15166949.03349 -11786492.94447  21630112.388    21630112.605    21630115.042
  -5626498.46349  -4362370.38745  24256647.656    24256648.622    24256650.089
  -9986436.22249  -7744900.43146  23298639.533    23298639.757    23298642.804
 -10831099.09849  -8419637.90446  22196618.414    22196617.821    22196621.811
  -9508772.28649  -6878556.13345  22724923.681    22724923.033    22724925.616
 08  8  8  3 44 30.0000000  0  8G14G31G20G30G22G29G32G16
 -18633092.06449 -14089267.61147  21031037.571    21031037.606    21031039.734
 -28174146.15049 -21933441.35347  20775814.583    20775814.813    20775816.426
  -5631131.92249  -4349096.37145  23274483.459    23274483.740    23274486.759
 -15089749.43549 -11726337.41447  21644802.930    21644802.675    21644805.759
  -5517178.24749  -4277185.86545  24277450.659    24277449.841    24277451.792
 -10032161.92849  -7780530.82146  23289938.366    23289938.941    23289941.144
 -10856857.08949  -8439709.06846  22191716.883    22191716.994    22191720.090
  -9610244.97549  -6957625.74446  22705614.111    22705613.281    22705617.258
 08  8  8  3 45  0.0000000  0  8G14G31G20G30G22G29G32G16
 -18585889.68049 -14052486.54147  21040019.837    21040019.508    21040021.950
 -28188956.24449 -21944981.66647  20772996.259    20772996.734    20772998.161
  -5683715.64549  -4390070.66645  23264477.055    23264475.469    23264480.952
 -15012153.61349 -11665873.15147  21659568.874    21659569.102    21659571.931
  -5407847.17849  -4191992.86645  24298255.706    24298256.757    24298255.843
 -10077460.26149  -7815828.19846  23281318.381    23281318.139    23281321.748
 -10882090.87449  -8459371.75546  22186915.058    22186915.068    22186918.658
  -9711450.47949  -7036487.16545  22686355.297    22686354.314    22686357.403
 08  8  8  3 45 30.0000000  0  8G14G31G20G30G22G29G32G16
 -18538278.71649 -14015387.09547  21049079.899    21049079.685    21049082.096
 -28203526.72649 -21956335.27047  20770223.601    20770224.133    20770225.650
  -5735786.64549  -4430645.45845  23254568.272    23254567.598    23254571.438
 -14934163.42949 -11605101.59347  21674409.924    21674409.968    21674412.208
  -5298507.06049  -4106792.84345  24319062.374    24319062.713    24319064.835
 -10122328.06649  -7850790.09346  23272780.229    23272780.349    23272783.676
 -10906798.76149  -8478624.66046  22182213.276    22182213.183    22182217.371
  -9812386.03449  -7115138.24445  22667147.812    22667147.091    22667150.524
 08  8  8  3 46  0.0000000  0  8G14G31G20G30G22G29G32G16
 -18490259.64949 -13977969.64147  21058217.621    21058217.449    21058219.780
 -28217858.22049 -21967502.65447  20767496.371    20767496.711    20767498.119
  -5787343.39949  -4470819.52845  23244757.365    23244757.189    23244760.242
 -14855781.75749 -11544024.97947  21689325.457    21689325.722    21689328.630
  -5189161.07349  -4021588.25345  24339870.315    24339869.479    24339872.418
 -10166763.40449  -7885414.99746  23264324.509    23264325.063    23264327.091
 -10930980.41249  -8497467.50646  22177611.723    22177611.489    22177614.724
  -9913049.71649  -7193577.45545  22647992.022    22647991.552    22647994.889
 08  8  8  3 46 30.0000000  0  8G14G31G20G30G22G29G32G16
 -18441832.93349 -13940234.54247  21067432.902    21067432.530    21067434.786
 -28231951.26649 -21978484.23047  20764814.584    20764815.188    20764816.491
  -5838384.35549  -4510591.67145  23235044.637    23235044.364    23235047.542
 -14777011.30249 -11482645.41847  21704314.884    21704315.285    21704317.952
  -5079812.52449  -3936381.66545  24360678.666    24360679.872    24360681.054
 -10210764.23549  -7919701.31846  23255951.513    23255951.949    23255954.156
 -10954635.13249  -8515899.77046  22173110.381    22173110.315    22173114.061
 -10013439.86149  -7271803.51046  22628888.408    22628888.057    22628890.228
 08  8  8  3 47  0.0000000  0  8G14G31G20G30G22G29G32G16
 -18392999.60749 -13902182.60647  21076725.564    21076725.347    21076728.208
 -28245807.23949 -21989281.07747  20762177.830    20762178.243    20762179.760
  -5888908.99049  -4549961.50645  23225430.094    23225429.660    23225432.488
 -14697855.85349 -11420965.86147  21719377.688    21719378.267    21719380.701
  -4970464.23149  -3851175.25745  24381487.001    24381487.028    24381489.083
 -10254328.97249  -7953647.84546  23247661.379    23247661.279    23247664.048
 -10977763.14649  -8533921.59946  22168709.280    22168709.362    22168713.264
 -10113555.10249  -7349815.33746  22609837.090    22609836.486    22609839.249
 08  8  8  3 47 30.0000000  0  8G14G31G20G30G22G29G32G16
 -18343758.06249 -13863812.56747  21086095.890    21086095.660    21086098.162
 -28259424.83349 -21999892.18447  20759586.478    20759586.987    20759588.279
  -5938914.27349  -4588926.65045  23215914.507    23215915.296    23215916.108
 -14618316.85449 -11358987.43647  21734513.475    21734513.709    21734516.632
  -4861117.42649  -3765970.02945  24402294.989    24402296.162    24402296.620
 -10297453.86549  -7987251.63746  23239454.855    23239454.940    23239457.381
 -11000362.19149  -8551531.25046  22164408.864    22164408.509    22164412.462
 -10213392.19149  -7427610.43446  22590838.725    22590838.578    22590841.667
 08  8  8  3 48  0.0000000  0  8G14G31G20G30G22G29G32G16
 -18294109.38649 -13825125.29547  21095543.675    21095543.499    21095546.251
 -28272805.40149 -22010318.58747  20757040.257    20757040.700    20757042.270
  -5988399.32349  -4627486.39745  23206497.844    23206497.616    23206500.965
 -14538397.51649 -11296712.63647  21749721.606    21749722.540    21749724.497
  -4751774.94549  -3680768.15845  24423102.308    24423101.249    24423104.034
 -10340137.56649  -8020511.65146  23231332.331    23231332.753    23231335.346
 -11022432.23949  -8568728.69346  22160209.120    22160208.567    22160211.835
 -10312949.56949  -7505187.55346  22571893.619    22571892.624    22571896.332
