     2              OBSERVATION DATA    M (MIXED)           RINEX VERSION / TYPE
TEQC  2016APR1      BJFS                20180908  0:25:     PGM / RUN BY / DATE 
LINUX 2.4.21-27.ELSMP|OPTERON|GCC|LINUX X86_64|=+           COMMENT             
BIT 2 OF LLI FLAGS DATA COLLECTED UNDER A/S CONDITION       COMMENT             
 SNR IS MAPPED TO RINEX SNR FLAG VALUE [0-9]                COMMENT             
  L1 & L2: MIN(MAX(INT(SNR_DBHZ/6), 0), 9)                  COMMENT             
  ### PG RNXSMT: RINEX FILE CHANGED                         COMMENT             
BJFS                                                        MARKER NAME         
21601M001                                                   MARKER NUMBER       
GNSS OBSERVER       CASM                                    OBSERVER / AGENCY   
5310K42306          TRIMBLE NETR9       4.85                REC # / TYPE / VERS 
5317361110          TRM59900.00     SCIS                    ANT # / TYPE        
 -2148744.5566  4426641.1140  4044655.7555                  APPROX POSITION XYZ 
        0.0465        0.0000        0.0000                  ANTENNA: DELTA H/E/N
     1     1                                                WAVELENGTH FACT L1/2
     4    L1    L2    C1    P2                              # / TYPES OF OBSERV 
    30                                                      INTERVAL            
  2018     9     7     0     0    0.000000      GPS         TIME OF FIRST OBS   
                                                            END OF HEADER       
 18  9  7  0  0  0.0000000  0 17G01G03G07G08G11G17G18G22G28G30R02R09
                                R15R16R17R18R19
 105909820.64819  82527100.94119  20153992.870 9  20154000.692 9
 125671504.33419  97925816.48619  23914515.974 9  23914523.671 9
 118149208.38219  92064299.24519  22483061.296 9  22483065.963 9
 122727911.49519  95632107.52919  23354368.455 9  23354376.041 9
 107516756.33019  83779274.83919  20459770.378 9  20459774.210 9
 120902749.27619  94209914.66219  23007043.876 9  23007048.914 9
 109843483.84219  85592304.97219  20902535.834 9  20902540.936 9
 121786563.74619  94898609.69319  23175220.976 9  23175223.732 9
 111275677.78719  86708304.70119  21175069.264 9  21175073.095 9
 112948713.18319  88011954.76319  21493448.022 9  21493455.318 9
 126153678.33119  98119513.34519  23641155.064 9  23641158.444 9
 116219386.63919  90392853.82419  21764159.651 9  21764160.363 9
 120887010.45019  94023208.43719  22622372.116 9  22622377.423 9
 103143107.35019  80222408.81019  19308611.302 9  19308613.064 9
 120377172.99419  93626678.86219  22495359.907 9  22495362.477 9
 104879223.52019  81572721.37319  19647419.098 9  19647421.148 9
 110726252.51019  86120412.87619  20699108.860 9  20699110.207 9
 18  9  7  0  0 30.0000000  0 17G01G03G07G08G11G17G18G22G28G30R02R09
                                R15R16R17R18R19
 105918889.641 9  82534167.694 9  20155718.638 9  20155726.459 9
 125577302.546 9  97852412.505 9  23896589.962 9  23896597.657 9
 118245717.699 9  92139501.301 9  22501426.416 9  22501431.084 9
 122805054.966 9  95692219.302 9  23369048.386 9  23369055.978 9
 107556810.198 9  83810485.649 9  20467392.373 9  20467396.204 9
 120841538.114 9  94162217.685 9  22995395.754 9  22995400.785 9
 109906154.371 9  85641139.144 9  20914461.644 9  20914466.747 9
 121723580.285 9  94849531.691 9  23163235.607 9  23163238.358 9
 111223794.946 9  86667876.520 9  21165196.283 9  21165200.112 9
 113000480.141 9  88052292.642 9  21503298.954 9  21503306.253 9
 126095788.906 9  98074488.154 9  23630306.671 9  23630310.072 9
 116113732.610 9  90310678.501 9  21744374.022 9  21744374.725 9
 121014941.052 9  94122709.994 9  22646312.600 9  22646317.913 9
 103163876.589 9  80238562.645 9  19312499.360 9  19312501.126 9
 120479045.084 9  93705912.636 9  22514397.196 9  22514399.784 9
 104918758.496 9  81603470.816 9  19654825.318 9  19654827.365 9
 110667445.809 9  86074674.352 9  20688115.552 9  20688116.894 9
 18  9  7  0  1  0.0000000  0 17G01G03G07G08G11G17G18G22G28G30R02R09
                                R15R16R17R18R19
 105928561.863 9  82541704.491 9  20157559.200 9  20157567.021 9
 125483188.822 9  97779077.171 9  23878680.690 9  23878688.376 9
 118342488.512 9  92214907.108 9  22519841.305 9  22519845.979 9
 122882254.200 9  95752374.517 9  23383738.937 9  23383746.536 9
 107597302.242 9  83842037.894 9  20475097.750 9  20475101.580 9
 120780469.128 9  94114631.489 9  22983774.692 9  22983779.716 9
 109969310.610 9  85690351.788 9  20926479.884 9  20926484.990 9
 121660917.852 9  94800703.832 9  23151311.335 9  23151314.083 9
 111172142.292 9  86627627.710 9  21155367.101 9  21155370.928 9
 113052753.406 9  88093025.047 9  21513246.233 9  21513253.534 9
 126038435.444 9  98029879.920 9  23619558.647 9  23619562.044 9
 116008476.630 9  90228812.770 9  21724662.935 9  21724663.631 9
 121143107.728 9  94222395.112 9  22670297.301 9  22670302.632 9
 103185432.144 9  80255328.057 9  19316534.620 9  19316536.390 9
 120580934.830 9  93785160.169 9  22533437.766 9  22533440.364 9
 104958678.220 9  81634519.492 9  19662303.626 9  19662305.673 9
 110609065.436 9  86029267.399 9  20677201.955 9  20677203.296 9
 18  9  7  0  1 30.0000000  0 17G01G03G07G08G11G17G18G22G28G30R02R09
                                R15R16R17R18R19
 105938835.632 9  82549710.029 9  20159514.231 9  20159522.051 9
 125389165.512 9  97705812.248 9  23860788.653 9  23860796.341 9
 118439516.870 9  92290513.608 9  22538305.197 9  22538309.874 9
 122959507.775 9  95812572.087 9  23398439.819 9  23398447.424 9
 107638230.453 9  83873930.010 9  20482886.127 9  20482889.956 9
 120719540.952 9  94067155.003 9  22972180.435 9  22972185.455 9
 110032949.372 9  85739940.429 9  20938589.941 9  20938595.048 9
 121598578.153 9  94752127.450 9  23139448.479 9  23139451.226 9
 111120720.681 9  86587558.931 9  21145581.887 9  21145585.712 9
 113105530.053 9  88134149.706 9  21523289.296 9  21523296.597 9
 125981621.176 9  97985691.042 9  23608911.680 9  23608915.077 9
 115903621.690 9  90147258.965 9  21705026.946 9  21705027.633 9
 121271505.310 1  94322259.865 1  22694325.182 1  22694330.521 1
 103207773.229 9  80272704.460 9  19320716.915 9  19320718.685 9
 120682839.666 9  93864419.463 9  22552481.137 9  22552483.741 9
 104998979.541 9  81665864.964 9  19669853.422 9  19669855.468 9
 110551110.372 9  85984191.244 9  20666367.863 9  20666369.202 9
 18  9  7  0  2  0.0000000  0 17G01G03G07G08G11G17G18G22G28G30R02R09
                                R15R16R17R18R19
 105949709.431 9  82558183.124 9  20161583.442 9  20161591.261 9
 125295235.537 9  97632620.071 9  23842914.365 9  23842922.050 9
 118536799.798 9  92366318.465 9  22556817.540 9  22556822.222 9
 123036815.174 9  95872811.598 9  23413150.943 9  23413158.553 9
 107679592.401 9  83906160.103 9  20490757.041 9  20490760.870 9
 120658753.781 9  94019788.390 9  22960613.011 9  22960618.027 9
 110097067.880 9  85789902.892 9  20950791.296 9  20950796.405 9
 121536563.709 9  94703804.524 9  23127647.510 9  23127650.252 9
 111069531.635 9  86547671.370 9  21135840.930 9  21135844.753 9
 113158807.815 9  88175664.839 9  21533427.721 9  21533435.024 9
 125925348.719 9  97941923.540 9  23598366.272 9  23598369.678 9
 115799171.928 9  90066020.290 9  21685466.840 9  21685467.520 9
 121400130.554 9  94422301.710 9  22718395.652 9  22718400.993 9
 103230899.154 9  80290691.270 9  19325046.152 9  19325047.927 9
 120784757.556 9  93943688.884 9  22571526.967 9  22571529.583 9
 105039659.882 9  81697505.236 9  19677474.215 9  19677476.260 9
 110493580.239 9  85939445.608 9  20655613.195 9  20655614.529 9
 18  9  7  0  2 30.0000000  0 17G01G03G07G08G11G17G18G22G28G30R02R09
                                R15R16R17R18R19
 105961180.995 9  82567122.007 9  20163766.407 9  20163774.225 9
 125201400.704 9  97559502.055 9  23825058.163 9  23825065.839 9
 118634332.643 9  92442318.066 9  22575377.437 9  22575382.124 9
 123114174.388 9  95933091.487 9  23427871.926 9  23427879.540 9
 107721385.292 9  83938725.986 9  20498709.969 9  20498713.799 9
 120598106.057 9  93972530.431 9  22949072.127 9  22949077.141 9
 110161662.338 9  85840236.229 9  20963083.218 9  20963088.329 9
 121474876.028 9  94655736.217 9  23115908.722 9  23115911.461 9
 111018575.451 9  86507965.252 9  21126144.291 9  21126148.114 9
 113212583.140 9  88217567.676 9  21543660.836 9  21543668.141 9
 125869620.155 9  97898579.191 9  23587922.697 9  23587926.081 9
 115695129.940 9  89985098.755 9  21665983.109 9  21665983.787 9
 121528978.904 9  94522517.041 9  22742507.902 9  22742513.256 9
 103254808.108 9  80309287.105 9  19329521.971 9  19329523.751 9
 120886685.152 9  94022965.852 9  22590574.612 9  22590577.240 9
 105080715.375 9  81729437.306 9  19685165.278 9  19685167.318 9
 110436473.872 9  85895029.569 9  20644937.744 9  20644939.072 9
 18  9  7  0  3  0.0000000  0 17G01G03G07G08G11G17G18G22G28G30R02R09
                                R15R16R17R18R19
 105973250.499 9  82576526.817 9  20166063.156 9  20166070.974 9
 125107665.391 9  97486461.556 9  23807220.922 9  23807228.597 9
 118732113.468 9  92518510.891 9  22593984.529 9  22593989.222 9
 123191586.577 9  95993412.652 9  23442602.992 9  23442610.611 9
 107763608.481 9  83971627.178 9  20506744.770 9  20506748.599 9
 120537598.772 9  93925381.907 9  22937557.966 9  22937562.978 9
 110226731.344 9  85890939.342 9  20975465.444 9  20975470.558 9
 121413518.563 9  94607925.224 9  23104232.771 9  23104235.505 9
 110967855.210 9  86468442.983 9  21116492.553 9  21116496.376 9
 113266855.165 9  88259857.556 9  21553988.466 9  21553995.774 9
 125814440.554 9  97855661.872 9  23577581.954 9  23577585.303 9
 115591501.202 9  89904498.650 9  21646576.758 9  21646577.430 9
 121658047.895 9  94622904.024 9  22766661.411 9  22766666.768 9
 103279501.133 9  80328492.791 9  19334144.557 9  19334146.337 9
 120988622.255 9  94102250.241 9  22609624.014 9  22609626.648 9
 105122145.035 9  81761660.364 9  19692926.457 9  19692928.500 9
 110379792.519 9  85850944.094 9  20634341.747 9  20634343.070 9
 18  9  7  0  3 30.0000000  0 17G01G03G07G08G11G17G18G22G28G30R02R09
                                R15R16R17R18R19
 105985918.060 9  82586397.648 9  20168473.709 9  20168481.526 9
 125014034.020 9  97413502.081 9  23789403.439 9  23789411.105 9
 118830140.338 9  92594895.453 9  22612638.431 9  22612643.127 9
 123269052.506 9  96053775.691 9  23457344.285 9  23457351.910 9
 107806261.935 9  84004863.641 9  20514861.448 9  20514865.276 9
 120477233.103 9  93878343.740 9  22926070.748 9  22926075.757 9
 110292273.702 9  85942011.307 9  20987937.742 9  20987942.856 9
 121352495.323 9  94560374.644 9  23092620.437 9  23092623.172 9
 110917374.174 9  86429107.116 9  21106886.327 9  21106890.150 9
 113321622.991 9  88302533.778 9  21564410.441 9  21564417.751 9
 125759814.072 9  97813174.667 9  23567344.931 9  23567348.266 9
 115488290.757 9  89824223.865 9  21627248.753 9  21627249.423 9
 121787334.919 9  94723460.537 9  22790855.760 9  22790861.131 9
 103304979.184 9  80348309.060 9  19338914.097 9  19338915.874 9
 121090568.114 9  94181541.413 9  22628675.073 9  22628677.719 9
 105163947.616 9  81794173.494 9  19700757.481 9  19700759.521 9
 110323537.042 9  85807189.831 9  20623825.381 9  20623826.705 9
 18  9  7  0  4  0.0000000  0 17G01G03G07G08G11G17G18G22G28G30R02R09
                                R15R16R17R18R19
 105999182.098 9  82596733.258 9  20170997.775 9  20171005.593 9
 124920509.308 9  97340625.702 9  23771606.262 9  23771613.924 9
 118928409.935 9  92671469.144 9  22631338.529 9  22631343.230 9
 123346571.145 9  96114179.791 9  23472095.617 9  23472103.251 9
 107849343.325 9  84038433.552 9  20523059.567 9  20523063.395 9
 120417008.773 9  93831415.732 9  22914610.408 9  22914615.406 9
 110358286.337 9  85993449.716 9  21000499.535 9  21000504.651 9
 121291808.723 9  94513086.396 9  23081072.152 9  23081074.884 9
 110867133.765 9  86389958.753 9  21097325.889 9  21097329.710 9
 113376883.893 9  88345594.209 9  21574926.250 9  21574933.563 9
 125705743.674 9  97771120.030 9  23557212.076 9  23557215.382 9
 115385502.396 9  89744277.411 9  21607999.759 9  21608000.418 9
 121916837.133 9  94824184.452 9  22815090.355 9  22815095.734 9
 103331240.998 9  80368734.881 9  19343830.389 9  19343832.175 9
 121192520.727 9  94260837.854 9  22647727.382 9  22647730.037 9
 105206120.297 9  81826974.459 9  19708657.852 9  19708659.894 9
 110267707.179 9  85763766.649 9  20613388.545 9  20613389.858 9
 18  9  7  0  4 30.0000000  0 17G01G03G07G08G11G17G18G22G28G30R02R09
                                R15R16R17R18R19
 106013040.288 9  82607531.852 9  20173634.897 9  20173642.714 9
 124827093.240 9  97267833.960 9  23753829.776 9  23753837.438 9
 119026917.968 9  92748228.622 9  22650084.006 9  22650088.714 9
 123424140.954 9  96174623.765 9  23486856.686 9  23486864.327 9
 107892849.783 9  84072334.691 9  20531338.568 9  20531342.396 9
 120356924.369 9  93784596.746 9  22903176.703 9  22903181.694 9
 110424765.563 9  86045251.705 9  21013150.115 9  21013155.232 9
 121231460.086 9  94466061.491 9  23069588.183 9  23069590.913 9
 110817134.277 9  86350998.114 9  21087811.302 9  21087815.123 9
 113432634.521 9  88389036.250 9  21585535.247 9  21585542.562 9
 125652231.018 9  97729499.254 9  23547183.696 9  23547186.959 9
 115283138.890 9  89664661.363 9  21588830.354 9  21588831.010 9
 122046549.726 9  94925072.021 9  22839364.301 9  22839369.680 9
 103358284.709 9  80389768.871 9  19348893.034 9  19348894.821 9
 121294477.046 9  94340137.194 9  22666780.371 9  22666783.031 9
 105248659.438 9  81860060.464 9  19716626.862 9  19716628.902 9
 110212302.244 9  85720673.926 9  20603031.173 9  20603032.485 9
 18  9  7  0  5  0.0000000  0 17G01G03G07G08G11G17G18G22G28G30R02R09
                                R15R16R17R18R19
 106027491.128 9  82618792.249 9  20176384.799 9  20176392.615 9
 124733788.615 9  97195129.086 9  23736074.475 9  23736082.130 9
 119125660.905 9  92825171.152 9  22668874.176 9  22668878.888 9
 123501761.217 9  96235107.061 9  23501627.351 9  23501634.998 9
 107936779.129 9  84106565.354 9  20539698.042 9  20539701.868 9
 120296978.968 9  93737886.086 9  22891769.441 9  22891774.422 9
 110491708.498 9  86097415.016 9  21025888.943 9  21025894.064 9
 121171451.654 9  94419301.683 9  23058168.951 9  23058171.679 9
 110767377.173 9  86312226.349 9  21078342.837 9  21078346.656 9
 113488872.355 9  88432857.927 9  21596236.960 9  21596244.277 9
 125599279.693 9  97688314.927 9  23537260.613 9  23537263.867 9
 115181203.933 9  89585378.629 9  21569741.204 9  21569741.857 9
 122176468.665 9  95026120.024 9  22863676.904 9  22863682.297 9
 103386109.911 9  80411410.673 9  19354101.986 9  19354103.779 9
 121396435.163 9  94419437.885 9  22685833.731 9  22685836.407 9
 105291562.492 9  81893429.500 9  19724664.054 9  19724666.096 9
 110157320.946 9  85677910.683 9  20592753.008 9  20592754.323 9
 18  9  7  0  5 30.0000000  0 17G01G03G07G08G11G17G18G22G28G30R02R09
                                R15R16R17R18R19
 106042533.468 9  82630513.562 9  20179247.254 9  20179255.068 9
 124640598.628 9  97122513.544 9  23718340.986 9  23718348.633 9
 119224635.650 9  92902294.303 9  22687708.464 9  22687713.183 9
 123579431.656 9  96295629.467 9  23516407.554 9  23516415.205 9
 107981130.178 9  84141124.620 9  20548137.761 9  20548141.585 9
 120237172.880 9  93691283.970 9  22880388.698 9  22880393.671 9
 110559112.662 9  86149937.733 9  21038715.535 9  21038720.658 9
 121111786.125 9  94372809.077 9  23046814.968 9  23046817.693 9
 110717864.501 9  86273645.051 9  21068920.885 9  21068924.703 9
 113545595.142 9  88477057.493 9  21607030.954 9  21607038.273 9
 125546892.759 1  97647569.604 1  23527443.272 1  23527446.510 1
 115079701.546 9  89506432.357 9  21550733.046 9  21550733.692 9
 122306590.860 9  95127326.153 9  22888027.515 9  22888032.914 9
 103414715.817 9  80433659.701 9  19359457.079 9  19359458.874 9
 121498392.978 9  94498738.408 9  22704886.986 9  22704889.661 9
 105334826.935 9  81927079.629 9  19732768.937 9  19732770.977 9
 110102763.258 9  85635476.976 9  20582553.987 9  20582555.290 9
 18  9  7  0  6  0.0000000  0 17G01G03G07G08G11G17G18G22G28G30R02R09
                                R15R16R17R18R19
 106058166.897 9  82642695.458 9  20182222.195 9  20182230.008 9
 124547527.348 9  97049990.495 9  23700630.090 9  23700637.731 9
 119323839.854 9  92979596.258 9  22706586.413 9  22706591.137 9
 123657152.414 9  96356191.065 9  23531197.347 9  23531205.005 9
 108025901.592 9  84176011.438 9  20556657.476 9  20556661.300 9
 120177506.798 9  93644790.933 9  22869034.610 9  22869039.580 9
 110626976.067 9  86202818.301 9  21051629.517 9  21051634.642 9
 121052466.728 9  94326586.179 9  23035526.856 9  23035529.578 9
 110668598.841 9  86235256.221 9  21059545.945 9  21059549.764 9
 113602801.483 9  88521633.854 9  21617916.965 9  21617924.286 9
 125495074.242 9  97607266.358 9  23517732.472 9  23517735.698 9
 114978636.876 9  89427826.505 9  21531806.878 9  21531807.524 9
 122436913.952 9  95228688.524 9  22912415.730 9  22912421.137 9
 103444102.518 9  80456516.016 9  19364958.337 9  19364960.134 9
 121600350.133 9  94578038.342 9  22723940.173 9  22723942.867 9
 105378451.291 9  81961009.686 9  19740941.247 9  19740943.287 9
 110048630.040 9  85593373.358 9  20572434.356 9  20572435.659 9
 18  9  7  0  6 30.0000000  0 17G01G03G07G08G11G17G18G22G28G30R02R09
                                R15R16R17R18R19
 106074390.857 9  82655337.517 9  20185309.502 9  20185317.312 9
 124454578.555 9  96977562.904 9  23682942.493 9  23682950.124 9
 119423271.221 9  93057075.227 9  22725507.587 9  22725512.316 9
 123734924.051 9  96416792.324 9  23545996.810 9  23546004.472 9
 108071092.353 9  84211225.016 9  20565256.994 9  20565260.818 9
 120117981.058 9  93598407.281 9  22857707.207 9  22857712.166 9
 110695296.951 9  86256055.343 9  21064630.557 9  21064635.684 9
 120993496.723 9  94280635.528 9  23024305.235 9  23024307.957 9
 110619582.470 9  86197061.651 9  21050218.436 9  21050222.254 9
 113660489.748 9  88566585.736 9  21628894.687 9  21628902.011 9
 125443827.621 9  97567407.934 9  23508128.833 9  23508132.046 9
 114878014.339 9  89349564.558 9  21512963.490 9  21512964.130 9
 122567434.560 9  95330204.523 9  22936840.904 9  22936846.318 9
 103474269.913 9  80479979.533 9  19370605.746 9  19370607.546 9
 121702305.298 9  94657336.780 9  22742992.950 9  22742995.649 9
 105422433.827 9  81995218.316 9  19749180.665 9  19749182.707 9
 109994922.247 9  85551600.644 9  20562394.240 9  20562395.541 9
 18  9  7  0  7  0.0000000  0 17G01G03G07G08G11G17G18G22G28G30R02R09
                                R15R16R17R18R19
 106091202.969 9  82668437.870 9  20188508.736 9  20188516.545 9
 124361754.339 9  96905232.358 9  23665278.623 9  23665286.251 9
 119522925.168 9  93134727.635 9  22744471.116 9  22744475.849 9
 123812744.965 9  96477431.961 9  23560805.664 9  23560813.336 9
 108116699.396 9  84246762.972 9  20573935.725 9  20573939.550 9
 120058594.449 9  93552132.022 9  22846406.295 9  22846411.250 9
 110764071.779 9  86309646.109 9  21077717.978 9  21077723.108 9
 120934877.878 9  94234958.509 9  23013150.437 9  23013153.159 9
 110570816.202 9  86159061.959 9  21040938.526 9  21040942.344 9
 113718656.522 9  88611910.485 9  21639963.463 9  21639970.790 9
 125393155.713 9  97527996.513 9  23498632.893 9  23498636.091 9
 114777836.953 9  89271648.807 9  21494203.489 9  21494204.130 9
 122698148.741 9  95431871.082 9  22961302.300 9  22961307.721 9
 103505216.531 9  80504049.103 9  19376399.033 9  19376400.839 9
 121804255.913 9  94736631.658 9  22762044.892 9  22762047.602 9
 105466771.017 9  82029702.788 9  19757486.522 9  19757488.566 9
 109941637.604 9  85510157.053 9  20552433.224 9  20552434.519 9
 18  9  7  0  7 30.0000000  0 17G01G03G07G08G11G17G18G22G28G30R02R09
                                R15R16R17R18R19
 106108602.009 9  82681995.572 9  20191819.657 9  20191827.464 9
 124269057.932 9  96833001.439 9  23647639.047 9  23647646.664 9
 119622798.856 9  93212551.263 9  22763476.466 9  22763481.205 9
 123890615.154 9  96538109.995 9  23575623.895 9  23575631.576 9
 108162721.691 9  84282624.487 9  20582693.487 9  20582697.315 9
 119999347.035 9  93505965.219 9  22835131.877 9  22835136.829 9
 110833297.778 9  86363588.442 9  21090891.251 9  21090896.382 9
 120876612.429 9  94189556.876 9  23002062.879 9  23002065.597 9
 110522301.893 9  86121258.607 9  21031706.555 9  21031710.373 9
 113777299.591 9  88657606.367 9  21651122.880 9  21651130.211 9
 125343061.283 9  97489034.200 9  23489245.203 9  23489248.395 9
 114678108.918 9  89194082.582 9  21475527.614 9  21475528.249 9
 122829052.807 1  95533685.316 1  22985799.241 1  22985804.671 1
 103536941.510 9  80528724.088 9  19382338.015 9  19382339.820 9
 121906200.156 9  94815921.569 9  22781095.652 9  22781098.375 9
 105511460.521 9  82064461.294 9  19765858.370 9  19765860.413 9
 109888776.784 9  85469043.107 9  20542551.433 9  20542552.722 9
 18  9  7  0  8  0.0000000  0 17G01G03G07G08G11G17G18G22G28G30R02R09
                                R15R16R17R18R19
 106126587.894 9  82696010.560 9  20195242.248 9  20195250.051 9
 124176493.745 9  96760873.532 9  23630024.645 9  23630032.254 9
 119722890.392 9  93290544.656 9  22782523.261 9  22782528.003 9
 123968535.445 9  96598827.103 9  23590451.635 9  23590459.316 9
 108209158.542 9  84318809.041 9  20591530.130 9  20591533.959 9
 119940240.140 9  93459907.934 9  22823884.182 9  22823889.125 9
 110902973.667 9  86417881.338 9  21104150.135 9  21104155.267 9
 120818704.436 9  94144433.774 9  22991043.348 9  22991046.063 9
 110474042.455 9  86083653.851 9  21022523.089 9  21022526.906 9
 113836417.842 9  88703672.526 9  21662372.717 9  21662380.051 9
 125293548.406 9  97450524.236 9  23479966.473 9  23479969.653 9
 114578835.471 9  89116869.922 9  21456936.871 9  21456937.501 9
 122960144.779 9  95635645.717 9  23010331.332 9  23010336.767 9
 103569445.096 9  80554004.660 9  19388422.751 9  19388424.555 9
 122008137.835 9  94895206.385 9  22800145.177 9  22800147.911 9
 105556501.155 9  82099492.899 9  19774295.998 9  19774298.041 9
 109836340.514 9  85428259.359 9  20532749.012 9  20532750.297 9
 18  9  7  0  8 30.0000000  0 18G01G03G07G08G11G17G18G19G22G28G30R02
                                R09R15R16R17R18R19
 106145160.806 9  82710482.967 9  20198776.549 9  20198784.351 9
 124084066.480 9  96688852.310 9  23612436.303 9  23612443.906 9
 119823198.140 9  93368706.512 9  22801611.210 9  22801615.958 9
 124046506.492 9  96659583.736 9  23605289.052 9  23605296.740 9
 108256009.375 9  84355316.183 9  20600445.547 9  20600449.377 9
 119881274.527 9  93413960.713 9  22812663.391 9  22812668.332 9
 110973098.455 9  86472524.022 9  21117494.445 9  21117499.578 9
 131900829.25119 102779851.53619  25099904.532 9  25099908.202 9
 120761157.934 9  94099592.352 9  22980092.606 9  22980095.319 9
 110426041.474 9  86046250.491 9  21013388.805 9  21013392.621 9
 113896010.410 9  88750108.283 9  21673712.814 9  21673720.150 9
 125244622.248 9  97412470.477 9  23470797.792 9  23470800.991 9
 114480022.253 9  89040015.216 9  21438432.316 9  21438432.941 9
 123091422.869 9  95737750.869 9  23034898.258 9  23034903.700 9
 103602728.057 9  80579891.362 9  19394653.424 9  19394655.239 9
 122110068.746 9  94974485.932 9  22819193.441 9  22819196.188 9
 105601892.181 9  82134797.024 9  19782799.271 9  19782801.316 9
 109784330.180 9  85387806.888 9  20523026.221 9  20523027.504 9
 18  9  7  0  9  0.0000000  0 18G01G03G07G08G11G17G18G19G22G28G30R02
                                R09R15R16R17R18R19
 106164313.005 9  82725406.775 9  20202421.079 9  20202428.876 9
 123991772.934 9  96616935.284 9  23594873.408 9  23594881.006 9
 119923712.499 9  93447029.372 9  22820738.469 9  22820743.222 9
 124124522.056 9  96720375.051 9  23620134.946 9  23620142.642 9
 108303266.475 9  84392139.892 9  20609438.278 9  20609442.109 9
 119822444.108 9  93368118.866 9  22801468.306 9  22801473.237 9
 111043662.852 9  86527509.261 9  21130922.407 9  21130927.542 9
 131810871.407 9 102709754.506 9  25082786.130 9  25082789.802 9
 120703968.954 9  94055029.517 9  22969209.900 9  22969212.612 9
 110378294.203 9  86009044.824 9  21004302.802 9  21004306.619 9
 113956068.560 9  88796906.832 9  21685141.507 9  21685148.845 9
 125196279.145 9  97374870.343 9  23461738.273 9  23461741.459 9
 114381666.810 9  88963516.547 9  21420013.494 9  21420014.117 9
 123222877.260 9  95839993.104 9  23059498.206 9  23059503.665 9
 103636783.225 9  80606378.716 9  19401028.622 9  19401030.437 9
 122211984.880 9  95053754.017 9  22838238.921 9  22838241.672 9
 105647624.724 9  82170366.796 9  19791366.505 9  19791368.546 9
 109732739.134 9  85347680.513 9  20513381.824 9  20513383.108 9
 18  9  7  0  9 30.0000000  0 18G01G03G07G08G11G17G18G19G22G28G30R02
                                R09R15R16R17R18R19
 106184048.730 9  82740785.263 9  20206176.662 9  20206184.459 9
 123899621.860 9  96545129.292 9  23577337.612 9  23577345.200 9
 120024435.997 9  93525515.197 9  22839905.527 9  22839910.284 9
 124202586.838 9  96781204.726 9  23634990.199 9  23634997.901 9
 108350933.407 9  84429282.949 9  20618508.999 9  20618512.831 9
 119763754.049 9  93322386.359 9  22790299.954 9  22790304.884 9
 111114669.969 9  86582839.485 9  21144434.610 9  21144439.744 9
 131720986.338 9 102639714.199 9  25065681.566 9  25065685.236 9
 120647145.793 9  94010751.739 9  22958396.805 9  22958399.514 9
 110330808.059 9  85972042.634 9  20995266.489 9  20995270.306 9
 114016595.541 9  88844070.698 9  21696659.420 9  21696666.762 9
 125148527.733 9  97337730.332 9  23452789.697 9  23452792.888 9
 114283778.755 9  88887381.399 9  21401682.202 9  21401682.824 9
 123354509.930 9  95942374.026 9  23084131.497 9  23084136.967 9
 103671615.186 9  80633470.232 9  19407549.245 9  19407551.062 9
 122313890.304 9  95133013.745 9  22857282.419 9  22857285.182 9
 105693702.079 9  82206204.726 9  19799998.356 9  19800000.400 9
 109681572.593 9  85307884.343 9  20503816.758 9  20503818.035 9
 18  9  7  0 10  0.0000000  0 17G01G03G07G08G11G17G18G22G28G30R02R09
                                R15R16R17R18R19
 106204360.831 9  82756612.884 9  20210041.919 9  20210049.713 9
 123807610.725 9  96473432.324 9  23559828.460 9  23559836.043 9
 120125359.716 9  93604157.036 9  22859110.687 9  22859115.449 9
 124280695.154 9  96842068.365 9  23649853.705 9  23649861.403 9
 108399002.589 9  84466739.456 9  20627656.259 9  20627660.091 9
 119705198.894 9  93276758.986 9  22779157.263 9  22779162.188 9
 111186111.424 9  86638508.141 9  21158029.475 9  21158034.611 9
 120590684.771 9  93966756.150 9  22947652.620 9  22947655.326 9
 110283579.229 9  85935240.958 9  20986279.134 9  20986282.949 9
 114077583.193 9  88891593.531 9  21708264.994 9  21708272.339 9
 125101365.556 9  97301048.695 9  23443951.484 9  23443954.661 9
 114186356.273 9  88811608.384 9  21383438.081 9  21383438.697 9
 123486311.671 9  96044886.497 9  23108796.392 9  23108801.860 9
 103707217.258 9  80661160.706 9  19414214.047 9  19414215.871 9
 122415777.636 9  95212259.388 9  22876322.546 9  22876325.323 9
 105740115.945 9  82242304.410 9  19808693.229 9  19808695.271 9
 109630824.711 9  85268413.775 9  20494329.971 9  20494331.247 9
 18  9  7  0 10 30.0000000  0 18G01G03G07G08G11G17G18G19G22G28G30R02
                                R09R15R16R17R18R19
 106225254.972 9  82772894.043 9  20214017.934 9  20214025.726 9
 123715749.768 9  96401852.402 9  23542347.867 9  23542355.439 9
 120226487.895 9  93682958.199 9  22878354.751 9  22878359.517 9
 124358853.935 9  96902971.267 9  23664726.860 9  23664734.569 9
 108447479.135 9  84504513.386 9  20636881.040 9  20636884.873 9
 119646785.366 9  93231241.983 9  22768041.515 9  22768046.431 9
 111257991.636 9  86694518.696 9  21171707.824 9  21171712.961 9
 131541425.308 9 102499796.494 9  25031512.252 9  25031515.927 9
 120534595.885 9  93923050.545 9  22936979.245 9  22936981.945 9
 110236616.419 9  85898646.565 9  20977342.405 9  20977346.219 9
 114139036.230 9  88939479.006 9  21719959.124 9  21719966.471 9
 125054802.310 9  97264832.840 9  23435225.549 9  23435228.726 9
 114089410.658 9  88736206.262 9  21365283.265 9  21365283.875 9
 123618286.812 9  96147533.765 9  23133493.787 9  23133499.271 9
 103743595.386 9  80689454.789 9  19421024.121 9  19421025.949 9
 122517652.440 9  95291495.323 9  22895360.306 9  22895363.088 9
 105786871.265 9  82278669.645 9  19817452.087 9  19817454.131 9
 109580502.355 9  85229274.172 9  20484922.733 9  20484924.006 9
 18  9  7  0 11  0.0000000  0 18G01G03G07G08G11G17G18G19G22G28G30R02
                                R09R15R16R17R18R19
 106246725.605 9  82789624.411 9  20218103.656 9  20218111.447 9
 123624038.095 9  96330388.802 9  23524895.685 9  23524903.247 9
 120327812.512 9  93761912.412 9  22897636.211 9  22897640.985 9
 124437058.371 9  96963909.756 9  23679608.694 9  23679616.411 9
 108496357.789 9  84542600.650 9  20646182.338 9  20646186.170 9
 119588509.332 9  93185832.107 9  22756951.938 9  22756956.850 9
 111330303.843 9  86750865.867 9  21185468.382 9  21185473.519 9
 131451752.864 9 102429921.951 9  25014448.087 9  25014451.740 9
 120478877.276 9  93879633.466 9  22926376.331 9  22926379.028 9
 110189917.300 9  85862257.644 9  20968455.856 9  20968459.669 9
 114200947.995 9  88987721.927 9  21731740.551 9  21731747.901 9
 125008836.863 9  97229081.990 9  23426611.605 9  23426614.769 9
 113992941.779 9  88661174.919 9  21347217.738 9  21347218.346 9
 123750427.558 1  96250309.846 1  23158222.167 1  23158227.663 1
 103780744.353 9  80718348.413 9  19427978.498 9  19427980.330 9
 122619509.026 9  95370717.044 9  22914394.694 9  22914397.493 9
 105833961.314 9  82315295.250 9  19826273.631 9  19826275.673 9
 109530601.458 9  85190462.368 9  20475594.283 9  20475595.555 9
 18  9  7  0 11 30.0000000  0 18G01G03G07G08G11G17G18G19G22G28G30R02
                                R09R15R16R17R18R19
 106268771.710 9  82806803.202 9  20222298.884 9  20222306.674 9
 123532479.330 9  96259044.317 9  23507472.626 9  23507480.186 9
 120429331.672 9  93841018.227 9  22916954.682 9  22916959.462 9
 124515308.732 9  97024884.028 9  23694499.269 9  23694506.994 9
 108545636.980 9  84581000.012 9  20655559.862 9  20655563.696 9
 119530370.920 9  93140529.475 9  22745888.546 9  22745893.452 9
 111403046.048 9  86807548.105 9  21199310.763 9  21199315.900 9
 131362152.185 9 102360103.271 9  24997397.621 9  24997401.266 9
 120423531.978 9  93836507.273 9  22915844.461 9  22915847.155 9
 110143484.311 9  85826076.103 9  20959619.946 9  20959623.756 9
 114263316.586 9  89036320.813 9  21743608.911 9  21743616.265 9
 124963473.187 9  97193799.117 9  23418110.482 9  23418113.650 9
 113896953.929 9  88586517.740 9  21329242.270 9  21329242.868 9
 123882730.334 9  96353212.017 9  23182980.819 9  23182986.312 9
 103818663.554 9  80747841.128 9  19435077.050 9  19435078.881 9
 122721346.183 9  95449923.685 9  22933425.428 9  22933428.235 9
 105881384.340 9  82352179.824 9  19835157.563 9  19835159.606 9
 109481121.378 9  85151977.881 9  20466344.490 9  20466345.757 9
 18  9  7  0 12  0.0000000  0 18G01G03G07G08G11G17G18G19G22G28G30R02
                                R09R15R16R17R18R19
 106291392.273 9  82824429.621 9  20226603.430 9  20226611.217 9
 123441077.082 9  96187821.814 9  23490079.335 9  23490086.889 9
 120531042.515 9  93920273.417 9  22936309.622 9  22936314.404 9
 124593605.158 9  97085894.192 9  23709398.613 9  23709406.347 9
 108595315.182 9  84619710.292 9  20665013.315 9  20665017.151 9
 119472370.356 9  93095334.246 9  22734851.394 9  22734856.296 9
 111476215.523 9  86864563.279 9  21213234.452 9  21213239.590 9
 131272623.521 9 102290340.713 9  24980360.854 9  24980364.491 9
 120368562.735 9  93793674.120 9  22905384.145 9  22905386.832 9
 110097319.470 9  85790103.505 9  20950835.064 9  20950838.874 9
 114326139.941 9  89085274.057 9  21755563.813 9  21755571.172 9
 124918713.896 9  97158986.436 9  23409722.536 9  23409725.679 9
 113801451.624 9  88512238.180 9  21311357.748 9  21311358.344 9
 124015192.191 9  96456237.858 9  23207769.284 9  23207774.789 9
 103857352.314 9  80777932.367 9  19442319.681 9  19442321.516 9
 122823163.088 9  95529114.563 9  22952452.386 9  22952455.205 9
 105929138.324 9  82389321.811 9  19844103.494 9  19844105.537 9
 109432062.839 9  85113821.251 9  20457173.505 9  20457174.770 9
 18  9  7  0 12 30.0000000  0 17G01G03G07G08G11G17G18G22G28G30R02R09
                                R15R16R17R18R19
 106314585.799 9  82842502.507 9  20231017.004 9  20231024.790 9
 123349834.599 9  96116723.796 9  23472716.453 9  23472724.001 9
 120632941.902 9  93999675.515 9  22955700.447 9  22955705.235 9
 124671947.224 9  97146939.932 9  23724306.631 9  23724314.372 9
 108645390.716 9  84658730.185 9  20674542.375 9  20674546.212 9
 119414507.760 9  93050246.530 9  22723840.492 9  22723845.389 9
 111549810.174 9  86921909.753 9  21227239.054 9  21227244.193 9
 120313972.190 9  93751136.048 9  22894995.898 9  22894998.582 9
 110051424.863 9  85754341.478 9  20942101.608 9  20942105.416 9
 114389415.649 9  89134579.782 9  21767604.796 9  21767612.160 9
 124874562.539 9  97124646.544 9  23401448.552 9  23401451.683 9
 113706438.904 9  88438339.421 9  21293564.901 9  21293565.492 9
 124147810.120 1  96559385.096 1  23232586.951 1  23232592.466 1
 103896809.592 9  80808621.364 9  19449706.164 9  19449707.998 9
 122924957.992 9  95608288.313 9  22971475.244 9  22971478.078 9
 105977220.966 9  82426719.427 9  19853110.989 9  19853113.030 9
 109383425.287 9  85075992.066 9  20448081.211 9  20448082.471 9
 18  9  7  0 13  0.0000000  0 17G01G03G07G08G11G17G18G22G28G30R02R09
                                R15R16R17R18R19
 106338350.304 9  82861020.312 9  20235539.233 9  20235547.016 9
 123258754.580 9  96045752.378 9  23455384.482 9  23455392.024 9
 120735026.077 9  94079221.587 9  22975126.448 9  22975131.246 9
 124750334.050 9  97208020.543 9  23739223.173 9  23739230.922 9
 108695861.475 9  84698058.042 9  20684146.647 9  20684150.485 9
 119356782.381 9  93005265.743 9  22712855.697 9  22712860.586 9
 111623826.458 9  86979584.783 9  21241323.882 9  21241329.021 9
 120259762.244 9  93708894.550 9  22884680.074 9  22884682.754 9
 110005801.705 9  85718790.969 9  20933419.807 9  20933423.614 9
 114453140.733 9  89184235.680 9  21779731.285 9  21779738.652 9
 124831020.894 9  97090780.820 9  23393288.867 9  23393291.997 9
 113611919.385 9  88364824.251 9  21275864.423 9  21275865.011 9
 124280580.469 9  96662650.854 9  23257433.163 9  23257438.694 9
 103937033.640 9  80839906.714 9  19457236.205 9  19457238.045 9
 123026729.030 9  95687443.544 9  22990493.610 9  22990496.450 9
 106025629.468 9  82464370.482 9  19862179.535 9  19862181.576 9
 109335208.080 9  85038489.803 9  20439067.507 9  20439068.764 9
 18  9  7  0 13 30.0000000  0 18G01G03G07G08G11G17G18G22G28G30R02R03
                                R09R15R16R17R18R19
 106362686.690 9  82879983.730 9  20240170.293 9  20240178.076 9
 123167842.739 9  95974912.010 9  23438084.513 9  23438092.048 9
 120837294.419 9  94158911.181 9  22994587.484 9  22994592.287 9
 124828768.202 9  97269138.020 9  23754148.729 9  23754156.489 9
 108746728.044 9  84737694.323 9  20693826.238 9  20693830.078 9
 119299196.775 9  92960393.877 9  22701897.494 9  22701902.375 9
 111698264.268 9  87037588.274 9  21255488.924 9  21255494.062 9
 120205937.811 9  93666953.465 9  22874437.602 9  22874440.273 9
 109960454.507 9  85683455.499 9  20924790.515 9  20924794.320 9
 114517315.152 9  89234241.702 9  21791943.285 9  21791950.657 9
 124788094.468 9  97057393.667 9  23385244.423 9  23385247.538 9
 129047174.07219 100370007.24819  24107109.110 9  24107113.294 9
 113517899.485 9  88291697.691 9  21258257.495 9  21258258.076 9
 124413502.091 9  96766034.298 9  23282307.661 9  23282313.202 9
 103978025.731 9  80871789.432 9  19464910.025 9  19464911.869 9
 123128477.331 9  95766581.044 9  23009507.762 9  23009510.618 9
 106074363.853 9  82502275.015 9  19871309.119 9  19871311.158 9
 109287413.319 9  85001316.116 9  20430132.768 9  20430134.022 9
 18  9  7  0 14  0.0000000  0 18G01G03G07G08G11G17G18G22G28G30R02R03
                                R09R15R16R17R18R19
 106387591.509 9  82899390.082 9  20244909.522 9  20244917.306 9
 123077100.294 9  95904203.643 9  23420816.776 9  23420824.304 9
 120939741.871 9  94238740.359 9  23014082.590 9  23014087.395 9
 124907247.089 9  97330290.382 9  23769082.778 9  23769090.542 9
 108797986.848 9  84777636.247 9  20703580.465 9  20703584.305 9
 119241748.857 9  92915629.279 9  22690965.509 9  22690970.386 9
 111773119.039 9  87095916.666 9  21269733.314 9  21269738.452 9
 120152499.223 9  93625313.033 9  22864268.557 9  22864271.222 9
 109915382.832 9  85648334.715 9  20916213.659 9  20916217.464 9
 114581934.452 9  89284594.389 9  21804239.940 9  21804247.315 9
 124745784.372 9  97024485.829 9  23377315.519 9  23377318.630 9
 128946709.611 9 100291868.282 9  24088341.461 9  24088345.631 9
 113424381.195 9  88218961.238 9  21240744.528 9  21240745.110 9
 124546569.700 9  96869531.280 9  23307209.485 9  23307215.037 9
 104019782.573 9  80904266.971 9  19472726.997 9  19472728.842 9
 123230199.223 9  95845698.010 9  23028516.974 9  23028519.844 9
 106123419.920 9  82540429.743 9  19880498.966 9  19880501.003 9
 109240038.522 9  84964469.071 9  20421276.536 9  20421277.785 9
 18  9  7  0 14 30.0000000  0 19G01G03G07G08G11G17G18G19G22G28G30R02
                                R03R09R15R16R17R18R19
 106413058.537 9  82919234.522 9  20249755.735 9  20249763.518 9
 122986525.835 9  95833626.161 9  23403581.016 9  23403588.539 9
 121042360.668 9  94318703.023 9  23033610.324 9  23033615.137 9
 124985765.558 9  97391473.579 9  23784024.365 9  23784032.135 9
 108849630.855 9  84817878.333 9  20713407.991 9  20713411.830 9
 119184433.448 9  92870967.950 9  22680058.727 9  22680063.598 9
 111848383.452 9  87154564.265 9  21284055.652 9  21284060.790 9
 130826078.179 9 101942383.447 9  24895385.993 9  24895389.594 9
 120099444.392 9  93583971.639 9  22854172.533 9  22854175.190 9
 109870583.758 9  85613426.356 9  20907688.671 9  20907692.473 9
 114646991.466 9  89335288.149 9  21816619.891 9  21816627.270 9
 124704088.079 9  96992055.455 9  23369501.596 9  23369504.688 9
 128846368.670 9 100213825.394 9  24069596.882 9  24069601.035 9
 113331363.784 9  88146614.389 9  21223325.335 9  21223325.911 9
 124679775.193 1  96973135.504 1  23332137.112 1  23332142.676 1
 104062297.985 9  80937334.509 9  19480685.975 9  19480687.821 9
 123331888.649 9  95924789.726 9  23047520.118 9  23047523.002 9
 106172790.534 9  82578829.095 9  19889747.757 9  19889749.797 9
 109193078.952 9  84927944.984 9  20412497.923 9  20412499.166 9
 18  9  7  0 15  0.0000000  0 19G01G03G07G08G11G17G18G19G22G28G30R02
                                R03R09R15R16R17R18R19
 106439094.017 9  82939521.909 9  20254710.122 9  20254717.905 9
 122896130.359 9  95763188.140 9  23386379.319 9  23386386.839 9
 121145155.116 9  94398802.568 9  23053171.476 9  23053176.295 9
 125064331.441 9  97452693.713 9  23798974.982 9  23798982.760 9
 108901666.581 9  84858425.657 9  20723310.056 9  20723313.895 9
 119127258.860 9  92826416.343 9  22669178.750 9  22669183.616 9
 111924062.688 9  87213535.094 9  21298456.935 9  21298462.074 9
 130736991.199 9 101872965.003 9  24878433.318 9  24878436.924 9
 120046783.342 9  93542937.093 9  22844151.440 9  22844154.087 9
 109826067.166 9  85578738.098 9  20899217.448 9  20899221.252 9
 114712491.504 9  89386327.121 9  21829084.148 9  21829091.532 9
 124663016.904 9  96960111.241 9  23361804.851 9  23361807.935 9
 128746163.815 9 100135888.365 9  24050877.714 9  24050881.848 9
 113238859.186 9  88074666.368 9  21206002.196 9  21206002.772 9
 124813123.073 9  97076850.457 9  23357091.398 9  23357096.977 9
 104105578.714 9  80970997.290 9  19488788.224 9  19488790.072 9
 123433552.276 9  96003861.388 9  23066518.432 9  23066521.328 9
 106222481.350 9  82617477.518 9  19899056.513 9  19899058.551 9
 109146541.657 9  84891749.327 9  20403798.254 9  20403799.493 9
 18  9  7  0 15 30.0000000  0 19G01G03G07G08G11G17G18G19G22G28G30R02
                                R03R09R15R16R17R18R19
 106465692.134 9  82960247.725 9  20259771.567 9  20259779.348 9
 122805912.915 9  95692888.861 9  23369211.489 9  23369219.003 9
 121248118.607 9  94479033.826 9  23072764.802 9  23072769.630 9
 125142940.034 9  97513947.119 9  23813933.732 9  23813941.521 9
 108954087.769 9  84899273.336 9  20733285.477 9  20733289.315 9
 119070220.446 9  92781970.851 9  22658324.682 9  22658329.541 9
 112000149.514 9  87272823.526 9  21312935.780 9  21312940.919 9
 130647978.082 9 101803604.252 9  24861494.595 9  24861498.172 9
 119994514.383 9  93502208.053 9  22834204.973 9  22834207.616 9
 109781830.832 9  85544268.230 9  20890799.552 9  20890803.355 9
 114778427.788 9  89437706.034 9  21841631.413 9  21841638.799 9
 124622569.133 9  96928651.883 9  23354224.942 9  23354228.021 9
 128646094.945 9 100058057.023 9  24032184.007 9  24032188.141 9
 113146866.913 9  88003116.837 9  21188774.988 9  21188775.560 9
 124946605.139 9  97180669.801 9  23382070.776 9  23382076.365 9
 104149619.026 9  81005250.855 9  19497032.671 9  19497034.522 9
 123535184.425 9  96082908.588 9  23085510.848 9  23085513.750 9
 106272485.821 9  82656369.882 9  19908424.037 9  19908426.076 9
 109100422.431 9  84855878.839 9  20395176.736 9  20395177.970 9
 18  9  7  0 16  0.0000000  0 19G01G03G07G08G11G17G18G19G22G28G30R02
                                R03R09R15R16R17R18R19
 106492851.482 9  82981410.849 9  20264939.823 9  20264947.604 9
 122715876.917 9  95622730.960 9  23352078.194 9  23352085.702 9
 121351247.836 9  94559394.231 9  23092389.667 9  23092394.503 9
 125221591.396 9  97575233.861 9  23828900.614 9  23828908.411 9
 109006893.108 9  84940420.354 9  20743333.998 9  20743337.836 9
 119013318.315 9  92737631.552 9  22647496.548 9  22647501.402 9
 112076642.156 9  87332428.172 9  21327491.853 9  21327496.995 9
 130559039.188 9 101734301.210 9  24844570.092 9  24844573.670 9
 119942640.260 9  93461786.695 9  22824333.628 9  22824336.262 9
 109737876.624 9  85510018.198 9  20882435.344 9  20882439.147 9
 114844797.961 9  89489423.032 9  21854261.252 9  21854268.643 9
 124582747.781 9  96897679.717 9  23346762.440 9  23346765.521 9
 128546166.752 9  99980335.141 9  24013516.547 9  24013520.670 9
 113055391.402 9  87931969.240 9  21171644.547 9  21171645.114 9
 125080218.988 9  97284591.622 9  23407074.832 9  23407080.436 9
 104194417.839 9  81040094.363 9  19505419.112 9  19505420.966 9
 123636783.624 9  96161930.156 9  23104497.109 9  23104500.020 9
 106322801.763 9  82695504.508 9  19917849.906 9  19917851.943 9
 109054720.780 9  84820333.132 9  20386633.278 9  20386634.508 9
 18  9  7  0 16 30.0000000  0 18G01G03G07G08G11G17G18G22G28G30R02R03
                                R09R15R16R17R18R19
 106520571.791 9  83003011.096 9  20270214.817 9  20270222.597 9
 122626026.917 9  95552717.985 9  23334980.298 9  23334987.804 9
 121454540.985 9  94639882.362 9  23112045.728 9  23112050.572 9
 125300286.575 9  97636554.759 9  23843875.824 9  23843883.626 9
 109060082.130 9  84981866.344 9  20753455.533 9  20753459.372 9
 118956553.775 9  92693399.451 9  22636694.609 9  22636699.461 9
 112153538.732 9  87392347.579 9  21342124.787 9  21342129.930 9
 119891164.408 9  93421675.674 9  22814538.075 9  22814540.701 9
 109694207.623 9  85475990.412 9  20874125.404 9  20874129.205 9
 114911600.844 9  89541477.206 9  21866973.433 9  21866980.829 9
 124543556.290 9  96867197.490 9  23339417.939 9  23339421.009 9
 128446384.696 9  99902726.956 9  23994876.362 9  23994880.465 9
 112964437.845 9  87861227.571 9  21154611.878 9  21154612.448 9
 125213962.579 9  97388614.396 9  23432103.135 9  23432108.744 9
 104239974.959 9  81075527.680 9  19513947.499 9  19513949.353 9
 123738350.124 9  96240926.275 9  23123477.273 9  23123480.194 9
 106373428.296 9  82734880.694 9  19927333.966 9  19927336.005 9
 109009437.949 9  84785113.164 9  20378168.122 9  20378169.349 9
 18  9  7  0 17  0.0000000  0 18G01G03G07G08G11G17G18G22G28G30R02R03
                                R09R15R16R17R18R19
 106548851.756 9  83025047.432 9  20275596.316 9  20275604.096 9
 122536366.509 9  95482852.763 9  23317918.467 9  23317925.964 9
 121557995.470 9  94720496.235 9  23131732.470 9  23131737.318 9
 125379025.752 9  97697909.928 9  23858859.417 9  23858867.228 9
 109113653.327 9  85023610.150 9  20763649.781 9  20763653.616 9
 118899926.929 9  92649274.657 9  22625918.863 9  22625923.709 9
 112230837.063 9  87452580.036 9  21356834.177 9  21356839.322 9
 119840089.853 9  93381877.344 9  22804818.891 9  22804821.512 9
 109650826.289 9  85442186.779 9  20865870.208 9  20865874.008 9
 114978834.175 9  89593866.798 9  21879767.523 9  21879774.923 9
 124504998.112 9  96837207.837 9  23332192.123 9  23332195.183 9
 128346753.864 9  99825236.330 9  23976264.470 9  23976268.568 9
 112874010.655 9  87790895.351 9  21137677.741 9  21137678.302 9
 125347832.417 9  97492735.300 9  23457155.110 9  23457160.738 9
 104286289.435 9  81111550.045 9  19522617.670 9  19522619.525 9
 123839882.832 9  96319896.071 9  23142451.151 9  23142454.094 9
 106424363.402 9  82774496.876 9  19936875.836 9  19936877.878 9
 108964573.789 9  84750218.817 9  20369781.241 9  20369782.468 9
 18  9  7  0 17 30.0000000  0 18G01G03G07G08G11G17G18G22G28G30R02R03
                                R09R15R16R17R18R19
 106577688.281 9  83047517.451 9  20281083.725 9  20281091.505 9
 122446897.442 9  95413136.624 9  23300893.056 9  23300900.550 9
 121661606.654 9  94801232.192 9  23151449.046 9  23151453.901 9
 125457807.271 9  97759298.098 9  23873851.062 9  23873858.879 9
 109167603.233 9  85065649.043 9  20773916.103 9  20773919.936 9
 118843436.500 9  92605256.161 9  22615169.076 9  22615173.918 9
 112308533.141 9  87513122.430 9  21371619.253 9  21371624.398 9
 119789417.074 9  93342392.092 9  22795176.159 9  22795178.772 9
 109607732.751 9  85408607.400 9  20857669.779 9  20857673.579 9
 115046493.978 9  89646588.705 9  21892642.769 9  21892650.173 9
 124467074.452 9  96807711.660 9  23325085.243 9  23325088.303 9
 128247277.162 9  99747865.626 9  23957681.339 9  23957685.422 9
 112784112.288 9  87720974.408 9  21120842.658 9  21120843.217 9
 125481824.082 9  97596950.972 9  23482229.873 9  23482235.517 9
 104333357.781 9  81148158.722 9  19531428.990 9  19531430.854 9
 123941378.890 9  96398837.440 9  23161418.122 9  23161421.067 9
 106475603.456 9  82814350.249 9  19946474.827 9  19946476.869 9
 108920126.289 9  84715648.560 9  20361472.235 9  20361473.456 9
 18  9  7  0 18  0.0000000  0 19G01G03G07G08G11G17G18G19G22G28G30R02
                                R03R09R15R16R17R18R19
 106607078.516 9  83070418.938 9  20286676.496 9  20286684.275 9
 122357621.842 9  95343571.254 9  23283904.450 9  23283911.936 9
 121765370.270 9  94882086.916 9  23171194.637 9  23171199.502 9
 125536629.655 9  97820718.086 9  23888850.502 9  23888858.331 9
 109221929.024 9  85107980.829 9  20784253.957 9  20784257.790 9
 118787080.732 9  92561342.591 9  22604444.919 9  22604449.757 9
 112386622.916 9  87573971.592 9  21386479.253 9  21386484.401 9
 130204043.738 1 101457664.442 1  24777029.491 1  24777037.205 1
 119739147.391 9  93303220.948 9  22785610.128 9  22785612.732 9
 109564927.785 9  85375252.884 9  20849524.263 9  20849528.062 9
 115114576.434 9  89699639.954 9  21905598.441 9  21905605.849 9
 124429786.578 9  96778709.994 9  23318097.502 9  23318100.558 9
 128147957.805 9  99670617.263 9  23939127.629 9  23939131.706 9
 112694745.636 9  87651467.010 9  21104107.157 9  21104107.716 9
 125615932.228 9  97701257.295 9  23507326.393 9  23507332.041 9
 104381177.489 9  81185351.809 9  19540380.954 9  19540382.823 9
 124042835.996 9  96477748.464 9  23180377.851 9  23180380.810 9
 106527144.844 9  82854438.000 9  19956130.262 9  19956132.303 9
 108876093.925 9  84681401.197 9  20353240.826 9  20353242.040 9
 18  9  7  0 18 30.0000000  0 19G01G03G07G08G11G17G18G19G22G28G30R02
                                R03R09R15R16R17R18R19
 106637022.954 9  83093752.270 9  20292374.731 9  20292382.509 9
 122268545.115 9  95274160.826 9  23266953.706 9  23266961.190 9
 121869285.252 9  94963059.616 9  23190969.011 9  23190973.879 9
 125615495.069 9  97882171.669 9  23903858.081 9  23903865.907 9
 109276631.056 9  85150605.791 9  20794663.406 9  20794667.238 9
 118730862.196 9  92517535.954 9  22593746.876 9  22593751.710 9
 112465105.869 9  87635127.132 9  21401414.068 9  21401419.219 9
 130115485.314 1 101388657.944 1  24760177.333 1  24760185.031 1
 119689285.451 9  93264367.518 9  22776121.694 9  22776124.291 9
 109522415.287 9  85342126.263 9  20841434.403 9  20841438.202 9
 115183081.112 9  89753020.213 9  21918634.455 9  21918641.866 9
 124393139.416 9  96750206.690 9  23311229.807 9  23311232.852 9
 128048802.584 9  99593496.546 9  23920604.593 9  23920608.668 9
 112605916.678 9  87582377.848 9  21087472.326 9  21087472.879 9
 125750156.769 9  97805654.033 9  23532444.780 9  23532450.458 9
 104429749.167 9  81223129.781 9  19549473.674 9  19549475.542 9
 124144254.925 9  96556629.797 9  23199330.443 9  23199333.416 9
 106578987.539 9  82894760.095 9  19965842.146 9  19965844.188 9
 108832478.486 9  84647478.059 9  20345087.394 9  20345088.612 9
 18  9  7  0 19  0.0000000  0 19G01G03G07G08G11G17G18G19G22G28G30R02
                                R03R09R15R16R17R18R19
 106667519.517 9  83117515.824 9  20298178.035 9  20298185.813 9
 122179670.052 9  95204907.556 9  23250041.324 9  23250048.802 9
 121973348.332 9  95044147.705 9  23210771.576 9  23210776.450 9
 125694402.493 9  97943657.965 9  23918873.670 9  23918881.499 9
 109331707.360 9  85193522.396 9  20805144.074 9  20805147.906 9
 118674780.477 9  92473835.931 9  22583074.866 9  22583079.696 9
 112543979.120 9  87696586.800 9  21416423.155 9  21416428.307 9
 130027004.290 1 101319711.661 1  24743339.977 1  24743347.683 1
 119639832.853 9  93225833.051 9  22766711.159 9  22766713.749 9
 109480197.051 9  85309228.936 9  20833400.540 9  20833404.339 9
 115252005.040 9  89806727.144 9  21931750.262 9  21931757.679 9
 124357134.745 9  96722203.073 9  23304482.535 9  23304485.577 9
 127949815.077 9  99516506.337 9  23902112.841 9  23902116.897 9
 112517629.012 9  87513709.682 9  21070938.869 9  21070939.417 9
 125884492.959 9  97910137.675 9  23557584.012 9  23557589.704 9
 104479070.930 9  81261491.136 9  19558706.823 9  19558708.696 9
 124245633.837 9  96635480.028 9  23218275.541 9  23218278.522 9
 106631128.939 9  82935314.516 9  19975609.989 9  19975612.030 9
 108789278.985 9  84613878.464 9  20337011.690 9  20337012.905 9
 18  9  7  0 19 30.0000000  0 19G01G03G07G08G11G17G18G19G22G28G30R02
                                R03R09R15R16R17R18R19
 106698566.629 9  83141708.382 9  20304086.101 9  20304093.879 9
 122091000.136 9  95135814.139 9  23233167.982 9  23233175.454 9
 122077556.760 9  95125349.052 9  23230601.799 9  23230606.680 9
 125773351.803 9  98005176.870 9  23933897.253 9  23933905.091 9
 109387156.255 9  85236729.333 9  20815695.644 9  20815699.474 9
 118618835.440 9  92430242.412 9  22572428.867 9  22572433.693 9
 112623240.042 9  87758348.553 9  21431506.010 9  21431511.164 9
 129938600.844 1 101250825.860 1  24726517.360 1  24726525.065 1
 119590792.469 9  93187619.800 9  22757379.057 9  22757381.639 9
 109438274.999 9  85276562.408 9  20825423.034 9  20825426.831 9
 115321345.742 9  89860758.854 9  21944945.363 9  21944952.782 9
 124321775.721 9  96694701.647 9  23297856.242 9  23297859.275 9
 127851000.659 9  99439650.701 9  23883653.461 9  23883657.512 9
 112429886.681 9  87445465.650 9  21054507.547 9  21054508.094 9
 126018938.727 9  98014706.472 9  23582743.802 9  23582749.527 9
 104529141.275 9  81300434.711 9  19568080.117 9  19568081.995 9
 124346971.828 9  96714298.387 9  23237213.024 9  23237216.024 9
 106683566.886 9  82976099.584 9  19985433.385 9  19985435.426 9
 108746495.218 9  84580602.238 9  20329013.689 9  20329014.894 9
 18  9  7  0 20  0.0000000  0 18G01G03G07G08G11G17G18G22G28G30R02R03
                                R09R15R16R17R18R19
 106730159.445 9  83166326.169 9  20310098.008 9  20310105.784 9
 122002535.411 9  95066880.615 9  23216333.683 9  23216341.148 9
 122181903.932 9  95206658.494 9  23250458.438 9  23250463.329 9
 125852340.045 9  98066726.124 9  23948928.235 9  23948936.079 9
 109442972.726 9  85280222.688 9  20826317.164 9  20826320.994 9
 118563023.840 9  92386752.872 9  22561808.259 9  22561813.081 9
 112702882.772 9  87820407.816 9  21446661.523 9  21446666.678 9
 119542163.250 9  93149726.929 9  22748125.204 9  22748127.780 9
 109396647.770 9  85244125.604 9  20817501.638 9  20817505.435 9
 115391097.553 9  89915110.889 9  21958218.711 9  21958226.135 9
 124287061.139 9  96667701.459 9  23291350.713 9  23291353.736 9
 127752360.134 9  99362930.306 9  23865226.572 9  23865230.620 9
 112342690.471 9  87377646.383 9  21038178.493 9  21038179.038 9
 126153486.406 1  98119354.619 1  23607922.601 1  23607928.338 1
 104579955.071 9  81339956.544 9  19577592.572 9  19577594.453 9
 124448264.494 9  96793081.486 9  23256142.043 9  23256145.064 9
 106736295.973 9  83017111.079 9  19995311.332 9  19995313.378 9
 108704123.660 9  84547646.572 9  20321092.780 9  20321093.988 9
 18  9  7  0 20 30.0000000  0 18G01G03G07G08G11G17G18G22G28G30R02R03
                                R09R15R16R17R18R19
 106762298.820 9  83191369.842 9  20316213.925 9  20316221.699 9
 121914281.811 9  94998111.619 9  23199539.549 9  23199547.004 9
 122286389.469 9  95288075.781 9  23270341.386 9  23270346.280 9
 125931369.336 9  98128307.387 9  23963967.011 9  23963974.856 9
 109499157.404 9  85324002.961 9  20837008.750 9  20837012.579 9
 118507348.247 9  92343369.305 9  22551213.537 9  22551218.356 9
 112782907.491 9  87882764.735 9  21461889.724 9  21461894.881 9
 119493950.296 9  93112158.421 9  22738950.564 9  22738953.132 9
 109355319.808 9  85211922.002 9  20809637.184 9  20809640.981 9
 115461260.331 9  89969783.170 9  21971570.254 9  21971577.682 9
 124252996.571 9  96641206.819 9  23284967.010 9  23284970.027 9
 127653900.681 9  99286350.783 9  23846833.481 9  23846837.517 9
 112256047.019 9  87310257.060 9  21021952.937 9  21021953.475 9
 126288136.154 9  98224082.083 9  23633120.553 9  23633126.317 9
 104631513.545 9  81380057.555 9  19587244.444 9  19587246.331 9
 124549513.113 9  96871830.359 9  23275062.807 9  23275065.840 9
 106789316.586 9  83058349.344 9  20005243.872 9  20005245.915 9
 108662166.163 9  84515013.010 9  20313249.235 9  20313250.431 9
 18  9  7  0 21  0.0000000  0 18G01G03G07G08G11G17G18G22G28G30R02R03
                                R09R15R16R17R18R19
 106794982.336 9  83216837.523 9  20322433.386 9  20322441.159 9
 121826241.833 9  94929509.066 9  23182786.078 9  23182793.526 9
 122391009.737 9  95369598.022 9  23290249.995 9  23290254.901 9
 126010439.152 9  98189920.227 9  23979013.500 9  23979021.345 9
 109555707.916 9  85368068.304 9  20847769.948 9  20847773.774 9
 118451807.822 9  92300091.062 9  22540644.538 9  22540649.354 9
 112863310.540 9  87945416.445 9  21477189.928 9  21477195.089 9
 119446155.045 9  93074915.394 9  22729855.410 9  22729857.972 9
 109314292.332 9  85179952.536 9  20801829.918 9  20801833.716 9
 115531830.780 9  90024773.107 9  21984999.381 9  21985006.815 9
 124219583.514 9  96615218.928 9  23278705.386 9  23278708.393 9
 127555626.137 9  99209915.101 9  23828474.916 9  23828478.934 9
 112169959.527 9  87243300.108 9  21005831.525 9  21005832.067 9
 126422883.238 1  98328885.287 1  23658336.694 1  23658342.479 1
 104683813.859 9  81420735.573 9  19597035.176 9  19597037.063 9
 124650715.707 9  96950543.407 9  23293974.990 9  23293978.042 9
 106842625.941 9  83099812.171 9  20015230.514 9  20015232.558 9
 108620621.425 9  84482700.427 9  20305482.891 9  20305484.090 9
 18  9  7  0 21 30.0000000  0 19G01G03G07G08G11G17G18G19G22G28G30R02
                                R03R09R15R16R17R18R19
 106828206.553 9  83242726.525 9  20328755.743 9  20328763.516 9
 121738417.098 9  94861074.233 9  23166073.567 9  23166081.009 9
 122495760.118 9  95451221.653 9  23310183.362 9  23310188.278 9
 126089547.320 9  98251562.927 9  23994067.305 9  23994075.157 9
 109612621.083 9  85412416.222 9  20858600.166 9  20858603.994 9
 118396401.248 9  92256917.128 9  22530101.002 9  22530105.814 9
 112944087.881 9  88008359.829 9  21492561.344 9  21492566.504 9
 129585745.30015 100975888.83415  24659359.518 5  24659363.449 5
 119398777.969 9  93037998.228 9  22720839.825 9  22720842.379 9
 109273565.591 9  85148217.420 9  20794079.872 9  20794083.668 9
 115602804.591 9  90080077.369 9  21998505.253 9  21998512.688 9
 124186822.698 9  96589738.349 9  23272565.983 9  23272568.976 9
 127457539.120 9  99133625.302 9  23810151.361 9  23810155.354 9
 112084430.000 9  87176777.158 9  20989814.581 9  20989815.119 9
 126557723.246 9  98433760.802 9  23683570.197 9  23683575.994 9
 104736852.953 9  81461988.195 9  19606964.210 9  19606966.099 9
 124751869.709 9  97029218.657 9  23312878.095 9  23312881.168 9
 106896220.070 9  83141496.499 9  20025270.496 9  20025272.539 9
 108579487.570 9  84450707.456 9  20297793.330 9  20297794.523 9
 18  9  7  0 22  0.0000000  0 19G01G03G07G08G11G17G18G19G22G28G30R02
                                R03R09R15R16R17R18R19
 106861973.318 9  83269038.297 9  20335181.340 9  20335189.111 9
 121650814.570 9  94792812.557 9  23149403.335 9  23149410.768 9
 122600641.060 9  95532947.013 9  23330141.579 9  23330146.507 9
 126168697.493 9  98313238.344 9  24009129.114 9  24009136.977 9
 109669898.311 9  85457047.831 9  20869499.658 9  20869503.486 9
 118341131.949 9  92213850.161 9  22519583.590 9  22519588.397 9
 113025240.295 9  88071595.471 9  21508004.139 9  21508009.301 9
 129497729.503 9 100907305.167 9  24642610.616 9  24642614.529 9
 119351825.272 9  93001411.732 9  22711905.008 9  22711907.556 9
 109233145.130 9  85116720.970 9  20786388.104 9  20786391.897 9
 115674182.736 9  90135696.695 9  22012088.069 9  22012095.505 9
 124154720.278 9  96564769.872 9  23266549.950 9  23266552.926 9
 127359648.013 9  99057487.882 9  23791864.401 9  23791868.368 9
 111999466.357 9  87110694.341 9  20973903.608 9  20973904.142 9
 126692655.542 9  98538708.097 9  23708820.971 9  23708826.778 9
 104790632.410 9  81503816.640 9  19617031.853 9  19617033.748 9
 124852977.443 9  97107857.955 9  23331772.529 9  23331775.614 9
 106950100.457 9  83183403.461 9  20035364.112 9  20035366.157 9
 108538768.080 9  84419036.769 9  20290181.231 9  20290182.417 9
 18  9  7  0 22 30.0000000  0 19G01G03G07G08G11G17G18G19G22G28G30R02
                                R03R09R15R16R17R18R19
 106896280.434 9  83295771.122 9  20341709.761 9  20341717.530 9
 121563437.010 9  94724726.171 9  23132775.920 9  23132783.347 9
 122705648.910 9  95614771.282 9  23350123.931 9  23350128.866 9
 126247888.713 9  98374945.807 9  24024198.688 9  24024206.546 9
 109727537.740 9  85501961.674 9  20880468.075 9  20880471.902 9
 118285999.839 9  92170890.095 9  22509092.283 9  22509097.085 9
 113106764.700 9  88135120.967 9  21523517.728 9  21523522.893 9
 129409794.184 9 100838784.126 9  24625877.091 9  24625881.007 9
 119305298.328 9  92965156.994 9  22703051.207 9  22703053.750 9
 109193032.468 9  85085464.347 9  20778754.921 9  20778758.714 9
 115745962.130 9  90191628.670 9  22025747.248 9  22025754.690 9
 124123277.992 9  96540314.834 9  23260657.625 9  23260660.583 9
 127261957.100 9  98981506.149 9  23773614.853 9  23773618.798 9
 111915071.733 9  87045054.083 9  20958099.202 9  20958099.736 9
 126827677.842 9  98643725.304 9  23734088.655 9  23734094.495 9
 104845149.994 9  81546219.200 9  19627237.663 9  19627239.559 9
 124954037.364 9  97186459.998 9  23350658.078 9  23350661.191 9
 107004264.536 9  83225531.082 9  20045510.867 9  20045512.910 9
 108498461.655 9  84387687.326 9  20282646.371 9  20282647.557 9
 18  9  7  0 23  0.0000000  0 19G01G03G07G08G11G17G18G19G22G28G30R02
                                R03R09R15R16R17R18R19
 106931122.431 9  83322920.742 9  20348339.964 9  20348347.730 9
 121476284.040 9  94656814.810 9  23116191.227 9  23116198.644 9
 122810777.246 9  95696689.430 9  23370129.215 9  23370134.159 9
 126327117.674 9  98436682.604 9  24039275.500 9  24039283.372 9
 109785533.944 9  85547153.522 9  20891504.386 9  20891508.212 9
 118231000.569 9  92128033.541 9  22498626.255 9  22498631.052 9
 113188654.866 9  88198931.475 9  21539100.917 9  21539106.085 9
 129321935.992 9 100770323.243 9  24609158.198 9  24609162.103 9
 119259195.926 9  92929233.068 9  22694278.194 9  22694280.731 9
 109153225.379 9  85054445.839 9  20771179.882 9  20771183.674 9
 115818136.461 9  90247868.399 9  22039481.574 9  22039489.018 9
 124092494.755 9  96516372.363 9  23254888.825 9  23254891.772 9
 127164466.820 9  98905680.439 9  23755402.803 9  23755406.733 9
 111831246.539 9  86979856.705 9  20942401.440 9  20942401.974 9
 126962782.764 1  98748806.805 1  23759371.776 1  23759377.642 1
 104900400.163 9  81589191.557 9  19637580.608 9  19637582.503 9
 125055044.529 9  97265021.095 9  23369533.704 9  23369536.825 9
 107058706.275 9  83267874.653 9  20055709.642 9  20055711.686 9
 108458564.208 9  84356655.994 9  20275187.953 9  20275189.135 9
 18  9  7  0 23 30.0000000  0 19G01G03G07G08G11G17G18G19G22G28G30R02
                                R03R09R15R16R17R18R19
 106966498.877 9  83350486.813 9  20355071.871 9  20355079.635 9
 121389360.311 9  94589082.064 9  23099650.169 9  23099657.578 9
 122916024.292 9  95778700.073 9  23390157.094 9  23390162.049 9
 126406385.020 9  98498449.343 9  24054359.593 9  24054367.470 9
 109843886.341 9  85592622.913 9  20902608.484 9  20902612.313 9
 118176135.339 9  92085281.432 9  22488185.735 9  22488190.528 9
 113270909.541 9  88263026.023 9  21554753.464 9  21554758.633 9
 129234156.410 9 100701923.620 9  24592454.260 9  24592458.153 9
 119213521.783 9  92893642.851 9  22685586.675 9  22685589.206 9
 109113727.340 9  85023668.143 9  20763663.657 9  20763667.451 9
 115890704.380 9  90304414.819 9  22053290.798 9  22053298.244 9
 124062373.720 9  96492944.990 9  23249244.084 9  23249247.007 9
 127067183.229 9  98830015.505 9  23737229.351 9  23737233.262 9
 111747996.014 9  86915106.300 9  20926811.289 9  20926811.822 9
 127097968.054 9  98853950.823 9  23784669.931 9  23784675.820 9
 104956382.194 9  81632733.121 9  19648060.573 9  19648062.472 9
 125155999.302 9  97343541.410 9  23388399.564 9  23388402.700 9
 107113424.896 9  83310433.571 9  20065960.290 9  20065962.337 9
 108419076.116 9  84325943.059 9  20267806.052 9  20267807.228 9
 18  9  7  0 24  0.0000000  0 19G01G03G07G08G11G17G18G19G22G28G30R02
                                R03R09R15R16R17R18R19
 107002409.117 9  83378468.824 9  20361905.358 9  20361913.120 9
 121302670.278 9  94521531.430 9  23083153.573 9  23083160.972 9
 123021388.318 9  95860801.891 9  23410207.217 9  23410212.176 9
 126485692.264 9  98560247.171 9  24069451.278 9  24069459.161 9
 109902594.405 9  85638369.455 9  20913780.259 9  20913784.088 9
 118121405.614 9  92042634.905 9  22477771.006 9  22477775.795 9
 113353527.153 9  88327403.375 9  21570475.079 9  21570480.250 9
 129146457.585 9 100633586.848 9  24575765.748 9  24575769.647 9
 119168279.277 9  92858388.968 9  22676977.299 9  22676979.826 9
 109074541.730 9  84993133.906 9  20756206.880 9  20756210.672 9
 115963664.430 9  90361266.791 9  22067174.645 9  22067182.095 9
 124032918.996 9  96470035.837 9  23243724.224 9  23243727.129 9
 126970112.175 9  98754515.862 9  23719095.614 9  23719099.509 9
 111665325.089 9  86850806.696 9  20911329.677 9  20911330.210 9
 127233231.099 1  98959155.304 1  23809982.647 1  23809988.562 1
 105013095.304 9  81676843.299 9  19658677.400 9  19658679.303 9
 125256901.766 9  97422021.042 9  23407255.647 9  23407258.798 9
 107168419.458 9  83353207.133 9  20076262.615 9  20076264.658 9
 108379998.889 9  84295549.684 9  20260500.959 9  20260502.130 9
 18  9  7  0 24 30.0000000  0 19G01G03G07G08G11G17G18G19G22G28G30R02
                                R03R09R15R16R17R18R19
 107038850.720 9  83406864.886 9  20368839.959 9  20368847.719 9
 121216216.649 9  94454164.981 9  23066701.983 9  23066709.379 9
 123126865.514 9  95942991.871 9  23430278.892 9  23430283.862 9
 126565038.461 9  98622075.340 9  24084550.385 9  24084558.277 9
 109961655.532 9  85684391.101 9  20925019.226 9  20925023.058 9
 118066810.943 9  92000093.624 9  22467381.970 9  22467386.754 9
 113436504.496 9  88392061.033 9  21586265.152 9  21586270.325 9
 129058838.968 9 100565312.603 9  24559092.478 9  24559096.376 9
 119123470.053 9  92823472.712 9  22668450.370 9  22668452.891 9
 109035669.675 9  84962843.990 9  20748809.776 9  20748813.569 9
 116037013.297 9  90418421.733 9  22081132.485 9  22081139.940 9
 124004131.922 9  96447645.974 9  23238329.478 9  23238332.362 9
 126873257.272 9  98679184.311 9  23701002.275 9  23701006.161 9
 111583237.086 9  86786960.481 9  20895957.224 9  20895957.755 9
 127368567.891 9  99064417.124 9  23835309.177 9  23835315.124 9
 105070537.283 9  81721520.385 9  19669430.666 9  19669432.571 9
 125357750.155 9  97500458.608 9  23426101.630 9  23426104.798 9
 107223687.422 9  83396193.330 9  20086616.165 9  20086618.208 9
 108341330.721 9  84265474.443 9  20253272.353 9  20253273.523 9
 18  9  7  0 25  0.0000000  0 19G01G03G07G08G11G17G18G19G22G28G30R02
                                R03R09R15R16R17R18R19
 107075821.487 9  83435673.284 9  20375875.255 9  20375883.014 9
 121130002.267 9  94386984.981 9  23050295.903 9  23050303.289 9
 123232452.390 9  96025267.330 9  23450371.429 9  23450376.405 9
 126644423.128 9  98683933.495 9  24099656.805 9  24099664.704 9
 110021067.909 9  85730686.459 9  20936325.026 9  20936328.858 9
 118012350.824 9  91957657.175 9  22457018.548 9  22457023.330 9
 113519838.537 9  88456996.640 9  21602123.099 9  21602128.275 9
 128971300.550 9 100497100.901 9  24542434.431 9  24542438.317 9
 119079095.723 9  92788895.336 9  22660006.198 9  22660008.713 9
 108997112.668 9  84932799.577 9  20741472.616 9  20741476.407 9
 116110747.951 9  90475877.284 9  22095163.741 9  22095171.202 9
 123976014.174 9  96425776.661 9  23233060.189 9  23233063.063 9
 126776622.935 9  98604024.280 9  23682950.162 9  23682954.046 9
 111501735.435 9  86723570.322 9  20880694.573 9  20880695.100 9
 127503976.653 9  99169734.958 9  23860649.149 9  23860655.117 9
 105128705.664 9  81766762.446 9  19680319.918 9  19680321.826 9
 125458543.104 9  97578853.096 9  23444937.222 9  23444940.397 9
 107279226.080 9  83439390.073 9  20097020.420 9  20097022.461 9
 108303071.162 9  84235717.048 9  20246120.103 9  20246121.263 9
 18  9  7  0 25 30.0000000  0 19G01G03G07G08G11G17G18G19G22G28G30R02
                                R03R09R15R16R17R18R19
 107113319.704 9  83464892.685 9  20383010.920 9  20383018.676 9
 121044030.479 9  94319994.011 9  23033935.991 9  23033943.369 9
 123338146.485 9  96107626.302 9  23470484.394 9  23470489.386 9
 126723846.404 9  98745821.732 9  24114770.574 9  24114778.481 9
 110080829.825 9  85777254.179 9  20947697.346 9  20947701.179 9
 117958025.084 9  91915325.442 9  22446680.694 9  22446685.473 9
 113603526.684 9  88522208.174 9  21618048.431 9  21618053.609 9
 128883843.036 9 100428952.135 9  24525791.860 9  24525795.759 9
 119035158.802 9  92754658.785 9  22651645.272 9  22651647.784 9
 108958872.500 9  84903002.046 9  20734195.752 9  20734199.542 9
 116184865.640 9  90533631.297 9  22109267.891 9  22109275.359 9
 123948568.180 9  96404429.878 9  23227916.747 9  23227919.596 9
 126680213.368 9  98529039.088 9  23664940.026 9  23664943.903 9
 111420824.204 9  86660639.365 9  20865542.499 9  20865543.025 9
 127639452.457 9  99275104.919 9  23886001.678 9  23886007.673 9
 105187597.852 9  81812567.486 9  19691344.656 9  19691346.563 9
 125559279.593 9  97657203.671 9  23463762.263 9  23463765.445 9
 107335033.293 9  83482795.697 9  20107474.982 9  20107477.019 9
 108265219.492 9  84206276.846 9  20239044.143 9  20239045.307 9
 18  9  7  0 26  0.0000000  0 19G01G03G07G08G11G17G18G19G22G28G30R02
                                R03R09R15R16R17R18R19
 107151343.231 9  83494521.409 9  20390246.556 9  20390254.311 9
 120958304.541 9  94253194.618 9  23017622.858 9  23017630.226 9
 123443944.461 9  96190066.256 9  23490617.100 9  23490622.099 9
 126803307.493 9  98807739.448 9  24129891.529 9  24129899.439 9
 110140939.371 9  85824092.775 9  20959135.820 9  20959139.657 9
 117903834.032 9  91873098.671 9  22436368.462 9  22436373.236 9
 113687566.189 9  88587693.485 9  21634040.630 9  21634045.813 9
 128796466.724 9 100360866.727 9  24509164.679 9  24509168.570 9
 118991661.014 9  92720764.420 9  22643367.907 9  22643370.415 9
 108920951.403 9  84873453.136 9  20726979.609 9  20726983.401 9
 116259363.696 9  90591681.709 9  22123444.416 9  22123451.889 9
 123921796.043 9  96383607.184 9  23222899.602 9  23222902.432 9
 126584033.546 9  98454232.611 9  23646972.789 9  23646976.654 9
 111340506.867 9  86598170.336 9  20850501.634 9  20850502.158 9
 127774992.527 9  99380524.897 9  23911366.211 9  23911372.224 9
 105247212.144 9  81858934.149 9  19702504.582 9  19702506.492 9
 125659958.519 9  97735509.467 9  23482576.553 9  23482579.743 9
 107391107.063 9  83526408.616 9  20117979.498 9  20117981.539 9
 108227775.124 9  84177153.457 9  20232044.307 9  20232045.469 9
 18  9  7  0 26 30.0000000  0 19G01G03G07G08G11G17G18G19G22G28G30R02
                                R03R09R15R16R17R18R19
 107189890.195 9  83524558.014 9  20397581.792 9  20397589.545 9
 120872827.685 9  94186589.288 9  23001357.143 9  23001364.509 9
 123549843.225 9  96272584.714 9  23510769.009 9  23510774.023 9
 126882806.936 9  98869687.026 9  24145019.800 9  24145027.720 9
 110201394.865 9  85871200.940 9  20970640.128 9  20970643.967 9
 117849777.755 9  91830976.912 9  22426081.883 9  22426086.654 9
 113771954.348 9  88653450.488 9  21650099.166 9  21650104.350 9
 128709171.594 9 100292844.631 9  24492552.905 9  24492556.776 9
 118948604.713 9  92687214.073 9  22635174.552 9  22635177.056 9
 108883350.879 9  84844154.030 9  20719824.465 9  20719828.255 9
 116334239.277 9  90650026.303 9  22137692.776 9  22137700.253 9
 123895699.336 9  96363309.846 9  23218009.016 9  23218011.822 9
 126488087.516 9  98379607.903 9  23629049.278 9  23629053.147 9
 111260787.544 9  86536166.401 9  20835572.778 9  20835573.306 9
 127910593.152 9  99485992.012 9  23936742.047 9  23936748.069 9
 105307546.597 9  81905860.919 9  19713799.338 9  19713801.254 9
 125760578.683 9  97813769.524 9  23501379.888 9  23501383.094 9
 107447445.086 9  83570227.069 9  20128533.515 9  20128535.558 9
 108190737.473 9  84148346.396 9  20225120.508 9  20225121.670 9
 18  9  7  0 27  0.0000000  0 19G01G03G07G08G11G17G18G19G22G28G30R02
                                R03R09R15R16R17R18R19
 107228957.429 9  83555000.022 9  20405016.034 9  20405023.785 9
 120787601.867 9  94120179.597 9  22985139.181 9  22985146.537 9
 123655838.460 9  96355178.380 9  23530939.250 9  23530944.269 9
 126962343.081 9  98931663.239 9  24160155.028 9  24160162.949 9
 110262192.903 9  85918576.032 9  20982209.611 9  20982213.451 9
 117795854.375 9  91788958.703 9  22415820.598 9  22415825.366 9
 113856687.423 9  88719476.260 9  21666223.335 9  21666228.518 9
 128621957.165 9 100224885.371 9  24475956.524 9  24475960.386 9
 118905990.750 9  92654008.402 9  22627065.373 9  22627067.874 9
 108846071.859 9  84815105.444 9  20712730.502 9  20712734.293 9
 116409488.380 9  90708661.953 9  22152012.215 9  22152019.696 9
 123870279.525 9  96343538.932 9  23213245.317 9  23213248.111 9
 126392378.969 9  98305167.901 9  23611170.133 9  23611174.007 9
 111181668.382 9  86474629.306 9  20820756.278 9  20820756.799 9
 128046250.060 9  99591502.885 9  23962128.429 9  23962134.464 9
 105368597.348 9  81953344.812 9  19725228.185 9  19725230.106 9
 125861137.970 9  97891982.224 9  23520171.852 9  23520175.078 9
 107504044.005 9  83614248.470 9  20139136.385 9  20139138.424 9
 108154104.483 9  84119854.096 9  20218272.339 9  20218273.494 9
 18  9  7  0 27 30.0000000  0 19G01G03G07G08G11G17G18G19G22G28G30R02
                                R03R09R15R16R17R18R19
 107268544.290 9  83585846.940 9  20412549.153 9  20412556.901 9
 120702631.552 9  94053969.000 9  22968969.839 9  22968977.186 9
 123761928.327 9  96437845.763 9  23551127.515 9  23551132.545 9
 127041916.962 9  98993668.809 9  24175297.473 9  24175305.406 9
 110323333.252 9  85966217.855 9  20993844.239 9  20993848.080 9
 117742065.375 9  91747045.209 9  22405584.883 9  22405589.648 9
 113941763.899 9  88785769.615 9  21682412.852 9  21682418.036 9
 128534824.921 9 100156990.102 9  24459375.820 9  24459379.686 9
 118863822.204 9  92621149.814 9  22619040.951 9  22619043.447 9
 108809117.158 9  84786309.583 9  20705698.249 9  20705702.037 9
 116485109.502 9  90767587.487 9  22166402.448 9  22166409.932 9
 123845539.174 9  96324296.500 9  23208608.940 9  23208611.718 9
 126296913.687 9  98230917.162 9  23593336.389 9  23593340.255 9
 111103154.610 9  86413563.038 9  20806053.172 9  20806053.692 9
 128181961.567 9  99697056.194 9  23987525.050 9  23987531.106 9
 105430363.607 9  82001385.231 9  19736790.962 9  19736792.884 9
 125961636.465 9  97970147.663 9  23538952.440 9  23538955.679 9
 107560902.952 9  83658472.099 9  20149787.980 9  20149790.017 9
 108117877.060 9  84091677.240 9  20211499.983 9  20211501.132 9
 18  9  7  0 28  0.0000000  0 19G01G03G07G08G11G17G18G19G22G28G30R02
                                R03R09R15R16R17R18R19
 107308648.023 9  83617096.600 9  20420180.641 9  20420188.389 9
 120617919.336 9  93987959.498 9  22952849.628 9  22952856.970 9
 123868109.405 9  96520584.222 9  23571333.135 9  23571338.176 9
 127121527.855 9  99055703.247 9  24190446.940 9  24190454.880 9
 110384813.358 9  86014124.422 9  21005543.521 9  21005547.364 9
 117688410.213 9  91705236.008 9  22395374.633 9  22395379.394 9
 114027180.337 9  88852327.877 9  21698667.061 9  21698672.245 9
 128447774.464 9 100089158.618 9  24442810.638 9  24442814.494 9
 118822100.636 9  92588639.532 9  22611101.578 9  22611104.066 9
 108772487.879 9  84757767.290 9  20698727.927 9  20698731.715 9
 116561099.142 9  90826800.176 9  22180862.809 9  22180870.298 9
 123821480.030 9  96305583.868 9  23204100.240 9  23204103.010 9
 126201695.278 9  98156858.351 9  23575548.826 9  23575552.703 9
 111025249.056 9  86352969.835 9  20791463.960 9  20791464.479 9
 128317724.111 9  99802649.256 9  24012931.179 9  24012937.242 9
 105492842.609 9  82049980.008 9  19748487.163 9  19748489.087 9
 126062072.526 9  98048264.535 9  23557721.366 9  23557724.621 9
 107618019.245 9  83702895.875 9  20160487.792 9  20160489.831 9
 108082053.967 9  84063814.828 9  20204803.238 9  20204804.389 9
 18  9  7  0 28 30.0000000  0 19G01G03G07G08G11G17G18G19G22G28G30R02
                                R03R09R15R16R17R18R19
 107349269.154 9  83648749.441 9  20427910.576 9  20427918.322 9
 120533470.823 9  93922155.500 9  22936779.581 9  22936786.915 9
 123974381.001 9  96603393.223 9  23591555.973 9  23591561.023 9
 127201178.085 9  99117768.314 9  24205603.911 9  24205611.862 9
 110446633.718 9  86062296.131 9  21017307.544 9  21017311.388 9
 117634890.796 9  91663532.582 9  22385190.214 9  22385194.971 9
 114112936.667 9  88919150.984 9  21714985.953 9  21714991.140 9
 128360808.626 9 100021393.084 9  24426261.548 9  24426265.391 9
 118780830.597 9  92556481.081 9  22603248.134 9  22603250.618 9
 108736188.558 9  84729482.110 9  20691820.392 9  20691824.178 9
 116637456.967 9  90886299.762 9  22195393.233 9  22195400.726 9
 123798106.489 9  96287404.499 9  23199720.011 9  23199722.768 9
 126106730.657 9  98082996.976 9  23557808.639 9  23557812.517 9
 110947957.968 9  86292854.560 9  20776989.811 9  20776990.326 9
 128453535.781 1  99908280.537 1  24038346.495 1  24038352.562 1
 105556034.139 9  82099128.970 9  19760316.755 9  19760318.679 9
 126162447.622 9  98126333.996 9  23576478.895 9  23576482.163 9
 107675393.063 9  83747519.951 9  20171235.844 9  20171237.885 9
 108046636.316 9  84036267.777 9  20198182.274 9  20198183.422 9
 18  9  7  0 29  0.0000000  0 19G01G03G07G08G11G17G18G19G22G28G30R02
                                R03R09R15R16R17R18R19
 107390401.928 9  83680800.951 9  20435737.885 9  20435745.631 9
 120449285.558 9  93856556.627 9  22920759.632 9  22920766.957 9
 124080736.219 9  96686267.381 9  23611794.727 9  23611799.786 9
 127280863.697 9  99179860.988 9  24220767.587 9  24220775.540 9
 110508788.956 9  86110728.779 9  21029135.296 9  21029139.141 9
 117581503.852 9  91621932.380 9  22375031.006 9  22375035.760 9
 114199026.339 9  88986233.838 9  21731368.279 9  21731373.467 9
 128273924.274 9  99953691.010 9  24409727.992 9  24409731.830 9
 118740010.405 9  92524673.156 9  22595480.298 9  22595482.777 9
 108700217.149 9  84701452.436 9  20684975.264 9  20684979.051 9
 116714176.373 9  90946081.098 9  22209992.466 9  22209999.963 9
 123775416.667 9  96269756.891 9  23195467.925 9  23195470.674 9
 126012021.105 9  98009334.008 9  23540116.087 9  23540119.961 9
 110871281.358 9  86233217.193 9  20762630.748 9  20762631.264 9
 128589389.149 9 100013944.184 9  24063769.662 9  24063775.749 9
 105619932.240 9  82148827.465 9  19772278.634 9  19772280.565 9
 126262756.902 9  98204352.266 9  23595224.125 9  23595227.408 9
 107733018.527 9  83792339.758 9  20182031.034 9  20182033.074 9
 108011620.345 9  84009033.158 9  20191636.389 9  20191637.531 9
 18  9  7  0 29 30.0000000  0 19G01G03G07G08G11G17G18G19G22G28G30R02
                                R03R09R15R16R17R18R19
 107432045.967 9  83713250.849 9  20443662.484 9  20443670.231 9
 120365368.390 9  93791166.657 9  22904790.702 9  22904798.019 9
 124187174.002 9  96769205.863 9  23632049.202 9  23632054.273 9
 127360585.854 9  99241982.098 9  24235938.248 9  24235946.213 9
 110571278.835 9  86159422.188 9  21041026.727 9  21041030.573 9
 117528250.837 9  91580436.533 9  22364897.287 9  22364902.039 9
 114285448.410 9  89053575.710 9  21747813.853 9  21747819.042 9
 128187122.962 9  99886053.644 9  24393210.236 9  24393214.069 9
 118699643.551 9  92493218.488 9  22587798.723 9  22587801.197 9
 108664577.164 9  84673681.027 9  20678193.195 9  20678196.980 9
 116791256.245 9  91006143.326 9  22224660.285 9  22224667.785 9
 123753413.888 9  96252643.667 9  23191344.578 9  23191347.316 9
 125917571.922 9  97935873.526 9  23522472.191 9  23522476.066 9
 110795224.596 9  86174061.925 9  20748387.766 9  20748388.284 9
 128725283.131 9 100119639.443 9  24089200.412 9  24089206.514 9
 105684536.500 9  82199075.211 9  19784372.695 9  19784374.630 9
 126363001.021 9  98282319.855 9  23613957.178 9  23613960.475 9
 107790895.205 9  83837354.944 9  20192873.292 9  20192875.334 9
 107977006.759 9  83982111.496 9  20185165.733 9  20185166.871 9
 18  9  7  0 30  0.0000000  0 19G01G03G07G08G11G17G18G19G22G28G30R02
                                R03R09R15R16R17R18R19
 107474198.379 9  83746096.880 9  20451683.824 9  20451691.572 9
 120281721.601 9  93725987.365 9  22888873.229 9  22888880.541 9
 124293690.398 9  96852205.621 9  23652318.621 9  23652323.700 9
 127440344.001 9  99304131.267 9  24251115.746 9  24251123.721 9
 110634100.606 9  86208374.215 9  21052981.315 9  21052985.161 9
 117475131.000 9  91539044.464 9  22354788.910 9  22354793.658 9
 114372199.066 9  89121173.615 9  21764321.961 9  21764327.151 9
 128100404.551 9  99818480.837 9  24376708.286 9  24376712.124 9
 118659731.222 9  92462117.996 9  22580203.641 9  22580206.109 9
 108629269.347 9  84646168.446 9  20671474.338 9  20671478.122 9
 116868692.849 9  91066483.520 9  22239395.994 9  22239403.498 9
 123732099.128 9  96236065.556 9  23187350.174 9  23187352.904 9
 125823387.188 9  97862618.738 9  23504877.687 9  23504881.562 9
 110719790.235 9  86115390.759 9  20734261.331 9  20734261.848 9
 128861214.162 9 100225363.420 9  24114638.168 9  24114644.308 9
 105749843.182 9  82249869.282 9  19796598.254 9  19796600.192 9
 126463178.204 9  98360235.375 9  23632677.728 9  23632681.041 9
 107849020.200 9  83882563.252 9  20203762.078 9  20203764.125 9
 107942794.123 9  83955501.661 9  20178770.047 9  20178771.186 9
 18  9  7  0 30 30.0000000  0 19G01G03G07G08G11G17G18G19G22G28G30R02
                                R03R09R15R16R17R18R19
 107516855.876 9  83779336.488 9  20459801.276 9  20459809.024 9
 120198347.181 9  93661020.320 9  22873007.578 9  22873014.881 9
 124400280.539 9  96935262.823 9  23672602.089 9  23672607.180 9
 127520136.901 9  99366307.527 9  24266299.849 9  24266307.830 9
 110697251.255 9  86257582.505 9  21064998.490 9  21065002.338 9
 117422143.047 9  91497755.175 9  22344705.619 9  22344710.361 9
 114459274.508 9  89189024.606 9  21780891.868 9  21780897.060 9
 128013768.016 9  99750971.887 9  24360221.873 9  24360225.701 9
 118620274.099 9  92431372.213 9  22572695.180 9  22572697.641 9
 108594294.565 9  84618915.369 9  20664818.858 9  20664822.643 9
 116946482.112 9  91127098.516 9  22254198.809 9  22254206.317 9
 123711473.249 9  96220023.261 9  23183484.853 9  23183487.569 9
 125729470.578 9  97789572.509 9  23487333.259 9  23487337.127 9
 110644980.713 9  86057205.574 9  20720251.911 9  20720252.430 9
 128997177.777 9 100331112.803 9  24140081.975 9  24140088.138 9
 105815848.789 9  82301206.965 9  19808954.651 9  19808956.591 9
 126563286.264 9  98438097.074 9  23651385.404 9  23651388.748 9
 107907390.027 9  83927962.016 9  20214696.707 9  20214698.751 9
 107908980.325 9  83929202.052 9  20172448.905 9  20172450.042 9
 18  9  7  0 31  0.0000000  0 20G01G03G06G07G08G11G17G18G19G22G28G30
                                R02R03R09R15R16R17R18R19
 107560018.247 9  83812969.505 9  20468014.802 9  20468022.549 9
 120115250.226 9  93596269.482 9  22857194.726 9  22857202.020 9
 131562534.98019 102516224.13019  25035545.213 9  25035554.046 9
 124506943.939 9  97018377.134 9  23692899.479 9  23692904.577 9
 127599965.697 9  99428511.764 9  24281490.779 9  24281498.765 9
 110760730.625 9  86307046.949 9  21077078.212 9  21077082.061 9
 117369288.700 9  91456569.978 9  22334647.764 9  22334652.505 9
 114546674.166 9  89257128.223 9  21797523.480 9  21797528.674 9
 127927215.664 9  99683528.501 9  24343751.504 9  24343755.331 9
 118581275.979 9  92400984.087 9  22565274.070 9  22565276.526 9
 108559656.508 9  84591924.669 9  20658227.460 9  20658231.246 9
 117024623.001 9  91187987.494 9  22269068.546 9  22269076.060 9
 123691539.279 9  96204519.105 9  23179749.204 9  23179751.910 9
 125635827.696 9  97716739.185 9  23469839.960 9  23469843.822 9
 110570801.523 9  85999510.656 9  20706360.527 9  20706361.043 9
 129133171.099 9 100436885.285 9  24165531.346 9  24165537.533 9
 105882552.798 9  82353087.855 9  19821441.785 9  19821443.727 9
 126663326.014 9  98515905.696 9  23670080.276 9  23670083.637 9
 107966004.545 9  83973551.084 9  20225677.182 9  20225679.227 9
 107875566.271 9  83903213.372 9  20166202.479 9  20166203.609 9
 18  9  7  0 31 30.0000000  0 19G01G03G06G07G08G11G17G18G19G22G28G30
                                R02R03R09R16R17R18R19
 107603684.099 9  83846994.840 9  20476324.140 9  20476331.889 9
 120032434.548 9  93531737.809 9  22841435.408 9  22841442.696 9
 131454400.742 9 102431963.742 9  25014967.909 9  25014976.728 9
 124613678.102 9  97101546.564 9  23713210.351 9  23713215.460 9
 127679831.174 9  99490744.527 9  24296688.731 9  24296696.736 9
 110824537.694 9  86356766.733 9  21089220.301 9  21089224.152 9
 117316568.629 9  91415489.423 9  22324615.453 9  22324620.189 9
 114634395.755 9  89325482.708 9  21814216.343 9  21814221.538 9
 127840748.557 9  99616151.584 9  24327297.323 9  24327301.138 9
 118542739.585 9  92370955.751 9  22557940.820 9  22557943.271 9
 108525357.519 9  84565198.181 9  20651700.581 9  20651704.368 9
 117103113.379 9  91249148.812 9  22284004.780 9  22284012.298 9
 123672300.031 9  96189555.239 9  23176143.782 9  23176146.489 9
 125542464.145 9  97644123.112 9  23452398.848 9  23452402.705 9
 110497256.869 9  85942309.247 9  20692587.984 9  20692588.503 9
 105949953.207 9  82405510.379 9  19834059.295 9  19834061.241 9
 126763297.205 9  98593661.029 9  23688762.310 9  23688765.680 9
 108024862.403 9  84019329.408 9  20236703.250 9  20236705.297 9
 107842552.418 9  83877535.940 9  20160030.881 9  20160032.009 9
 18  9  7  0 32  0.0000000  0 19G01G03G06G07G08G11G17G18G19G22G28G30
                                R02R03R09R16R17R18R19
 107647849.881 9  83881409.740 9  20484728.605 9  20484736.353 9
 119949901.893 9  93467426.682 9  22825729.941 9  22825737.221 9
 131346357.434 9 102347774.172 9  24994407.935 9  24994416.749 9
 124720478.784 9  97184767.814 9  23733533.891 9  23733539.015 9
 127759731.989 9  99553004.898 9  24311893.354 9  24311901.360 9
 110888669.292 9  86406739.401 9  21101424.143 9  21101427.995 9
 117263981.315 9  91374512.303 9  22314608.414 9  22314613.148 9
 114722435.229 9  89394084.879 9  21830969.711 9  21830974.909 9
 127754365.430 9  99548840.067 9  24310859.153 9  24310862.965 9
 118504665.221 9  92341287.436 9  22550695.494 9  22550697.940 9
 108491397.939 9  84538736.171 9  20645238.288 9  20645242.075 9
 117181948.834 9  91310579.017 9  22299006.683 9  22299014.205 9
 123653755.537 9  96175131.783 9  23172668.523 9  23172671.220 9
 125449383.182 9  97571726.840 9  23435010.518 9  23435014.367 9
 110424348.901 9  85885603.048 9  20678934.665 9  20678935.185 9
 106018046.287 9  82458471.638 9  19846806.481 9  19846808.433 9
 126863197.487 1  98671361.169 1  23707431.124 1  23707434.513 1
 108083959.991 9  84065294.187 9  20247774.228 9  20247776.278 9
 107809936.547 9  83852168.038 9  20153933.690 9  20153934.818 9
 18  9  7  0 32 30.0000000  0 19G01G03G06G07G08G11G17G18G19G22G28G30
                                R02R03R09R16R17R18R19
 107692510.808 9  83916210.458 9  20493227.301 9  20493235.049 9
 119867652.762 9  93403336.477 9  22810078.432 9  22810085.705 9
 131238404.160 9 102263654.742 9  24973865.107 9  24973873.920 9
 124827339.616 9  97268035.974 9  23753868.847 9  23753873.976 9
 127839665.180 9  99615290.477 9  24327104.153 9  24327112.164 9
 110953120.895 9  86456961.422 9  21113688.881 9  21113692.735 9
 117211524.086 9  91333636.553 9  22304626.126 9  22304630.857 9
 114810787.360 9  89462930.684 9  21847782.571 9  21847787.772 9
 127668063.727 9  99481592.007 9  24294436.469 9  24294440.277 9
 118467052.215 9  92311978.618 9  22543537.964 9  22543540.405 9
 108457777.042 9  84512538.060 9  20638840.451 9  20638844.240 9
 117261123.873 9  91372273.826 9  22314073.212 9  22314080.741 9
 123635904.641 9  96161247.764 9  23169323.264 9  23169325.959 9
 125356585.624 9  97499550.991 9  23417675.133 9  23417678.975 9
 110352078.438 9  85829392.696 9  20665400.723 9  20665401.241 9
 106086826.565 9  82511967.412 9  19859682.292 9  19859684.243 9
 126963023.054 9  98749003.205 9  23726085.970 9  23726089.376 9
 108143292.567 9  84111441.755 9  20258889.213 9  20258891.261 9
 107777715.087 9  83827106.912 9  20147910.221 9  20147911.347 9
 18  9  7  0 33  0.0000000  0 19G01G03G06G07G08G11G17G18G19G22G28G30
                                R02R03R09R16R17R18R19
 107737671.030 9  83951400.250 9  20501820.999 9  20501828.745 9
 119785696.604 9  93339474.558 9  22794482.677 9  22794489.945 9
 131130548.800 9 102179611.684 9  24953340.854 9  24953349.648 9
 124934264.322 9  97351353.871 9  23774215.984 9  23774221.127 9
 127919636.895 9  99677606.065 9  24342322.290 9  24342330.310 9
 111017896.957 9  86507436.268 9  21126015.361 9  21126019.217 9
 117159203.222 9  91292867.056 9  22294669.791 9  22294674.520 9
 114899455.487 9  89532022.725 9  21864655.559 9  21864660.761 9
 127581850.429 9  99414412.855 9  24278030.593 9  24278034.390 9
 118429908.607 9  92283035.563 9  22536469.758 9  22536472.195 9
 108424502.667 9  84486609.976 9  20632508.548 9  20632512.337 9
 117340641.833 9  91434235.854 9  22329204.991 9  22329212.524 9
 123618755.320 9  96147909.434 9  23166109.466 9  23166112.154 9
 125264083.113 9  97427604.642 9  23400394.851 9  23400398.681 9
 110280455.284 9  85773685.787 9  20651988.016 9  20651988.536 9
 106156297.905 9  82566000.665 9  19872687.481 9  19872689.435 9
 127062779.580 9  98826591.540 9  23744727.916 9  23744731.340 9
 108202864.384 9  84157775.367 9  20270049.039 9  20270051.092 9
 107745893.585 9  83802356.872 9  20141961.514 9  20141962.636 9
 18  9  7  0 33 30.0000000  0 19G01G03G06G07G08G11G17G18G19G22G28G30
                                R02R03R09R16R17R18R19
 107783325.360 9  83986975.058 9  20510508.725 9  20510516.470 9
 119704033.479 9  93275840.977 9  22778942.683 9  22778949.946 9
 131022790.070 9 102095643.869 9  24932835.030 9  24932843.817 9
 125041246.655 9  97434716.690 9  23794574.074 9  23794579.226 9
 127999643.902 9  99739949.182 9  24357547.121 9  24357555.142 9
 111082992.420 9  86558160.003 9  21138402.618 9  21138406.474 9
 117107015.421 9  91252201.238 9  22284738.782 9  22284743.511 9
 114988433.827 9  89601356.478 9  21881587.588 9  21881592.795 9
 127495722.711 9  99347300.346 9  24261641.034 9  24261644.832 9
 118393233.283 9  92254457.399 9  22529490.668 9  22529493.103 9
 108391573.681 9  84460951.024 9  20626242.371 9  20626246.161 9
 117420496.755 9  91496460.456 9  22344400.886 9  22344408.423 9
 123602306.293 9  96135115.738 9  23163026.932 9  23163029.621 9
 125171876.864 9  97355888.703 9  23383169.926 9  23383173.748 9
 110209479.732 9  85718482.582 9  20638696.574 9  20638697.093 9
 106226454.410 9  82620566.833 9  19885820.928 9  19885822.883 9
 127162462.939 9  98904122.893 9  23763356.244 9  23763359.703 9
 108262670.344 9  84204291.130 9  20281252.698 9  20281254.748 9
 107714468.142 9  83777914.879 9  20136086.846 9  20136087.963 9
 18  9  7  0 34  0.0000000  0 19G01G03G06G07G08G11G17G18G19G22G28G30
                                R02R03R09R16R17R18R19
 107829473.033 9  84022934.292 9  20519290.329 9  20519298.072 9
 119622667.981 9  93212439.317 9  22763459.324 9  22763466.580 9
 130915131.251 9 102011753.916 9  24912348.211 9  24912356.989 9
 125148285.275 9  97518123.395 9  23814942.855 9  23814948.010 9
 128079687.273 9  99802320.571 9  24372778.920 9  24372786.958 9
 111148406.880 9  86609132.299 9  21150850.583 9  21150854.442 9
 117054961.879 9  91211640.040 9  22274833.320 9  22274838.047 9
 115077721.226 9  89670931.058 9  21898578.427 9  21898583.639 9
 127409682.367 9  99280255.965 9  24245268.069 9  24245271.856 9
 118357029.472 9  92226246.650 9  22522601.302 9  22522603.734 9
 108358993.175 9  84435563.614 9  20620042.509 9  20620046.299 9
 117500687.131 9  91558946.447 9  22359660.620 9  22359668.161 9
 123586560.012 9  96122868.711 9  23160076.026 9  23160078.696 9
 125079972.642 9  97284407.670 9  23366001.424 9  23366005.239 9
 110139156.857 9  85663787.017 9  20625527.355 9  20625527.874 9
 106297294.944 9  82675665.008 9  19899082.438 9  19899084.397 9
 127262073.620 9  98981597.761 9  23781970.958 9  23781974.443 9
 108322709.762 9  84250988.445 9  20292500.112 9  20292502.164 9
 107683439.452 9  83753781.434 9  20130286.374 9  20130287.496 9
 18  9  7  0 34 30.0000000  0 19G01G03G06G07G08G11G17G18G19G22G28G30
                                R02R03R09R16R17R18R19
 107876108.751 9  84059273.822 9  20528164.803 9  20528172.544 9
 119541600.085 9  93149269.545 9  22748032.603 9  22748039.855 9
 130807570.812 9 101927940.648 9  24891880.094 9  24891888.857 9
 125255373.816 9  97601568.947 9  23835321.175 9  23835326.346 9
 128159763.888 9  99864717.923 9  24388017.001 9  24388025.042 9
 111214135.332 9  86660349.277 9  21163358.290 9  21163362.149 9
 117003040.096 9  91171181.526 9  22264952.919 9  22264957.642 9
 115167311.945 9  89740741.995 9  21915626.984 9  21915632.198 9
 127323726.424 9  99213277.303 9  24228911.201 9  24228914.989 9
 118321295.686 9  92198402.150 9  22515801.382 9  22515803.812 9
 108326759.899 9  84410446.775 9  20613908.721 9  20613912.511 9
 117581206.883 9  91621689.087 9  22374983.037 9  22374990.584 9
 123571515.162 9  96111167.164 9  23157256.626 9  23157259.295 9
 124988371.765 9  97213162.566 9  23348889.594 9  23348893.403 9
 110069487.043 9  85609599.371 9  20612480.446 9  20612480.968 9
 106368813.587 9  82731290.608 9  19912470.886 9  19912472.848 9
 127361607.502 9  99059012.916 9  23800571.307 9  23800574.813 9
 108382977.315 9  84297863.218 9  20303790.248 9  20303792.298 9
 107652803.396 9  83729953.423 9  20124559.262 9  20124560.377 9
 18  9  7  0 35  0.0000000  0 19G01G03G06G07G08G11G17G18G19G22G28G30
                                R02R03R09R16R17R18R19
 107923231.649 9  84095992.967 9  20537131.990 9  20537139.730 9
 119460834.280 9  93086335.174 9  22732663.364 9  22732670.611 9
 130700111.785 9 101844206.365 9  24871431.303 9  24871440.060 9
 125362510.714 9  97685052.187 9  23855708.692 9  23855713.877 9
 128239875.022 9  99927142.152 9  24403261.667 9  24403269.715 9
 111280177.417 9  86711810.640 9  21175925.682 9  21175929.541 9
 116951250.997 9  91130826.393 9  22255097.774 9  22255102.495 9
 115257204.468 9  89810788.112 9  21932732.966 9  21932738.182 9
 127237856.651 9  99146365.812 9  24212570.711 9  24212574.494 9
 118286035.246 9  92170926.486 9  22509091.541 9  22509093.970 9
 108294876.824 9  84385602.816 9  20607841.577 9  20607845.368 9
 117662054.406 9  91684687.142 9  22390367.821 9  22390375.371 9
 123557174.095 9  96100013.073 9  23154569.062 9  23154571.715 9
 124897079.964 9  97142157.833 9  23331835.517 9  23331839.327 9
 110000474.791 9  85555923.186 9  20599556.661 9  20599557.180 9
 106441009.114 9  82787442.677 9  19925986.045 9  19925988.009 9
 127461065.215 9  99136368.814 9  23819157.432 9  23819160.962 9
 108443472.439 9  84344914.974 9  20315123.029 9  20315125.080 9
 107622560.513 9  83706431.205 9  20118905.657 9  20118906.765 9
 18  9  7  0 35 30.0000000  0 19G01G03G06G07G08G11G17G18G19G22G28G30
                                R02R03R09R16R17R18R19
 107970839.929 9  84133090.334 9  20546191.540 9  20546199.278 9
 119380374.095 9  93023638.943 9  22717352.287 9  22717359.530 9
 130592756.355 9 101760552.836 9  24851002.204 9  24851010.948 9
 125469693.257 9  97768571.016 9  23876104.879 9  23876110.072 9
 128320021.082 9  99989593.569 9  24418512.999 9  24418521.061 9
 111346531.562 9  86763515.156 9  21188552.466 9  21188556.328 9
 116899594.656 9  91090574.719 9  22245267.884 9  22245272.600 9
 115347396.525 9  89881067.626 9  21949895.952 9  21949901.170 9
 127152073.942 9  99079522.180 9  24196246.776 9  24196250.550 9
 118251250.279 9  92143821.331 9  22502472.171 9  22502474.596 9
 108263346.231 9  84361033.524 9  20601841.504 9  20601845.295 9
 117743227.103 9  91747938.574 9  22405814.486 9  22405822.042 9
 123543539.240 9  96089408.208 9  23152013.880 9  23152016.527 9
 124806102.268 9  97071397.447 9  23314840.087 9  23314843.886 9
 109932124.065 9  85502761.497 9  20586756.775 9  20586757.298 9
 106513878.983 9  82844119.238 9  19939627.440 9  19939629.405 9
 127560446.198 9  99213665.098 9  23837729.171 9  23837732.710 9
 108504193.471 9  84392142.447 9  20326498.122 9  20326500.172 9
 107592710.758 9  83683214.725 9  20113325.563 9  20113326.672 9
 18  9  7  0 36  0.0000000  0 19G01G03G06G07G08G11G17G18G19G22G28G30
                                R02R03R09R16R17R18R19
 108018931.625 9  84170564.392 9  20555343.078 9  20555350.815 9
 119300222.861 9  92961183.442 9  22702100.010 9  22702107.251 9
 130485506.362 9 101676981.467 9  24830593.168 9  24830601.899 9
 125576919.052 9  97852123.534 9  23896509.306 9  23896514.512 9
 128400201.806 9 100052072.020 9  24433770.910 9  24433778.981 9
 111413196.546 9  86815461.886 9  21201238.399 9  21201242.263 9
 116848071.536 9  91050426.846 9  22235463.351 9  22235468.064 9
 115437885.733 9  89951578.680 9  21967115.489 9  21967120.711 9
 127066378.648 9  99012746.652 9  24179939.484 9  24179943.252 9
 118216942.543 9  92117088.033 9  22495943.624 9  22495946.049 9
 108232170.002 9  84336740.348 9  20595908.873 9  20595912.666 9
 117824722.307 9  91811441.305 9  22421322.527 9  22421330.089 9
 123530611.928 9  96079353.664 9  23149591.284 9  23149593.923 9
 124715443.574 9  97000885.128 9  23297904.282 9  23297908.082 9
 109864438.338 9  85450117.049 9  20574081.408 9  20574081.929 9
 106587420.554 9  82901318.247 9  19953394.570 9  19953396.532 9
 127659749.872 9  99290901.173 9  23856286.521 9  23856290.088 9
 108565138.556 9  84439544.185 9  20337915.186 9  20337917.235 9
 107563253.296 9  83660303.384 9  20107818.788 9  20107819.892 9
 18  9  7  0 36 30.0000000  0 19G01G03G06G07G08G11G17G18G19G22G28G30
                                R02R03R09R16R17R18R19
 108067504.601 9  84208413.469 9  20564586.205 9  20564593.940 9
 119220383.785 9  92898971.193 9  22686907.126 9  22686914.362 9
 130378363.705 9 101593493.699 9  24810204.586 9  24810213.313 9
 125684184.721 9  97935707.142 9  23916921.307 9  23916926.520 9
 128480417.208 9 100114577.480 9  24449035.430 9  24449043.513 9
 111480170.164 9  86867649.115 9  21213983.059 9  21213986.925 9
 116796681.710 9  91010382.847 9  22225684.176 9  22225688.884 9
 115528669.435 9  90022319.220 9  21984391.058 9  21984396.282 9
 126980771.562 9  98946039.856 9  24163648.979 9  24163652.741 9
 118183113.829 9  92090728.010 9  22489506.223 9  22489508.644 9
 108201350.032 9  84312724.781 9  20590044.032 9  20590047.827 9
 117906537.137 9  91875193.108 9  22436891.381 9  22436898.946 9
 123518393.230 9  96069850.283 9  23147301.468 9  23147304.095 9
 124625107.611 9  96930623.801 9  23281028.782 9  23281032.587 9
 109797421.000 9  85397992.449 9  20561531.217 9  20561531.738 9
 106661631.212 9  82959037.618 9  19967286.982 9  19967288.952 9
 127758975.438 9  99368076.536 9  23874829.247 9  23874832.832 9
 108626305.811 9  84487118.724 9  20349373.869 9  20349375.916 9
 107534187.160 9  83637696.400 9  20102385.172 9  20102386.275 9
 18  9  7  0 37  0.0000000  0 19G01G03G06G07G08G11G17G18G19G22G28G30
                                R02R03R09R16R17R18R19
 108116555.390 9  84246634.872 9  20573920.253 9  20573927.986 9
 119140858.742 9  92837003.639 9  22671774.004 9  22671781.237 9
 130271328.794 9 101510089.852 9  24789836.534 9  24789845.267 9
 125791486.204 9  98019318.653 9  23937340.127 9  23937345.348 9
 128560666.024 9 100177108.997 9  24464306.293 9  24464314.382 9
 111547449.330 9  86920074.439 9  21226785.859 9  21226789.725 9
 116745424.024 9  90970441.805 9  22215930.154 9  22215934.859 9
 115619743.717 9  90093286.174 9  22001721.932 9  22001727.161 9
 126895251.014 9  98879400.497 9  24147374.938 9  24147378.693 9
 118149764.880 9  92064741.823 9  22483160.124 9  22483162.543 9
 108170886.715 9  84288987.128 9  20584247.058 9  20584250.854 9
 117988667.307 9  91939190.619 9  22452520.251 9  22452527.822 9
 123506883.425 9  96060898.266 9  23145144.496 9  23145147.110 9
 124535097.914 9  96860616.278 9  23264214.200 9  23264218.000 9
 109731074.279 9  85346389.432 9  20549106.616 9  20549107.141 9
 106736506.402 9  83017273.869 9  19981303.781 9  19981305.752 9
 127858120.784 9  99445189.486 9  23893356.996 9  23893360.604 9
 108687692.017 9  84534863.532 9  20360873.587 9  20360875.640 9
 107505510.254 9  83615392.132 9  20097024.333 9  20097025.437 9
 18  9  7  0 37 30.0000000  0 19G01G03G06G07G08G11G17G18G19G22G28G30
                                R02R03R09R16R17R18R19
 108166082.462 9  84285227.405 9  20583344.934 9  20583352.665 9
 119061651.559 9  92775283.775 9  22656701.364 9  22656708.593 9
 130164404.043 9 101426771.912 9  24769489.395 9  24769498.115 9
 125898821.277 9  98102956.314 9  23957765.356 9  23957770.591 9
 128640948.930 9 100239667.060 9  24479583.656 9  24479591.757 9
 111615033.216 9  86972737.203 9  21239646.648 9  21239650.515 9
 116694299.245 9  90930604.332 9  22206201.419 9  22206206.119 9
 115711106.739 9  90164478.130 9  22019107.744 9  22019112.975 9
 126809818.562 9  98812829.771 9  24131117.671 9  24131121.422 9
 118116898.022 9  92039131.293 9  22476905.762 9  22476908.180 9
 108140782.650 9  84265529.404 9  20578518.453 9  20578522.252 9
 118071110.636 9  92003432.159 9  22468208.706 9  22468216.280 9
 123496084.572 9  96052499.194 9  23143120.769 9  23143123.374 9
 124445420.086 9  96790866.817 9  23247461.657 9  23247465.467 9
 109665402.075 9  85295311.058 9  20536808.317 9  20536808.840 9
 106812044.470 9  83076025.677 9  19995444.682 9  19995446.659 9
 127957186.016 9  99522240.180 9  23911869.733 9  23911873.352 9
 108749295.966 9  84582777.708 9  20372414.088 9  20372416.142 9
 107477222.775 9  83593390.782 9  20091736.271 9  20091737.369 9
 18  9  7  0 38  0.0000000  0 19G01G03G06G07G08G11G17G18G19G22G28G30
                                R02R03R09R16R17R18R19
 108216081.657 9  84324187.822 9  20592859.461 9  20592867.190 9
 118982763.413 9  92713812.512 9  22641689.434 9  22641696.658 9
 130057589.240 9 101343539.658 9  24749163.168 9  24749171.874 9
 126006185.149 9  98186616.422 9  23978196.061 9  23978201.308 9
 128721263.626 9 100302249.875 9  24494867.084 9  24494875.200 9
 111682917.823 9  87025634.296 9  21252564.661 9  21252568.529 9
 116643305.168 9  90890868.694 9  22196497.564 9  22196502.263 9
 115802753.724 9  90235891.348 9  22036547.598 9  22036552.834 9
 126724472.641 9  98746326.482 9  24114876.862 9  24114880.607 9
 118084512.860 9  92013896.106 9  22470743.068 9  22470745.484 9
 108111037.517 9  84242351.379 9  20572858.142 9  20572861.940 9
 118153862.222 9  92067913.888 9  22483955.830 9  22483963.410 9
 123485995.552 9  96044652.228 9  23141230.054 9  23141232.648 9
 124356076.454 9  96721377.306 9  23230771.531 9  23230775.345 9
 109600405.727 9  85244758.351 9  20524636.583 9  20524637.104 9
 106888240.443 9  83135289.204 9  20009708.734 9  20009710.712 9
 128056168.104 9  99599226.154 9  23930366.972 9  23930370.613 9
 108811113.491 9  84630858.009 9  20383994.591 9  20383996.643 9
 107449321.665 9  83571689.936 9  20086520.440 9  20086521.534 9
 18  9  7  0 38 30.0000000  0 19G01G03G06G07G08G11G17G18G19G22G28G30
                                R02R03R09R16R17R18R19
 108266553.830 9  84363516.785 9  20602463.998 9  20602471.728 9
 118904200.449 9  92652594.625 9  22626739.394 9  22626746.616 9
 129950889.225 9 101260396.803 9  24728858.820 9  24728867.523 9
 126113577.882 9  98270299.015 9  23998632.260 9  23998637.522 9
 128801613.353 9 100364860.013 9  24510157.158 9  24510165.284 9
 111751104.464 9  87078766.744 9  21265540.147 9  21265544.015 9
 116592445.025 9  90851237.428 9  22186819.190 9  22186823.885 9
 115894685.204 9  90307526.263 9  22054041.581 9  22054046.817 9
 126639216.310 9  98679892.997 9  24098653.107 9  24098656.847 9
 118052614.366 9  91989040.143 9  22464672.981 9  22464675.396 9
 108081656.191 9  84219456.836 9  20567267.064 9  20567270.863 9
 118236922.153 9  92132635.895 9  22499761.622 9  22499769.206 9
 123476620.722 9  96037360.721 9  23139473.195 9  23139475.782 9
 124267074.413 9  96652153.537 9  23214145.172 9  23214148.976 9
 109536091.769 9  85194736.380 9  20512592.648 9  20512593.169 9
 106965094.392 9  83195064.492 9  20024095.958 9  20024097.938 9
 128155069.516 9  99676149.422 9  23948849.103 9  23948852.757 9
 108873145.908 9  84679105.440 9  20395615.356 9  20395617.410 9
 107421809.554 9  83550291.648 9  20081377.326 9  20081378.415 9
 18  9  7  0 39  0.0000000  0 19G01G03G06G07G08G11G17G18G19G22G28G30
                                R02R03R09R16R17R18R19
 108317494.154 9  84403210.540 9  20612157.622 9  20612165.353 9
 118825963.300 9  92591630.642 9  22611851.337 9  22611858.553 9
 129844303.053 9 101177342.687 9  24708576.113 9  24708584.804 9
 126220993.917 9  98353999.785 9  24019072.880 9  24019078.150 9
 128881994.889 9 100427494.917 9  24525453.300 9  24525461.441 9
 111819588.748 9  87132131.118 9  21278572.276 9  21278576.144 9
 116541716.401 9  90811708.635 9  22177165.850 9  22177170.544 9
 115986895.917 9  90379378.754 9  22071588.705 9  22071593.945 9
 126554047.642 9  98613527.804 9  24082446.046 9  24082449.786 9
 118021201.416 9  91964562.530 9  22458695.288 9  22458697.700 9
 108052637.612 9  84196844.952 9  20561745.015 9  20561748.815 9
 118320284.863 9  92197593.827 9  22515625.036 9  22515632.627 9
 123467958.995 9  96030623.831 9  23137849.985 9  23137852.569 9
 124178415.535 9  96583196.587 9  23197582.981 9  23197586.797 9
 109472460.732 9  85145245.569 9  20500676.602 9  20500677.125 9
 107042601.220 9  83255347.562 9  20038605.413 9  20038607.397 9
 128253886.824 9  99753007.283 9  23967315.513 9  23967319.177 9
 108935388.646 9  84727516.441 9  20407275.531 9  20407277.589 9
 107394682.226 9  83529192.637 9  20076306.142 9  20076307.226 9
 18  9  7  0 39 30.0000000  0 19G01G03G06G07G08G11G17G18G19G22G28G30
                                R02R03R09R16R17R18R19
 108368901.264 9  84443268.029 9  20621940.070 9  20621947.800 9
 118748055.894 9  92530923.599 9  22597026.031 9  22597033.239 9
 129737833.441 9 101094379.409 9  24688315.577 9  24688324.255 9
 126328431.058 9  98437716.984 9  24039517.529 9  24039522.812 9
 128962409.843 9 100490155.854 9  24540755.807 9  24540763.964 9
 111888369.781 9  87185726.723 9  21291660.875 9  21291664.745 9
 116491119.803 9  90772282.724 9  22167537.630 9  22167542.322 9
 116079384.016 9  90451447.383 9  22089188.620 9  22089193.864 9
 126468967.793 9  98547231.853 9  24066255.863 9  24066259.594 9
 117990276.503 9  91940465.191 9  22452810.476 9  22452812.889 9
 108023985.014 9  84174518.251 9  20556292.608 9  20556296.409 9
 118403948.294 9  92262786.082 9  22531545.679 9  22531553.277 9
 123460012.123 9  96024443.001 9  23136360.692 9  23136363.260 9
 124090105.457 9  96514510.988 9  23181085.904 9  23181089.715 9
 109409516.661 9  85096289.073 9  20488889.197 9  20488889.719 9
 107120758.114 9  83316136.257 9  20053236.547 9  20053238.532 9
 128352620.308 9  99829799.909 9  23985766.286 9  23985769.971 9
 108997840.639 9  84776090.222 9  20418974.887 9  20418976.943 9
 107367940.135 9  83508393.230 9  20071306.992 9  20071308.077 9
 18  9  7  0 40  0.0000000  0 19G01G03G06G07G08G11G17G18G19G22G28G30
                                R02R03R09R16R17R18R19
 108420775.093 9  84483689.197 9  20631811.329 9  20631819.059 9
 118670483.516 9  92470477.604 9  22582264.488 9  22582271.693 9
 129631484.200 9 101011509.896 9  24668077.970 9  24668086.642 9
 126435888.739 9  98521450.193 9  24059966.082 9  24059971.378 9
 129042859.810 9 100552844.071 9  24556064.979 9  24556073.152 9
 111957447.960 9  87239553.873 9  21304806.017 9  21304809.888 9
 116440657.935 9  90732961.789 9  22157935.055 9  22157939.747 9
 116172149.157 9  90523731.903 9  22106841.244 9  22106846.489 9
 126383979.496 9  98481007.234 9  24050083.106 9  24050086.830 9
 117959843.478 9  91916751.143 9  22447019.265 9  22447021.679 9
 107995701.936 9  84152479.487 9  20550910.519 9  20550914.320 9
 118487911.683 9  92328212.078 9  22547523.397 9  22547531.000 9
 123452783.554 9  96018820.811 9  23135006.039 9  23135008.600 9
 124002151.049 9  96446102.048 9  23164655.249 9  23164659.050 9
 109347265.104 9  85047871.180 9  20477231.491 9  20477232.017 9
 107199564.898 9  83377430.413 9  20067989.349 9  20067991.336 9
 128451271.320 9  99906528.381 9  24004201.654 9  24004205.361 9
 109060502.197 9  84824826.972 9  20430713.522 9  20430715.582 9
 107341584.974 9  83487894.779 9  20066380.167 9  20066381.251 9
 18  9  7  0 40 30.0000000  0 19G01G03G06G07G08G11G17G18G19G22G28G30
                                R02R03R09R16R17R18R19
 108473109.919 9  84524469.585 9  20641770.312 9  20641778.042 9
 118593245.841 9  92410292.420 9  22567566.634 9  22567573.835 9
 129525253.641 9 100928732.907 9  24647862.914 9  24647871.569 9
 126543360.402 9  98605194.291 9  24080417.301 9  24080422.610 9
 129123341.516 9 100615557.054 9  24571380.164 9  24571388.346 9
 112026818.094 9  87293608.523 9  21318006.715 9  21318010.585 9
 116390326.934 9  90693742.845 9  22148357.370 9  22148362.058 9
 116265185.290 9  90596227.576 9  22124545.443 9  22124550.692 9
 126299079.464 9  98414851.381 9  24033927.155 9  24033930.875 9
 117929900.607 9  91893419.036 9  22441321.326 9  22441323.740 9
 107967786.499 9  84130727.187 9  20545598.397 9  20545602.200 9
 118572168.568 9  92393866.767 9  22563556.969 9  22563564.579 9
 123446270.984 9  96013755.500 9  23133785.571 9  23133788.126 9
 123914553.296 9  96377970.422 9  23148291.283 9  23148295.093 9
 109285705.558 9  84999991.547 9  20465703.356 9  20465703.878 9
 107279014.771 9  83439224.734 9  20082862.550 9  20082864.543 9
 128549835.778 9  99983189.574 9  24022620.817 9  24022624.537 9
 109123367.901 9  84873722.516 9  20442490.389 9  20442492.450 9
 107315611.740 9  83467693.393 9  20061524.732 9  20061525.811 9
 18  9  7  0 41  0.0000000  0 19G01G03G06G07G08G11G17G18G19G22G28G30
                                R02R03R09R16R17R18R19
 108525904.303 9  84565608.072 9  20651816.745 9  20651824.473 9
 118516346.745 9  92350371.072 9  22552933.203 9  22552940.398 9
 129419144.236 9 100846050.288 9  24627670.940 9  24627679.586 9
 126650844.258 9  98688947.912 9  24100870.824 9  24100876.141 9
 129203855.616 9 100678295.261 9  24586701.528 9  24586709.723 9
 112096479.191 9  87347889.890 9  21331262.786 9  21331266.659 9
 116340127.595 9  90654626.480 9  22138804.752 9  22138809.438 9
 116358490.610 9  90668933.004 9  22142300.867 9  22142306.120 9
 126214268.928 9  98348765.261 9  24017788.238 9  24017791.955 9
 117900450.182 9  91870470.655 9  22435717.095 9  22435719.509 9
 107940241.401 9  84109263.468 9  20540356.743 9  20540360.549 9
 118656716.800 9  92459748.483 9  22579645.981 9  22579653.596 9
 123440475.547 9  96009247.961 9  23132699.491 9  23132702.041 9
 123827317.015 9  96310120.014 9  23131994.789 9  23131998.591 9
 109224842.306 9  84952653.440 9  20454305.640 9  20454306.168 9
 107359105.623 9  83501517.606 9  20097855.735 9  20097857.731 9
 128648313.879 9 100059783.540 9  24041023.887 9  24041027.633 9
 109186436.704 9  84922776.024 9  20454305.305 9  20454307.367 9
 107290021.172 9  83447789.625 9  20056740.840 9  20056741.917 9
 18  9  7  0 41 30.0000000  0 19G01G03G06G07G08G11G17G18G19G22G28G30
                                R02R03R09R16R17R18R19
 108579157.093 9  84607103.756 9  20661950.411 9  20661958.138 9
 118439790.436 9  92290716.821 9  22538365.010 9  22538372.201 9
 129313158.828 9 100763464.292 9  24607502.560 9  24607511.197 9
 126758338.334 9  98772709.513 9  24121326.279 9  24121331.600 9
 129284402.776 9 100741059.222 9  24602029.188 9  24602037.398 9
 112166430.474 9  87402397.369 9  21344574.084 9  21344577.959 9
 116290061.521 9  90615613.971 9  22129277.482 9  22129282.165 9
 116452063.638 9  90741847.035 9  22160107.235 9  22160112.492 9
 126129549.456 9  98282750.083 9  24001666.662 9  24001670.381 9
 117871494.923 9  91847908.125 9  22430207.085 9  22430209.497 9
 107913069.512 9  84088090.567 9  20535186.105 9  20535189.910 9
 118741554.510 9  92525855.769 9  22595790.075 9  22595797.695 9
 123435400.215 9  96005300.506 9  23131748.357 9  23131750.901 9
 123740447.949 9  96242555.223 9  23115766.889 9  23115770.682 9
 109164679.525 9  84905860.174 9  20443039.078 9  20443039.604 9
 107439835.563 9  83564307.543 9  20112968.561 9  20112970.561 9
 128746705.731 9 100136310.452 9  24059410.818 9  24059414.585 9
 109249707.907 9  84971986.945 9  20466158.144 9  20466160.210 9
 107264812.815 9  83428183.146 9  20052028.388 9  20052029.460 9
 18  9  7  0 42  0.0000000  0 19G01G03G06G07G08G11G17G18G19G22G28G30
                                R02R03R09R16R17R18R19
 108632863.948 9  84648953.258 9  20672170.483 9  20672178.208 9
 118363577.986 9  92231330.517 9  22523862.247 9  22523869.433 9
 129207297.092 9 100680974.684 9  24587357.699 9  24587366.323 9
 126865838.027 9  98856475.419 9  24141782.857 9  24141788.200 9
 129364981.305 9 100803847.633 9  24617362.812 9  24617371.035 9
 112236668.058 9  87457127.946 9  21357939.857 9  21357943.735 9
 116240126.351 9  90576703.459 9  22119775.128 9  22119779.808 9
 116545899.783 9  90814966.093 9  22177963.671 9  22177968.933 9
 126044919.441 9  98216804.652 9  23985562.079 9  23985565.789 9
 117843034.407 9  91825731.093 9  22424791.234 9  22424793.647 9
 107886270.552 9  84067208.253 9  20530086.438 9  20530090.245 9
 118826676.652 9  92592184.686 9  22611988.299 9  22611995.925 9
 123431043.250 9  96001911.774 9  23130931.850 9  23130934.390 9
 123653948.604 9  96175278.031 9  23099608.029 9  23099611.803 9
 109105218.117 9  84859612.426 9  20431903.856 9  20431904.379 9
 107521199.379 9  83627590.498 9  20128200.048 9  20128202.051 9
 128845008.924 9 100212768.429 9  24077781.165 9  24077784.947 9
 109313177.594 9  85021352.252 9  20478048.159 9  20478050.226 9
 107239984.003 9  83408871.845 9  20047386.906 9  20047387.979 9
 18  9  7  0 42 30.0000000  0 19G01G03G06G07G08G11G17G18G19G22G28G30
                                R02R03R09R16R17R18R19
 108687024.079 9  84691155.961 9  20682476.810 9  20682484.535 9
 118287713.931 9  92172215.688 9  22509425.783 9  22509432.965 9
 129101562.180 9 100598583.916 9  24567236.959 9  24567245.565 9
 126973341.594 9  98940244.364 9  24162240.157 9  24162245.517 9
 129445592.599 9 100866661.593 9  24632702.658 9  24632710.889 9
 112307191.807 9  87512081.509 9  21371360.086 9  21371363.966 9
 116190323.670 9  90537896.194 9  22110297.978 9  22110302.654 9
 116639997.686 9  90888289.127 9  22195869.913 9  22195875.175 9
 125960380.537 9  98150930.209 9  23969474.840 9  23969478.543 9
 117815071.510 9  91803941.822 9  22419470.072 9  22419472.485 9
 107859847.628 9  84046618.962 9  20525058.323 9  20525062.130 9
 118912081.748 9  92658734.085 9  22628240.369 9  22628248.001 9
 123427407.368 9  95999083.881 9  23130250.476 9  23130253.012 9
 123567824.712 9  96108292.802 9  23083519.347 9  23083523.117 9
 109046462.646 9  84813913.718 9  20420900.850 9  20420901.375 9
 107603195.209 9  83691365.029 9  20143549.842 9  20143551.846 9
 128943224.088 9 100289157.893 9  24096135.095 9  24096138.903 9
 109376845.252 9  85070871.516 9  20489975.276 9  20489977.349 9
 107215535.151 9  83389856.089 9  20042816.438 9  20042817.506 9
 18  9  7  0 43  0.0000000  0 18G01G03G06G07G08G11G17G18G19G22G28G30
                                R02R03R09R16R18R19
 108741635.544 9  84733710.347 9  20692869.028 9  20692876.754 9
 118212201.744 9  92113375.040 9  22495056.279 9  22495063.456 9
 128995956.240 1 100516293.598 1  24547140.798 1  24547149.398 1
 127080846.450 9  99024014.321 9  24182697.697 9  24182703.071 9
 129526236.876 9 100929501.229 9  24648048.800 9  24648057.045 9
 112378000.336 9  87567256.983 9  21384834.504 9  21384838.384 9
 116140653.956 9  90499192.533 9  22100846.137 9  22100850.810 9
 116734355.358 9  90961814.580 9  22213825.585 9  22213830.849 9
 125875933.563 9  98085127.412 9  23953405.085 9  23953408.778 9
 117787608.334 9  91782541.934 9  22414244.012 9  22414246.427 9
 107833802.764 9  84026324.252 9  20520102.158 9  20520105.968 9
 118997767.222 9  92725501.959 9  22644545.793 9  22644553.432 9
 123424493.631 9  95996817.669 9  23129704.423 9  23129706.952 9
 123482080.993 9  96041603.335 9  23067501.632 9  23067505.380 9
 108988416.675 9  84768766.853 9  20410030.704 9  20410031.228 9
 107685820.705 9  83755629.273 9  20159017.531 9  20159019.542 9
 109440709.548 9  85120543.748 9  20501939.209 9  20501941.282 9
 107191466.031 9  83371135.670 9  20038316.964 9  20038318.031 9
 18  9  7  0 43 30.0000000  0 19G01G03G06G07G08G11G17G18G19G22G28G30
                                R02R03R09R10R16R18R19
 108796693.743 9  84776612.836 9  20703346.258 9  20703353.984 9
 118137042.164 9  92054809.158 9  22480753.868 9  22480761.039 9
 128890478.528 9 100434103.251 9  24527068.998 9  24527077.579 9
 127188347.644 9  99107781.439 9  24203154.529 9  24203159.915 9
 129606911.710 9 100992364.677 9  24663400.755 9  24663409.015 9
 112449089.315 9  87622650.977 9  21398362.298 9  21398366.183 9
 116091115.156 9  90460590.891 9  22091419.201 9  22091423.869 9
 116828967.806 9  91035538.548 9  22231829.748 9  22231835.017 9
 125791576.639 9  98019394.759 9  23937352.485 9  23937356.174 9
 117760643.780 9  91761530.593 9  22409112.828 9  22409115.243 9
 107808135.544 9  84006323.817 9  20515217.851 9  20515221.662 9
 119083727.671 9  92792484.103 9  22660903.541 9  22660911.186 9
 123422300.381 9  95995111.823 9  23129293.398 9  23129295.923 9
 123396719.569 9  95975211.193 9  23051555.345 9  23051559.074 9
 108931080.949 9  84724172.390 9  20399293.571 9  20399294.098 9
 128577933.86819 100005039.87619  24120907.642 9  24120912.353 9
 107769070.216 9  83820378.875 9  20174602.027 9  20174604.042 9
 109504766.251 9  85170365.626 9  20513939.190 9  20513941.263 9
 107167773.055 9  83352707.811 9  20033887.804 9  20033888.868 9
 18  9  7  0 44  0.0000000  0 19G01G03G06G07G08G11G17G18G19G22G28G30
                                R02R03R09R10R16R18R19
 108852200.004 9  84819864.463 9  20713908.752 9  20713916.480 9
 118062241.843 9  91996523.208 9  22466519.829 9  22466526.997 9
 128785134.538 9 100352017.064 9  24507022.674 9  24507031.245 9
 127295845.809 9  99191546.190 9  24223610.790 9  24223616.188 9
 129687620.943 9 101055254.971 9  24678759.224 9  24678767.489 9
 112520460.888 9  87678265.165 9  21411943.876 9  21411947.766 9
 116041710.883 9  90422094.067 9  22082017.872 9  22082022.536 9
 116923836.046 9  91109461.850 9  22249882.575 9  22249887.844 9
 125707313.670 9  97953735.362 9  23921317.730 9  23921321.405 9
 117734183.180 9  91740911.939 9  22404077.547 9  22404079.963 9
 107782851.157 9  83986621.692 9  20510406.397 9  20510410.208 9
 119169963.851 9  92859681.111 9  22677313.752 9  22677321.401 9
 123420832.561 9  95993970.222 9  23129018.302 9  23129020.818 9
 123311748.488 9  95909122.658 9  23035681.971 9  23035685.681 9
 108874462.187 9  84680135.581 9  20388690.692 9  20388691.217 9
 128451516.758 9  99906715.498 9  24097192.083 9  24097196.784 9
 107852944.035 9  83885614.038 9  20190303.403 9  20190305.426 9
 109569017.212 9  85220338.579 9  20525975.572 9  20525977.650 9
 107144459.506 9  83334575.075 9  20029529.564 9  20029530.622 9
 18  9  7  0 44 30.0000000  0 19G01G03G06G07G08G11G17G18G19G22G28G30
                                R02R03R09R10R16R18R19
 108908148.344 9  84863460.570 9  20724555.369 9  20724563.097 9
 117987800.217 9  91938516.765 9  22452354.045 9  22452361.208 9
 128679922.214 9 100270033.487 9  24487001.395 9  24487009.954 9
 127403334.639 9  99275303.685 9  24244065.260 9  24244070.667 9
 129768360.591 9 101118168.891 9  24694123.537 9  24694131.824 9
 112592109.472 9  87734095.227 9  21425578.151 9  21425582.042 9
 115992437.162 9  90383698.967 9  22072641.389 9  22072646.052 9
 117018954.116 9  91183579.807 9  22267982.957 9  22267988.231 9
 125623141.535 9  97888146.700 9  23905300.294 9  23905303.966 9
 117708224.167 9  91720684.135 9  22399137.712 9  22399140.129 9
 107757947.689 9  83967216.385 9  20505667.430 9  20505671.243 9
 119256469.026 9  92927087.715 9  22693775.159 9  22693782.814 9
 123420086.829 9  95993390.270 9  23128878.506 9  23128881.007 9
 123227168.437 9  95843338.230 9  23019881.666 9  23019885.362 9
 108818559.392 9  84636655.629 9  20378221.894 9  20378222.419 9
 128325290.090 9  99808539.235 9  24073512.256 9  24073516.949 9
 107937435.396 9  83951329.553 9  20206120.354 9  20206122.374 9
 109633457.013 9  85270458.426 9  20538047.317 9  20538049.394 9
 107121520.409 9  83316733.568 9  20025241.332 9  20025242.387 9
 18  9  7  0 45  0.0000000  0 19G01G03G06G07G08G11G17G18G19G22G28G30
                                R02R03R09R10R16R18R19
 108964537.643 9  84907400.276 9  20735285.901 9  20735293.631 9
 117913721.420 9  91880793.044 9  22438257.306 9  22438264.464 9
 128574844.359 9 100188154.647 9  24467005.738 9  24467014.295 9
 127510812.318 9  99359052.450 9  24264517.640 9  24264523.065 9
 129849131.894 9 101181107.534 9  24709493.831 9  24709502.127 9
 112664034.625 9  87790140.791 9  21439265.060 9  21439268.953 9
 115943295.614 9  90345406.860 9  22063290.057 9  22063294.718 9
 117114320.361 9  91257891.159 9  22286130.556 9  22286135.832 9
 125539061.674 9  97822629.944 9  23889300.415 9  23889304.081 9
 117682769.261 9  91700849.134 9  22394293.811 9  22394296.231 9
 107733427.965 9  83948110.101 9  20501001.485 9  20501005.300 9
 119343241.340 9  92994702.484 9  22710287.397 9  22710295.058 9
 123420065.049 9  95993373.342 9  23128874.416 9  23128876.914 9
 123142985.190 9  95777862.458 9  23004155.464 9  23004159.139 9
 108763376.861 9  84593735.881 9  20367887.980 9  20367888.506 9
 128199258.332 9  99710514.567 9  24049868.995 9  24049873.680 9
 108022542.421 9  84017523.883 9  20222052.585 9  20222054.610 9
 109698084.931 9  85320724.545 9  20550154.333 9  20550156.419 9
 107098956.045 9  83299183.519 9  20021023.154 9  20021024.206 9
 18  9  7  0 45 30.0000000  0 19G01G03G06G07G08G11G17G18G19G22G28G30
                                R02R03R09R10R16R18R19
 109021367.026 9  84951682.903 9  20746100.180 9  20746107.912 9
 117840010.058 9  91823355.632 9  22424230.490 9  22424237.646 9
 128469904.258 9 100106383.170 9  24447036.278 9  24447044.827 9
 127618277.487 9  99442791.490 9  24284967.621 9  24284973.059 9
 129929936.180 9 101244071.864 9  24724870.413 9  24724878.720 9
 112736236.054 9  87846401.639 9  21453004.539 9  21453008.434 9
 115894287.917 9  90307219.056 9  22053964.193 9  22053968.851 9
 117209933.637 9  91332395.005 9  22304325.162 9  22304330.439 9
 125455076.069 9  97757186.660 9  23873318.452 9  23873322.108 9
 117657821.997 9  91681409.700 9  22389546.511 9  22389548.932 9
 107709295.146 9  83929305.300 9  20496409.168 9  20496412.985 9
 119430279.353 9  93062524.286 9  22726850.200 9  22726857.867 9
 123420769.502 9  95993921.213 9  23129006.457 9  23129008.964 9
 123059204.296 9  95712699.643 9  22988504.414 9  22988508.064 9
 108708918.935 9  84551379.714 9  20357689.762 9  20357690.288 9
 128073426.931 9  99612645.673 9  24026263.364 9  24026268.055 9
 108108263.169 9  84084195.564 9  20238099.697 9  20238101.725 9
 109762900.758 9  85371136.838 9  20562296.534 9  20562298.625 9
 107076766.955 9  83281925.357 9  20016875.124 9  20016876.171 9
 18  9  7  0 46  0.0000000  0 19G01G03G06G07G08G11G17G18G19G22G28G30
                                R02R03R09R10R16R18R19
 109078631.100 9  84996304.254 9  20756997.175 9  20757004.909 9
 117766665.985 9  91766204.428 9  22410273.561 9  22410280.711 9
 128365100.470 9 100024717.929 9  24427092.744 9  24427101.281 9
 127725724.343 9  99526516.235 9  24305414.137 9  24305419.594 9
 130010770.602 9 101307059.664 9  24740252.738 9  24740261.060 9
 112808708.836 9  87902873.926 9  21466795.659 9  21466799.556 9
 115845410.653 9  90269132.889 9  22044663.149 9  22044667.804 9
 117305788.495 9  91407087.085 9  22322565.748 9  22322571.029 9
 125371182.027 9  97691814.717 9  23857353.918 9  23857357.565 9
 117633379.900 9  91662363.907 9  22384895.337 9  22384897.759 9
 107685548.045 9  83910801.060 9  20491890.249 9  20491894.067 9
 119517576.964 9  93130548.375 9  22743462.401 9  22743470.074 9
 123422197.662 9  95995032.034 9  23129274.072 9  23129276.572 9
 122975827.551 9  95647851.140 9  22972928.881 9  22972932.513 9
 108655185.431 9  84509586.972 9  20347627.215 9  20347627.745 9
 127947797.730 9  99514934.164 9  24002695.578 9  24002700.247 9
 108194591.319 9  84151339.670 9  20254260.516 9  20254262.546 9
 109827899.489 9  85421691.413 9  20574472.982 9  20574475.071 9
 107054949.062 9  83264955.897 9  20012796.490 9  20012797.534 9
 18  9  7  0 46 30.0000000  0 19G01G03G06G07G08G11G17G18G19G22G28G30
                                R02R03R09R10R16R18R19
 109136330.924 9  85041265.143 9  20767977.096 9  20767984.833 9
 117693695.715 9  91709344.490 9  22396387.770 9  22396394.918 9
 128260438.024 9  99943162.817 9  24407176.112 9  24407184.639 9
 127833153.324 9  99610227.066 9  24325857.240 9  24325862.713 9
 130091638.458 9 101370073.588 9  24755641.371 9  24755649.691 9
 112881454.773 9  87959559.064 9  21480638.756 9  21480642.656 9
 115796667.716 9  90231151.395 9  22035387.665 9  22035392.317 9
 117401885.791 9  91481968.087 9  22340852.461 9  22340857.744 9
 125287383.285 9  97626517.012 9  23841407.535 9  23841411.178 9
 117609447.925 9  91643715.609 9  22380341.238 9  22380343.661 9
 107662191.448 9  83892601.111 9  20487445.639 9  20487449.458 9
 119605134.477 9  93198774.998 9  22760124.050 9  22760131.725 9
 123424353.960 9  95996709.152 9  23129678.163 9  23129680.664 9
 122892862.185 9  95583322.577 9  22957430.213 9  22957433.832 9
 108602182.790 9  84468362.712 9  20337701.511 9  20337702.037 9
 127822377.388 9  99417385.049 9  23979167.012 9  23979171.671 9
 108281526.905 9  84218956.218 9  20270535.054 9  20270537.089 9
 109893082.910 9  85472389.627 9  20586684.035 9  20586686.124 9
 107033504.798 9  83248277.041 9  20008787.699 9  20008788.740 9
 18  9  7  0 47  0.0000000  0 19G01G03G06G07G08G11G17G18G19G22G28G30
                                R02R03R09R10R16R18R19
 109194460.999 9  85086561.301 9  20779038.885 9  20779046.623 9
 117621099.009 9  91652775.641 9  22382573.067 9  22382580.211 9
 128155915.499 9  99861716.770 9  24387286.079 9  24387294.588 9
 127940558.506 9  99693919.348 9  24346295.817 9  24346301.307 9
 130172536.104 9 101433110.642 9  24771035.737 9  24771044.074 9
 112954468.593 9  88016452.936 9  21494532.835 9  21494536.737 9
 115748055.893 9  90193272.060 9  22026137.137 9  22026141.787 9
 117498219.778 9  91557033.520 9  22359184.218 9  22359189.504 9
 125203677.045 9  97561291.383 9  23825478.758 9  23825482.398 9
 117586024.424 9  91625463.522 9  22375883.900 9  22375886.325 9
 107639223.909 9  83874704.328 9  20483075.061 9  20483078.880 9
 119692945.828 9  93267199.398 9  22776834.016 9  22776841.699 9
 123427235.153 9  95998950.065 9  23130218.108 9  23130220.613 9
 122810309.310 9  95519114.867 9  22942008.583 9  22942012.182 9
 108549910.372 9  84427706.372 9  20327912.578 9  20327913.107 9
 127697167.019 9  99319999.234 9  23955677.845 9  23955682.497 9
 108369063.596 9  84287040.304 9  20286922.111 9  20286924.148 9
 109958446.027 9  85523227.611 9  20598928.746 9  20598930.835 9
 107012430.699 9  83231886.062 9  20004848.128 9  20004849.172 9
 18  9  7  0 47 30.0000000  0 19G01G03G06G07G08G11G17G18G19G22G28G30
                                R02R03R09R10R16R18R19
 109253020.754 9  85132192.276 9  20790182.438 9  20790190.176 9
 117548880.708 9  91596501.643 9  22368830.379 9  22368837.522 9
 128051536.282 9  99780382.327 9  24367423.365 9  24367431.872 9
 128047938.875 9  99777592.292 9  24366729.676 9  24366735.182 9
 130253465.689 9 101496172.605 9  24786436.163 9  24786444.513 9
 113027750.490 9  88073555.704 9  21508477.923 9  21508481.828 9
 115699576.607 9  90155496.007 9  22016911.825 9  22016916.471 9
 117594789.467 9  91632282.610 9  22377560.832 9  22377566.123 9
 125120065.560 9  97496139.636 9  23809567.976 9  23809571.602 9
 117563112.460 9  91607610.037 9  22371523.903 9  22371526.330 9
 107616649.147 9  83857113.602 9  20478779.228 9  20478783.048 9
 119781009.708 9  93335820.572 9  22793592.039 9  22793599.729 9
 123430843.684 9  96001756.700 9  23130894.346 9  23130896.850 9
 122728175.568 9  95455233.146 9  22926665.252 9  22926668.832 9
 108498373.041 9  84387621.769 9  20318261.300 9  20318261.833 9
 127572172.474 9  99222781.277 9  23932229.170 9  23932233.817 9
 108457199.719 9  84355590.613 9  20303421.385 9  20303423.423 9
 110023988.952 9  85574205.422 9  20611207.159 9  20611209.252 9
 106991726.592 9  83215782.900 9  20000977.690 9  20000978.726 9
 18  9  7  0 48  0.0000000  0 19G01G03G06G07G08G11G17G18G19G22G28G30
                                R02R03R09R10R16R18R19
 109312006.302 9  85178155.044 9  20801407.012 9  20801414.750 9
 117477042.242 9  91540523.628 9  22355159.966 9  22355167.106 9
 127947300.549 9  99699159.772 9  24347587.894 9  24347596.377 9
 128155290.029 9  99861242.466 9  24387157.978 9  24387163.504 9
 130334425.493 9 101559258.112 9  24801842.343 9  24801850.706 9
 113101297.343 9  88130864.924 9  21522473.436 9  21522477.344 9
 115651228.762 9  90117822.366 9  22007711.533 9  22007716.178 9
 117691591.245 9  91707712.558 9  22395981.605 9  22395986.897 9
 125036547.552 9  97431060.719 9  23793674.990 9  23793678.603 9
 117540711.985 9  91590155.137 9  22367261.223 9  22367263.646 9
 107594466.963 9  83839828.785 9  20474558.098 9  20474561.917 9
 119869321.624 9  93404635.041 9  22810397.246 9  22810404.939 9
 123435179.025 9  96005128.601 9  23131706.809 9  23131709.321 9
 122646463.243 9  95391679.180 9  22911400.656 9  22911404.220 9
 108447571.854 9  84348109.739 9  20308747.867 9  20308748.398 9
 127447396.198 9  99125733.043 9  23908821.472 9  23908826.124 9
 108545930.290 9  84424603.238 9  20320031.964 9  20320034.013 9
 110089708.383 9  85625320.533 9  20623518.625 9  20623520.718 9
 106971390.669 9  83199966.068 9  19997176.106 9  19997177.143 9
 18  9  7  0 48 30.0000000  0 19G01G03G06G07G08G11G17G18G19G22G28G30
                                R02R03R09R10R16R18R19
 109371415.839 9  85224448.191 9  20812712.270 9  20812720.007 9
 117405587.140 9  91484844.331 9  22341562.509 9  22341569.649 9
 127843210.501 9  99618050.677 9  24327780.191 9  24327788.666 9
 128262609.940 9  99944868.335 9  24407580.305 9  24407585.839 9
 130415415.988 9 101622367.594 9  24817254.318 9  24817262.679 9
 113175107.922 9  88188379.650 9  21536519.130 9  21536523.041 9
 115603013.240 9  90080251.842 9  21998536.415 9  21998541.056 9
 117788622.820 9  91783321.561 9  22414446.112 9  22414451.409 9
 124953124.201 9  97366055.528 9  23777800.041 9  23777803.650 9
 117518824.647 9  91573100.062 9  22363096.205 9  22363098.630 9
 107572679.496 9  83822851.536 9  20470412.082 9  20470415.902 9
 119957879.097 9  93473640.839 9  22827249.192 9  22827256.891 9
 123440241.368 1  96009065.981 1  23132655.489 1  23132658.000 1
 122565177.798 9  95328457.289 9  22896215.762 9  22896219.298 9
 108397510.269 9  84309172.953 9  20299372.939 9  20299373.470 9
 127322843.127 9  99028858.457 9  23885455.615 9  23885460.261 9
 108635252.620 9  84494076.139 9  20336753.308 9  20336755.362 9
 110155603.143 9  85676571.996 9  20635862.946 9  20635865.044 9
 106951422.307 9  83184435.132 9  19993443.222 9  19993444.256 9
 18  9  7  0 49  0.0000000  0 19G01G03G06G07G08G11G17G18G19G22G28G30
                                R02R03R09R10R16R18R19
 109431246.346 9  85271069.369 9  20824097.634 9  20824105.370 9
 117334517.744 9  91429465.587 9  22328038.448 9  22328045.587 9
 127739267.188 9  99537055.943 9  24308000.395 9  24308008.856 9
 128369895.019 9 100028467.019 9  24427996.037 9  24428001.590 9
 130496436.722 9 101685500.620 9  24832672.061 9  24832680.426 9
 113249179.891 9  88246098.059 9  21550614.563 9  21550618.477 9
 115554929.400 9  90042783.915 9  21989386.364 9  21989391.006 9
 117885881.169 9  91859107.262 9  22432953.780 9  22432959.083 9
 124869795.267 9  97301123.901 9  23761943.064 9  23761946.671 9
 117497451.326 9  91556445.534 9  22359028.992 9  22359031.415 9
 107551287.744 9  83806182.626 9  20466341.377 9  20466345.199 9
 120046678.412 9  93542835.091 9  22844147.154 9  22844154.858 9
 123446031.175 9  96013569.136 9  23133740.517 9  23133743.035 9
 122484322.515 9  95265569.889 9  22881111.285 9  22881114.810 9
 108348190.271 9  84270812.936 9  20290136.901 9  20290137.437 9
 127198516.499 9  98932160.000 9  23862132.232 9  23862136.871 9
 108725162.654 9  84564006.152 9  20353584.665 9  20353586.722 9
 110221670.889 9  85727958.038 9  20648239.649 9  20648241.742 9
 106931819.953 9  83169188.872 9  19989778.758 9  19989779.788 9
 18  9  7  0 49 30.0000000  0 19G01G03G06G07G08G11G17G18G19G22G28G30
                                R02R03R09R10R16R18R19
 109491496.766 9  85318017.751 9  20835562.906 9  20835570.641 9
 117263838.283 9  91374390.688 9  22314588.590 9  22314595.727 9
 127635473.504 9  99456177.809 9  24288249.067 9  24288257.514 9
 128477143.670 9 100112037.327 9  24448404.829 9  24448410.399 9
 130577489.135 9 101748658.311 9  24848095.847 9  24848104.221 9
 113323512.762 9  88304019.761 9  21564759.650 9  21564763.568 9
 115506978.706 9  90005419.749 9  21980261.642 9  21980266.281 9
 117983364.889 9  91935068.593 9  22451504.322 9  22451509.627 9
 124786562.321 9  97236267.105 9  23746104.327 9  23746107.923 9
 117476594.434 9  91540193.421 9  22355060.049 9  22355062.469 9
 107530294.946 9  83789824.596 9  20462346.584 9  20462350.408 9
 120135717.940 9  93612216.518 9  22861090.831 9  22861098.540 9
 123452549.736 9  96018639.112 9  23134962.104 9  23134964.626 9
 122403902.794 9  95203021.292 9  22866088.150 9  22866091.658 9
 108299615.809 9  84233032.797 9  20281040.466 9  20281041.002 9
 127074421.694 9  98835641.856 9  23838852.335 9  23838856.964 9
 108815658.156 9  84634391.522 9  20370525.627 9  20370527.690 9
 110287911.233 9  85779478.300 9  20660648.701 9  20660650.796 9
 106912584.069 9  83154227.628 9  19986182.813 9  19986183.843 9
 18  9  7  0 50  0.0000000  0 19G01G03G06G07G08G11G17G18G19G22G28G30
                                R02R03R09R10R16R18R19
 109552164.705 9  85365291.470 9  20847107.630 9  20847115.366 9
 117193551.770 9  91319621.983 9  22301213.506 9  22301220.642 9
 127531831.094 9  99375417.515 9  24268526.553 9  24268534.993 9
 128584353.254 9 100195577.243 9  24468806.149 9  24468811.724 9
 130658572.780 9 101811840.300 9  24863525.606 9  24863533.997 9
 113398104.826 9  88362143.447 9  21578954.048 9  21578957.966 9
 115459161.075 9  89968159.266 9  21971162.243 9  21971166.880 9
 118081071.759 9  92011203.807 9  22470097.328 9  22470102.635 9
 124703425.772 9  97171485.411 9  23730283.944 9  23730287.531 9
 117456254.848 9  91524344.407 9  22351189.544 9  22351191.961 9
 107509702.561 9  83773778.582 9  20458427.983 9  20458431.807 9
 120224994.601 9  93681782.732 9  22878079.626 9  22878087.339 9
 123459797.151 9  96024276.004 9  23136320.256 9  23136322.775 9
 122323923.208 9  95140815.016 9  22851147.241 9  22851150.732 9
 108251789.446 9  84195834.507 9  20272084.131 9  20272084.668 9
 126950562.563 9  98739307.023 9  23815616.643 9  23815621.261 9
 108906735.916 9  84705229.778 9  20387575.576 9  20387577.639 9
 110354322.541 9  85831131.546 9  20673089.772 9  20673091.866 9
 106893713.375 9  83139550.449 9  19982655.116 9  19982656.139 9
 18  9  7  0 50 30.0000000  0 19G01G03G06G07G08G11G17G18G19G22G28G30
                                R02R03R09R10R16R18R19
 109613247.198 9  85412888.214 9  20858731.245 9  20858738.982 9
 117123660.447 9  91265161.215 9  22287913.627 9  22287920.762 9
 127428341.148 9  99294776.052 9  24248833.031 9  24248841.458 9
 128691520.453 9 100279084.094 9  24489199.432 9  24489205.021 9
 130739687.263 9 101875046.349 9  24878961.211 9  24878969.612 9
 113472953.643 9  88420467.188 9  21593197.314 9  21593201.234 9
 115411476.139 9  89931002.175 9  21962088.100 9  21962092.736 9
 118178998.435 9  92087510.285 9  22488732.172 9  22488737.485 9
 124620385.406 9  97106778.659 9  23714481.867 9  23714485.448 9
 117436433.714 9  91508899.372 9  22347417.704 9  22347420.120 9
 107489511.596 9  83758045.349 9  20454585.781 9  20454589.608 9
 120314504.766 9  93751530.895 9  22895112.857 9  22895120.575 9
 123467773.649 9  96030479.943 9  23137815.052 9  23137817.571 9
 122244387.412 9  95078953.889 9  22836289.251 9  22836292.730 9
 108204713.279 9  84159219.705 9  20263268.281 9  20263268.820 9
 126826942.977 9  98643158.483 9  23792425.903 9  23792430.515 9
 108998391.668 9  84776517.564 9  20404733.741 9  20404735.809 9
 110420902.451 9  85882915.918 9  20685562.435 9  20685564.529 9
 106875206.513 9  83125156.211 9  19979195.462 9  19979196.489 9
 18  9  7  0 51  0.0000000  0 19G01G03G06G07G08G11G17G18G19G22G28G30
                                R02R03R09R10R16R18R19
 109674740.143 9  85460804.795 9  20870432.963 9  20870440.700 9
 117054165.595 9  91211009.386 9  22274689.194 9  22274696.328 9
 127325003.325 9  99214253.124 9  24229168.458 9  24229176.873 9
 128798640.805 9 100362554.412 9  24509583.822 9  24509589.432 9
 130820830.925 9 101938275.158 9  24894402.350 9  24894410.756 9
 113548055.904 9  88478988.419 9  21607488.808 9  21607492.731 9
 115363922.264 9  89893947.228 9  21953038.883 9  21953043.514 9
 118277140.822 9  92163984.858 9  22507408.058 9  22507413.375 9
 124537439.821 9  97042145.765 9  23698697.825 9  23698701.399 9
 117417130.354 9  91493857.807 9  22343744.386 9  22343746.798 9
 107469722.067 9  83742624.928 9  20450819.965 9  20450823.794 9
 120404243.695 9  93821457.311 9  22912189.625 9  22912197.347 9
 123476477.498 9  96037249.591 9  23139446.158 9  23139448.681 9
 122165298.181 9  95017440.121 9  22821514.661 9  22821518.121 9
 108158388.124 9  84123189.028 9  20254593.068 9  20254593.608 9
 126703565.156 9  98547198.004 9  23769280.502 9  23769285.102 9
 109090620.415 9  84848251.034 9  20421999.156 9  20422001.224 9
 110487647.616 9  85934828.820 9  20698066.057 9  20698068.152 9
 106857060.682 9  83111042.794 9  19975803.285 9  19975804.310 9
 18  9  7  0 51 30.0000000  0 19G01G03G06G07G08G11G17G18G19G22G28G30
                                R02R03R09R10R16R18R19
 109736643.084 9  85509040.847 9  20882212.706 9  20882220.444 9
 116985072.047 9  91157170.261 9  22261541.126 9  22261548.259 9
 127221821.303 9  99133851.565 9  24209533.560 9  24209541.971 9
 128905713.382 9 100445987.559 9  24529959.079 9  24529964.696 9
 130902005.446 9 102001528.044 9  24909849.339 9  24909857.741 9
 113623411.892 9  88537707.364 9  21621828.580 9  21621832.505 9
 115316501.782 9  89856996.208 9  21944015.061 9  21944019.691 9
 118375498.344 9  92240627.061 9  22526124.889 9  22526130.211 9
 124454591.901 9  96977589.025 9  23682932.329 9  23682935.883 9
 117398347.708 9  91479221.987 9  22340170.161 9  22340172.572 9
 107450337.305 9  83727519.910 9  20447131.174 9  20447135.005 9
 120494210.305 9  93891561.143 9  22929309.716 9  22929317.444 9
 123485911.102 9  96044586.844 9  23141214.007 9  23141216.529 9
 122086661.139 9  94956278.034 9  22806824.559 9  22806828.006 9
 108112818.559 9  84087746.022 9  20246059.361 9  20246059.903 9
 126580435.158 9  98451430.297 9  23746181.577 9  23746186.160 9
 109183420.078 9  84920428.523 9  20439371.467 9  20439373.541 9
 110554558.258 9  85986870.413 9  20710600.687 9  20710602.787 9
 106839276.863 9  83097210.933 9  19972478.789 9  19972479.814 9
 18  9  7  0 52  0.0000000  0 19G01G03G06G07G08G11G17G18G19G22G28G30
                                R02R03R09R10R16R18R19
 109798953.514 9  85557594.426 9  20894069.988 9  20894077.727 9
 116916382.592 9  91103646.018 9  22248469.952 9  22248477.083 9
 127118796.608 9  99053572.600 9  24189928.599 9  24189937.005 9
 129012735.366 9 100529381.243 9  24550324.738 9  24550330.372 9
 130983210.614 9 102064804.748 9  24925302.206 9  24925310.621 9
 113699019.470 9  88596622.349 9  21636216.232 9  21636220.160 9
 115269214.492 9  89820148.976 9  21935016.584 9  21935021.212 9
 118474068.487 9  92317434.952 9  22544882.173 9  22544887.498 9
 124371841.307 9  96913108.057 9  23667185.404 9  23667188.954 9
 117380086.971 9  91464992.851 9  22336695.251 9  22336697.659 9
 107431358.885 9  83712731.532 9  20443519.700 9  20443523.531 9
 120584401.483 9  93961839.955 9  22946472.548 9  22946480.282 9
 123496074.392 9  96052491.633 9  23143118.598 9  23143121.117 9
 122008480.479 9  94895470.882 9  22792219.734 9  22792223.174 9
 108068006.992 9  84052892.571 9  20237667.601 9  20237668.146 9
 126457557.126 9  98355858.515 9  23723129.955 9  23723134.534 9
 109276787.291 9  84993047.461 9  20456850.009 9  20456852.085 9
 110621632.726 9  86039039.449 9  20723165.992 9  20723168.090 9
 106821853.802 9  83083659.663 9  19969221.732 9  19969222.757 9
 18  9  7  0 52 30.0000000  0 19G01G03G06G07G08G11G17G18G19G22G28G30
                                R02R03R09R10R16R18R19
 109861668.719 9  85606463.416 9  20906004.296 9  20906012.035 9
 116848099.824 9  91050438.671 9  22235476.170 9  22235483.300 9
 127015930.510 9  98973417.255 9  24170353.789 9  24170362.181 9
 129119703.910 9 100612733.313 9  24570680.207 9  24570685.852 9
 131064446.306 9 102128105.211 9  24940760.902 9  24940769.335 9
 113774877.118 9  88655732.195 9  21650651.470 9  21650655.400 9
 115222060.092 9  89783405.289 9  21926043.399 9  21926048.027 9
 118572848.300 9  92394406.204 9  22563679.370 9  22563684.702 9
 124289188.276 9  96848703.140 9  23651457.023 9  23651460.563 9
 117362348.875 9  91451170.980 9  22333319.787 9  22333322.190 9
 107412787.954 9  83698260.668 9  20439985.776 9  20439989.609 9
 120674813.806 9  94032291.091 9  22963677.460 9  22963685.200 9
 123506966.630 9  96060963.367 9  23145159.803 9  23145162.324 9
 121930760.347 9  94835021.924 9  22777700.936 9  22777704.368 9
 108023955.486 9  84018630.274 9  20229418.180 9  20229418.728 9
 126334935.055 9  98260485.847 9  23700126.327 9  23700130.892 9
 109370718.340 9  85066104.913 9  20474434.121 9  20474436.204 9
 110688869.069 9  86091334.382 9  20735761.625 9  20735763.723 9
 106804790.449 9  83070388.194 9  19966031.897 9  19966032.916 9
 18  9  7  0 53  0.0000000  0 19G01G03G06G07G08G11G17G18G19G22G28G30
                                R02R03R09R10R16R18R19
 109924786.682 9  85655646.244 9  20918015.245 9  20918022.984 9
 116780227.015 9  90997550.762 9  22222560.408 9  22222567.539 9
 126913225.108 9  98893387.091 9  24150809.586 9  24150817.974 9
 129226616.389 9 100696041.699 9  24591025.005 9  24591030.659 9
 131145712.598 9 102191429.560 9  24956225.389 9  24956233.831 9
 113850983.102 9  88715035.557 9  21665133.959 9  21665137.889 9
 115175039.155 9  89746765.609 9  21917095.604 9  21917100.229 9
 118671836.027 9  92471539.482 9  22582516.120 9  22582521.456 9
 124206633.717 9  96784374.945 9  23635747.388 9  23635750.920 9
 117345134.748 9  91437757.386 9  22330044.039 9  22330046.439 9
 107394626.263 9  83684108.692 9  20436529.728 9  20436533.563 9
 120765444.691 9  94102912.532 9  22980923.965 9  22980931.712 9
 123518588.996 9  96070002.951 9  23147337.855 9  23147340.384 9
 121853505.526 9  94774934.884 9  22763269.054 9  22763272.476 9
 107980666.880 9  83984961.368 9  20221311.608 9  20221312.153 9
 126212573.109 9  98165315.461 9  23677171.525 9  23677176.087 9
 109465210.114 9  85139598.495 9  20492123.194 9  20492125.281 9
 110756266.098 9  86143754.285 9  20748387.366 9  20748389.466 9
 106788085.997 9  83057395.840 9  19962909.178 9  19962910.198 9
 18  9  7  0 53 30.0000000  0 19G01G03G06G07G08G11G17G18G19G22G28G30
                                R02R03R09R10R16R18R19
 109988302.739 9  85705139.273 9  20930101.951 9  20930109.690 9
 116712764.750 9  90944982.763 9  22209722.766 9  22209729.898 9
 126810679.642 9  98813481.553 9  24131295.818 9  24131304.201 9
 129333467.927 9 100779302.593 9  24611358.210 9  24611363.875 9
 131227007.409 9 102254776.160 9  24971695.282 9  24971703.725 9
 113927333.618 9  88774529.459 9  21679662.984 9  21679666.916 9
 115128149.768 9  89710228.418 9  21908172.855 9  21908177.482 9
 118771026.755 9  92548830.936 9  22601391.505 9  22601396.846 9
 124124175.668 9  96720121.966 9  23620056.108 9  23620059.629 9
 117328443.576 9  91424751.289 9  22326867.807 9  22326870.204 9
 107376873.253 9  83670275.168 9  20433151.450 9  20433155.287 9
 120856288.771 9  94173700.099 9  22998211.039 9  22998218.793 9
 123530939.155 9  96079608.629 9  23149652.270 9  23149654.800 9
 121776717.591 9  94715210.978 9  22748924.391 9  22748927.802 9
 107938141.181 9  83951885.808 9  20213347.922 9  20213348.472 9
 126090473.184 9  98070348.943 9  23654265.823 9  23654270.363 9
 109560256.548 9  85213523.468 9  20509916.109 9  20509918.204 9
 110823819.864 9  86196296.091 9  20761042.471 9  20761044.574 9
 106771737.127 9  83044680.060 9  19959852.924 9  19959853.941 9
 18  9  7  0 54  0.0000000  0 20G01G03G06G07G08G11G17G18G19G22G28G30
                                R02R03R09R10R16R18R19R20
 110052215.811 9  85754941.658 9  20942264.210 9  20942271.952 9
 116645717.251 9  90892737.967 9  22196964.045 9  22196971.174 9
 126708297.087 9  98733702.956 9  24111813.052 9  24111821.431 9
 129440257.315 9 100862515.044 9  24631679.600 9  24631685.279 9
 131308332.313 9 102318146.173 9  24987170.928 9  24987179.382 9
 114003928.301 9  88834213.619 9  21694238.474 9  21694242.408 9
 115081393.429 9  89673794.913 9  21899275.415 9  21899280.040 9
 118870419.265 9  92626279.619 9  22620305.290 9  22620310.638 9
 124041816.262 9  96655945.858 9  23604383.595 9  23604387.103 9
 117312277.929 9  91412154.694 9  22323791.576 9  22323793.970 9
 107359532.190 9  83656762.644 9  20429851.561 9  20429855.400 9
 120947344.434 9  94244652.547 9  23015538.368 9  23015546.126 9
 123544018.296 9  96089781.281 9  23152103.305 9  23152105.838 9
 121700402.134 9  94655854.508 9  22734668.025 9  22734671.437 9
 107896382.379 9  83919406.729 9  20205527.848 9  20205528.400 9
 125968640.795 9  97975590.403 9  23631410.388 9  23631414.932 9
 109655855.388 9  85287878.110 9  20527812.420 9  20527814.518 9
 110891530.131 9  86248959.631 9  20773726.887 9  20773728.990 9
 106755744.681 9  83032241.481 9  19956863.312 9  19956864.332 9
 125302591.05719  97457550.85119  23432230.804 9  23432235.531 9
 18  9  7  0 54 30.0000000  0 20G01G03G06G07G08G11G17G18G19G22G28G30
                                R02R03R09R10R16R18R19R20
 110116522.965 9  85805051.130 9  20954501.454 9  20954509.195 9
 116579086.832 9  90840818.159 9  22184284.698 9  22184291.828 9
 126606078.501 9  98654052.111 9  24092361.501 9  24092369.880 9
 129546981.132 9 100945676.411 9  24651988.504 9  24651994.195 9
 131389686.676 9 102381539.115 9  25002652.200 9  25002660.670 9
 114080765.089 9  88894086.440 9  21708860.029 9  21708863.963 9
 115034769.599 9  89637464.659 9  21890403.193 9  21890407.817 9
 118970010.639 9  92703883.263 9  22639256.917 9  22639262.270 9
 123959555.285 9  96591846.436 9  23588729.821 9  23588733.319 9
 117296638.118 9  91399967.844 9  22320815.407 9  22320817.797 9
 107342603.755 9  83643571.648 9  20426630.192 9  20426634.034 9
 121038608.079 9  94315767.040 9  23032905.289 9  23032913.056 9
 123557825.526 9  96100520.159 9  23154690.832 9  23154693.384 9
 121624563.137 9  94596868.643 9  22720500.647 9  22720504.054 9
 107855392.051 9  83887525.385 9  20197851.660 9  20197852.207 9
 125847079.575 9  97881042.864 9  23608605.756 9  23608610.281 9
 109752002.712 9  85362659.355 9  20545811.406 9  20545813.506 9
 110959394.744 9  86301743.213 9  20786440.220 9  20786442.324 9
 106740106.725 9  83020078.628 9  19953939.960 9  19953940.979 9
 125217030.558 9  97391003.848 9  23416230.521 9  23416235.236 9
 18  9  7  0 55  0.0000000  0 20G01G03G06G07G08G11G17G18G19G22G28G30
                                R02R03R09R10R16R18R19R20
 110181223.420 9  85855467.063 9  20966813.546 9  20966821.288 9
 116512877.953 9  90789226.823 9  22171685.569 9  22171692.699 9
 126504027.155 9  98574531.585 9  24072941.773 9  24072950.151 9
 129653638.469 9 101028785.999 9  24672284.739 9  24672290.437 9
 131471072.153 9 102444956.324 9  25018139.376 9  25018147.857 9
 114157843.595 9  88954147.591 9  21723527.598 9  21723531.538 9
 114988280.210 9  89601239.173 9  21881556.547 9  21881561.169 9
 119069800.087 9  92781641.251 9  22658246.235 9  22658251.594 9
 123877394.615 9  96527825.160 9  23573095.146 9  23573098.638 9
 117281526.622 9  91388192.675 9  22317939.768 9  22317942.153 9
 107326091.248 9  83630704.756 9  20423487.969 9  20423491.811 9
 121130078.276 9  94387042.499 9  23050311.504 9  23050319.275 9
 123572362.976 9  96111827.095 9  23157415.122 9  23157417.666 9
 121549205.899 9  94538257.447 9  22706423.290 9  22706426.700 9
 107815174.269 9  83856244.873 9  20190320.173 9  20190320.723 9
 125725795.434 9  97786710.783 9  23585853.139 9  23585857.657 9
 109848696.303 9  85437865.446 9  20563912.675 9  20563914.783 9
 111027413.892 9  86354646.993 9  20799182.500 9  20799184.605 9
 106724824.169 9  83008192.218 9  19951083.031 9  19951084.045 9
 125131666.136 9  97324609.331 9  23400266.919 9  23400271.626 9
 18  9  7  0 55 30.0000000  0 20G01G03G06G07G08G11G17G18G19G22G28G30
                                R02R03R09R10R16R18R19R20
 110246313.286 9  85906186.438 9  20979199.736 9  20979207.479 9
 116447091.968 9  90737965.012 9  22159166.916 9  22159174.047 9
 126402143.148 9  98495141.461 9  24053553.883 9  24053562.258 9
 129760225.284 9 101111840.545 9  24692567.623 9  24692573.348 9
 131552486.957 9 102508396.452 9  25033632.082 9  25033640.558 9
 114235160.788 9  89014394.735 9  21738240.585 9  21738244.530 9
 114941923.691 9  89565117.220 9  21872735.187 9  21872739.807 9
 119169783.764 9  92859550.589 9  22677272.512 9  22677277.876 9
 123795332.953 9  96463881.025 9  23557479.318 9  23557482.806 9
 117266943.187 9  91376828.968 9  22315164.626 9  22315167.009 9
 107309994.587 9  83618161.891 9  20420424.886 9  20420428.731 9
 121221750.549 9  94458475.414 9  23067756.176 9  23067763.954 9
 123587628.956 9  96123700.605 9  23160275.982 9  23160278.533 9
 121474333.331 9  94480023.254 9  22692436.446 9  22692439.849 9
 107775729.701 9  83825565.751 9  20182933.482 9  20182934.036 9
 125604791.052 9  97692596.320 9  23563152.983 9  23563157.488 9
 109945931.053 9  85513492.449 9  20582115.242 9  20582117.357 9
 111095584.415 9  86407668.488 9  20811953.153 9  20811955.263 9
 106709894.355 9  82996580.146 9  19948292.055 9  19948293.068 9
 125046496.959 9  97258366.716 9  23384339.796 9  23384344.484 9
 18  9  7  0 56  0.0000000  0 20G01G03G06G07G08G11G17G18G19G22G28G30
                                R02R03R09R10R16R18R19R20
 110311791.414 9  85957208.355 9  20991659.810 9  20991667.554 9
 116381732.968 9  90687035.914 9  22146729.517 9  22146736.650 9
 126300429.323 9  98415883.948 9  24034198.375 9  24034206.747 9
 129866739.968 9 101194839.018 9  24712836.679 9  24712842.401 9
 131633932.622 9 102571860.526 9  25049130.738 9  25049139.234 9
 114312716.270 9  89074827.566 9  21752998.912 9  21753002.859 9
 114895701.675 9  89529100.078 9  21863939.420 9  21863944.036 9
 119269960.435 9  92937610.308 9  22696335.517 9  22696340.888 9
 123713372.323 9  96400015.634 9  23541882.702 9  23541886.181 9
 117252890.094 9  91365878.515 9  22312490.405 9  22312492.785 9
 107294316.446 9  83605945.150 9  20417441.441 9  20417445.288 9
 121313623.147 9  94530064.426 9  23085238.969 9  23085246.753 9
 123603624.529 9  96136141.602 9  23163273.548 9  23163276.101 9
 121399950.708 9  94422170.099 9  22678541.150 9  22678544.554 9
 107737062.043 9  83795490.884 9  20175692.288 9  20175692.847 9
 125484072.235 9  97598703.951 9  23540506.408 9  23540510.901 9
 110043704.639 9  85589538.569 9  20600418.664 9  20600420.779 9
 111163906.154 9  86460807.612 9  20824752.121 9  20824754.233 9
 106695316.848 9  82985242.095 9  19945566.937 9  19945567.947 9
 124961524.698 1  97192277.106 1  23368449.609 1  23368454.314 1
 18  9  7  0 56 30.0000000  0 20G01G03G06G07G08G11G17G18G19G22G28G30
                                R02R03R09R10R16R18R19R20
 110377652.772 9  86008528.886 9  21004192.816 9  21004200.561 9
 116316801.166 9  90636439.705 9  22134373.406 9  22134380.538 9
 126198884.647 9  98336758.226 9  24014875.066 9  24014883.438 9
 129973177.013 9 101277776.850 9  24733091.070 9  24733096.822 9
 131715406.010 9 102635346.235 9  25064634.644 9  25064643.152 9
 114390505.970 9  89135442.908 9  21767801.806 9  21767805.756 9
 114849611.759 9  89493185.870 9  21855168.791 9  21855173.405 9
 119370325.343 9  93015816.714 9  22715434.336 9  22715439.710 9
 123631510.679 9  96336227.370 9  23526304.927 9  23526308.399 9
 117239365.714 9  91355340.050 9  22309916.791 9  22309919.168 9
 107279055.921 9  83594053.818 9  20414537.470 9  20414541.320 9
 121405690.382 9  94601805.101 9  23102758.802 9  23102766.593 9
 123620347.052 9  96149147.997 9  23166407.351 9  23166409.906 9
 121326059.933 9  94364699.516 9  22664737.718 9  22664741.117 9
 107699170.731 9  83766019.867 9  20168596.460 9  20168597.018 9
 125363639.849 9  97505034.350 9  23517913.575 9  23517918.060 9
 110142010.736 9  85665998.833 9  20618821.797 9  20618823.920 9
 111232375.000 9  86514061.149 9  20837578.651 9  20837580.765 9
 106681089.010 9  82974176.004 9  19942907.189 9  19942908.198 9
 124876746.739 9  97126338.754 9  23352595.659 9  23352600.350 9
 18  9  7  0 57  0.0000000  0 20G01G03G06G07G08G11G17G18G19G22G28G30
                                R02R03R09R10R16R18R19R20
 110443895.942 9  86060146.936 9  21016798.475 9  21016806.222 9
 116252300.319 9  90586179.302 9  22122099.305 9  22122106.438 9
 126097511.718 9  98257766.329 9  23995584.443 9  23995592.816 9
 130079534.856 9 101360653.059 9  24753330.319 9  24753336.079 9
 131796908.506 9 102698854.680 9  25080144.048 9  25080152.555 9
 114468529.007 9  89196240.054 9  21782649.116 9  21782653.072 9
 114803655.143 9  89457375.527 9  21846423.533 9  21846428.144 9
 119470876.772 9  93094168.441 9  22734568.663 9  22734574.047 9
 123549749.494 9  96272517.402 9  23510746.255 9  23510749.716 9
 117226371.736 9  91345214.872 9  22307444.119 9  22307446.497 9
 107264215.193 9  83582489.615 9  20411713.373 9  20411717.223 9
 121497950.259 9  94673695.887 9  23120315.294 9  23120323.091 9
 123637796.794 9  96162719.972 9  23169677.459 9  23169680.026 9
 121252665.770 9  94307615.189 9  22651027.055 9  22651030.449 9
 107662058.923 9  83737155.110 9  20161646.624 9  20161647.186 9
 125243499.842 9  97411592.172 9  23495375.578 9  23495380.052 9
 110240846.596 9  85742871.169 9  20637324.077 9  20637326.199 9
 111300990.346 9  86567428.632 9  20850432.623 9  20850434.740 9
 106667210.369 9  82963381.495 9  19940312.731 9  19940313.743 9
 124792164.593 9  97060552.636 9  23336778.374 9  23336783.066 9
 18  9  7  0 57 30.0000000  0 20G01G03G06G07G08G11G17G18G19G22G28G30
                                R02R03R09R10R16R18R19R20
 110510518.574 9  86112060.660 9  21029476.352 9  21029484.102 9
 116188233.310 9  90536256.953 9  22109907.761 9  22109914.896 9
 125996312.187 9  98178909.569 9  23976326.799 9  23976335.168 9
 130185811.089 9 101443465.640 9  24773554.065 9  24773559.842 9
 131878440.478 9 102762386.059 9  25095659.088 9  25095667.601 9
 114546783.842 9  89257217.830 9  21797540.529 9  21797544.489 9
 114757832.476 9  89421669.558 9  21837703.765 9  21837708.375 9
 119571612.561 9  93172663.835 9  22753738.066 9  22753743.456 9
 123468088.903 9  96208885.775 9  23495206.760 9  23495210.220 9
 117213909.324 9  91335503.910 9  22305072.595 9  22305074.970 9
 107249796.172 9  83571254.008 9  20408969.529 9  20408973.381 9
 121590399.789 9  94745734.450 9  23137907.878 9  23137915.683 9
 123655974.369 9  96176858.071 9  23173083.940 9  23173086.510 9
 121179772.382 9  94250920.312 9  22637409.972 9  22637413.371 9
 107625729.081 9  83708898.566 9  20154843.212 9  20154843.774 9
 125123656.140 9  97318380.399 9  23472893.208 9  23472897.683 9
 110340208.647 9  85820152.740 9  20655924.879 9  20655927.007 9
 111369750.732 9  86620908.925 9  20863313.766 9  20863315.884 9
 106653680.329 9  82952858.137 9  19937783.428 9  19937784.438 9
 124707778.073 9  96994918.730 9  23320997.630 9  23321002.309 9
 18  9  7  0 58  0.0000000  0 20G01G03G06G07G08G11G17G18G19G22G28G30
                                R02R03R09R10R16R18R19R20
 110577518.143 9  86164268.107 9  21042225.953 9  21042233.706 9
 116124602.772 9  90486674.726 9  22097799.265 9  22097806.397 9
 125895287.564 9  98100189.098 9  23957102.442 9  23957110.807 9
 130292003.039 9 101526212.536 9  24793761.780 9  24793767.576 9
 131960001.464 9 102825940.073 9  25111179.628 9  25111188.141 9
 114625268.733 9  89318374.879 9  21812475.714 9  21812479.676 9
 114712142.985 9  89386067.372 9  21829009.333 9  21829013.940 9
 119672530.192 9  93251300.938 9  22772942.062 9  22772947.455 9
 123386529.508 9  96145333.060 9  23479686.478 9  23479689.923 9
 117201979.169 9  91326207.694 9  22302802.355 9  22302804.728 9
 107235800.185 9  83560348.038 9  20406306.186 9  20406310.039 9
 121683035.899 9  94817918.381 9  23155535.982 9  23155543.800 9
 123674878.640 9  96191561.384 9  23176626.599 9  23176629.171 9
 121107383.776 9  94194618.098 9  22623887.147 9  22623890.537 9
 107590182.684 9  83681251.354 9  20148186.524 9  20148187.090 9
 125004112.445 9  97225402.032 9  23450467.069 9  23450471.529 9
 110440093.217 9  85897840.706 9  20674623.504 9  20674625.641 9
 111438654.650 9  86674500.862 9  20876221.791 9  20876223.909 9
 106640496.978 9  82942604.431 9  19935318.931 9  19935319.939 9
 124623587.975 9  96929437.491 9  23305253.695 9  23305258.386 9
 18  9  7  0 58 30.0000000  0 20G01G03G06G07G08G11G17G18G19G22G28G30
                                R02R03R09R10R16R18R19R20
 110644891.903 9  86216767.130 9  21055046.762 9  21055054.517 9
 116061411.184 9  90437434.522 9  22085774.310 9  22085781.443 9
 125794439.026 9  98021605.834 9  23937911.594 9  23937919.956 9
 130398107.785 9 101608891.458 9  24813952.918 9  24813958.738 9
 132041591.333 9 102889516.566 9  25126705.685 9  25126714.205 9
 114703981.896 9  89379709.801 9  21827454.339 9  21827458.303 9
 114666586.914 9  89350569.134 9  21820340.302 9  21820344.908 9
 119773626.952 9  93330077.618 9  22792180.148 9  22792185.545 9
 123305071.356 9  96081859.206 9  23464185.483 9  23464188.921 9
 117190581.984 9  91317326.785 9  22300633.532 9  22300635.902 9
 107222228.159 9  83549772.425 9  20403723.521 9  20403727.377 9
 121775855.181 9  94890245.079 9  23173198.916 9  23173206.737 9
 123694509.314 9  96206829.687 9  23180305.378 9  23180307.950 9
 121035503.640 9  94138711.336 9  22610459.326 9  22610462.714 9
 107555421.878 9  83654215.174 9  20141676.940 9  20141677.505 9
 124884873.043 9  97132660.334 9  23428098.017 9  23428102.463 9
 110540496.039 9  85975931.783 9  20693419.128 9  20693421.266 9
 111507700.204 9  86728202.938 9  20889156.366 9  20889158.489 9
 106627659.910 9  82932620.045 9  19932919.177 9  19932920.184 9
 124539593.708 9  96864108.648 9  23289546.320 9  23289551.004 9
 18  9  7  0 59  0.0000000  0 20G01G03G06G07G08G11G17G18G19G22G28G30
                                R02R03R09R10R16R18R19R20
 110712637.724 9  86269556.083 9  21067938.362 9  21067946.116 9
 115998661.478 9  90388538.651 9  22073833.435 9  22073840.567 9
 125693768.428 9  97943161.229 9  23918754.603 9  23918762.961 9
 130504123.053 9 101691500.663 9  24834127.024 9  24834132.868 9
 132123210.229 9 102953115.603 9  25142237.322 9  25142245.868 9
 114782921.969 9  89441221.525 9  21842476.151 9  21842480.121 9
 114621165.178 9  89315175.587 9  21811696.822 9  21811701.426 9
 119874900.872 9  93408992.344 9  22811451.947 9  22811457.348 9
 123223715.034 9  96018464.687 9  23448703.877 9  23448707.310 9
 117179718.657 9  91308861.854 9  22298566.311 9  22298568.680 9
 107209082.043 9  83539528.696 9  20401221.900 9  20401225.756 9
 121868854.928 9  94962712.383 9  23190896.203 9  23190904.032 9
 123714866.413 9  96222662.951 9  23184120.315 9  23184122.896 9
 120964136.357 9  94083203.455 9  22597127.313 9  22597130.700 9
 107521448.617 9  83627791.509 9  20135314.853 9  20135315.422 9
 124765942.873 9  97040159.115 9  23405787.002 9  23405791.442 9
 110641413.641 9  86054423.237 9  20712311.125 9  20712313.267 9
 111576886.318 9  86782014.372 9  20902117.248 9  20902119.368 9
 106615167.507 9  82922903.760 9  19930583.833 9  19930584.833 9
 124455795.939 9  96798932.648 9  23273875.684 9  23273880.357 9
 18  9  7  0 59 30.0000000  0 20G01G03G06G07G08G11G17G18G19G22G28G30
                                R02R03R09R10R16R18R19R20
 110780753.681 9  86322633.473 9  21080900.382 9  21080908.131 9
 115936356.941 9  90339989.668 9  22061977.270 9  22061984.401 9
 125593277.840 9  97864856.888 9  23899631.870 9  23899640.225 9
 130610046.419 9 101774038.279 9  24854283.625 9  24854289.486 9
 132204858.763 9 103016737.833 9  25157774.525 9  25157783.071 9
 114862087.583 9  89502909.002 9  21857540.877 9  21857544.851 9
 114575877.939 9  89279886.826 9  21803078.950 9  21803083.554 9
 119976349.990 9  93488043.591 9  22830757.083 9  22830762.487 9
 123142461.898 9  95955150.605 9  23433241.881 9  23433245.303 9
 117169390.827 9  91300814.201 9  22296600.985 9  22296603.353 9
 107196363.698 9  83529618.288 9  20398801.687 9  20398805.545 9
 121962032.588 9  95035318.328 9  23208627.340 9  23208635.175 9
 123735949.790 9  96239061.127 9  23188071.335 9  23188073.918 9
 120893286.584 9  94028098.100 9  22583891.963 9  22583895.344 9
 107488265.709 9  83601982.584 9  20129100.758 9  20129101.326 9
 124647326.042 9  96947901.625 9  23383534.753 9  23383539.182 9
 110742842.623 9  86133312.420 9  20731298.862 9  20731301.009 9
 111646211.915 9  86835934.267 9  20915104.278 9  20915106.402 9
 106603019.770 9  82913455.507 9  19928312.951 9  19928313.955 9
 124372195.559 9  96733910.126 9  23258241.994 9  23258246.669 9
 18  9  7  1  0  0.0000000  0 19G01G03G06G08G11G17G18G19G22G28G30R02
                                R03R09R10R16R18R19R20
 110849235.487 9  86375995.907 9  21093932.045 9  21093939.797 9
 115874498.483 9  90291788.279 9  22050205.992 9  22050213.121 9
 125492967.037 9  97786692.638 9  23880543.350 9  23880551.702 9
 132286534.700 9 103080381.389 9  25173316.963 9  25173325.517 9
 114941475.303 9  89564769.549 9  21872647.869 9  21872651.846 9
 114530724.047 9  89244701.990 9  21794486.439 9  21794491.039 9
 120077970.154 9  93567228.107 9  22850094.778 9  22850100.188 9
 123061310.440 9  95891915.713 9  23417799.265 9  23417802.683 9
 117159597.354 9  91293182.950 9  22294737.329 9  22294739.690 9
 107184072.783 9  83520040.950 9  20396462.805 9  20396466.663 9
 122055383.364 9  95108059.155 9  23226391.431 9  23226399.274 9
 123757757.617 9  96256022.771 9  23192158.112 9  23192160.694 9
 120822956.574 9  93973396.997 9  22570753.715 9  22570757.092 9
 107455873.103 9  83576788.330 9  20123034.667 9  20123035.236 9
 124529025.028 9  96855889.762 9  23361341.757 9  23361346.177 9
 110844777.600 9  86212595.149 9  20750381.326 9  20750383.481 9
 111715673.927 9  86889960.255 9  20928116.870 9  20928118.998 9
 106591213.496 9  82904272.863 9  19926105.883 9  19926106.883 9
 124288790.938 9  96669039.864 9  23242644.910 9  23242649.585 9
 18  9  7  1  0 30.0000000  0 19G01G03G06G08G11G17G18G19G22G28G30R02
                                R03R09R10R16R18R19R20
 110918082.601 9  86429643.017 9  21107033.209 9  21107040.959 9
 115813090.623 9  90243938.008 9  22038520.458 9  22038527.584 9
 125392839.289 9  97708671.040 9  23861489.655 9  23861498.001 9
 132368240.308 9 103144048.104 9  25188865.017 9  25188873.569 9
 115021085.370 9  89626803.357 9  21887797.169 9  21887801.148 9
 114485705.263 9  89209622.419 9  21785919.648 9  21785924.249 9
 120179760.835 9  93646545.504 9  22869464.913 9  22869470.328 9
 122980262.852 9  95828761.775 9  23402376.401 9  23402379.814 9
 117150340.590 9  91285969.896 9  22292975.818 9  22292978.178 9
 107172212.430 9  83510799.110 9  20394205.859 9  20394209.719 9
 122148905.972 9  95180933.892 9  23244188.208 9  23244196.057 9
 123780290.623 9  96273548.411 9  23196380.811 9  23196383.400 9
 120753151.847 9  93919104.464 9  22557713.581 9  22557716.950 9
 107424274.557 9  83552211.680 9  20117117.276 9  20117117.847 9
 124411046.000 9  96764128.357 9  23339209.146 9  23339213.551 9
 110947216.511 9  86292269.828 9  20769558.127 9  20769560.289 9
 111785272.595 9  86944092.539 9  20941155.055 9  20941157.187 9
 106579749.893 9  82895356.736 9  19923962.877 9  19923963.875 9
 124205583.880 9  96604323.350 9  23227084.707 9  23227089.361 9
 18  9  7  1  1  0.0000000  0 19G01G03G06G08G11G17G18G19G22G28G30R02
                                R03R09R10R16R18R19R20
 110987291.879 9  86483572.317 9  21120203.303 9  21120211.055 9
 115752135.395 9  90196440.434 9  22026921.059 9  22026928.184 9
 125292895.527 9  97630792.809 9  23842470.970 9  23842479.310 9
 132449975.004 9 103207737.393 9  25204418.677 9  25204427.249 9
 115100915.524 9  89689008.668 9  21902988.345 9  21902992.325 9
 114440821.206 9  89174647.835 9  21777378.492 9  21777383.091 9
 120281719.298 9  93725993.633 9  22888866.981 9  22888872.402 9
 122899319.027 9  95765688.701 9  23386973.276 9  23386976.679 9
 117141620.959 9  91279175.392 9  22291316.518 9  22291318.874 9
 107160783.470 9  83501893.422 9  20392031.004 9  20392034.866 9
 122242596.821 9  95253939.718 9  23262017.007 9  23262024.863 9
 123803548.153 9  96291637.577 9  23200739.280 9  23200741.875 9
 120683875.616 9  93865223.004 9  22544772.160 9  22544775.517 9
 107393471.389 9  83528253.651 9  20111348.840 9  20111349.412 9
 124293392.731 9  96672620.286 9  23317137.672 9  23317142.071 9
 111050155.005 9  86372333.079 9  20788828.445 9  20788830.612 9
 111855005.974 9  86998329.598 9  20954218.477 9  20954220.612 9
 106568627.208 9  82886705.773 9  19921883.598 9  19921884.593 9
 124122574.315 9  96539760.353 9  23211561.502 9  23211566.156 9
 18  9  7  1  1 30.0000000  0 19G01G03G06G08G11G17G18G19G22G28G30R02
                                R03R09R10R16R18R19R20
 111056862.221 9  86537782.970 9  21133442.101 9  21133449.854 9
 115691636.735 9  90149298.643 9  22015408.530 9  22015415.650 9
 125193138.606 9  97553060.152 9  23823487.853 9  23823496.191 9
 132531739.978 9 103271450.426 9  25219977.984 9  25219986.540 9
 115180965.504 9  89751385.258 9  21918221.363 9  21918225.348 9
 114396073.326 9  89139779.366 9  21768863.246 9  21768867.843 9
 120383844.068 9  93805571.352 9  22908300.697 9  22908306.123 9
 122818480.403 9  95702697.585 9  23371590.183 9  23371593.581 9
 117133440.319 9  91272800.876 9  22289759.787 9  22289762.141 9
 107149788.697 9  83493326.057 9  20389938.776 9  20389942.639 9
 122336454.113 9  95327075.234 9  23279877.483 9  23279885.348 9
 123827530.781 9  96310290.709 9  23205233.631 9  23205236.232 9
 120615133.366 9  93811756.833 9  22531930.513 9  22531933.864 9
 107363466.575 9  83504916.560 9  20105729.912 9  20105730.488 9
 124176070.659 9  96581369.807 9  23295128.334 9  23295132.728 9
 111153590.258 9  86452782.693 9  20808191.761 9  20808193.935 9
 111924873.902 9  87052671.310 9  20967307.102 9  20967309.239 9
 106557845.539 9  82878320.036 9  19919868.074 9  19919869.068 9
 124039763.377 9  96475351.851 9  23196075.435 9  23196080.088 9
 18  9  7  1  2  0.0000000  0 19G01G03G06G08G11G17G18G19G22G28G30R02
                                R03R09R10R16R18R19R20
 111126788.812 9  86592271.236 9  21146748.679 9  21146756.428 9
 115631594.901 9  90102512.803 9  22003982.945 9  22003990.064 9
 125093567.615 9  97475472.368 9  23804540.122 9  23804548.460 9
 132613532.670 9 103335184.917 9  25235542.672 9  25235551.246 9
 115261231.207 9  89813929.959 9  21933495.420 9  21933499.406 9
 114351459.521 9  89105015.368 9  21760373.517 9  21760378.113 9
 120486130.679 9  93885275.185 9  22927765.207 9  22927770.638 9
 122737745.440 9  95639787.253 9  23356226.808 9  23356230.200 9
 117125797.139 9  91266845.165 9  22288305.328 9  22288307.678 9
 107139226.794 9  83485095.999 9  20387928.915 9  20387932.780 9
 122430472.484 9  95400336.285 9  23297768.597 9  23297776.467 9
 123852235.398 9  96329505.417 9  23209863.261 9  23209865.860 9
 120546926.575 9  93758707.109 9  22519188.910 9  22519192.260 9
 107334259.606 9  83482200.009 9  20100260.399 9  20100260.980 9
 124059081.725 9  96490378.430 9  23273181.496 9  23273185.886 9
 111257516.335 9  86533614.080 9  20827646.945 9  20827649.121 9
 111994872.589 9  87107114.739 9  20980420.210 9  20980422.346 9
 106547401.287 9  82870196.732 9  19917915.629 9  19917916.622 9
 123957149.050 9  96411096.282 9  23180626.125 9  23180630.774 9
 18  9  7  1  2 30.0000000  0 19G01G03G06G08G11G17G18G19G22G28G30R02
                                R03R09R10R16R18R19R20
 111197069.406 9  86647035.325 9  21160122.639 9  21160130.391 9
 115572012.815 9  90056085.219 9  21992644.839 9  21992651.954 9
 124994184.269 9  97398030.817 9  23785628.087 9  23785636.421 9
 132695353.494 9 103398941.395 9  25251112.663 9  25251121.239 9
 115341711.571 9  89876641.908 9  21948810.342 9  21948814.333 9
 114306980.436 9  89070356.350 9  21751909.422 9  21751914.015 9
 120588577.144 9  93965103.579 9  22947260.136 9  22947265.572 9
 122657114.832 9  95576958.271 9  23340883.266 9  23340886.642 9
 117118692.185 9  91261308.846 9  22286953.293 9  22286955.642 9
 107129099.613 9  83477204.671 9  20386001.790 9  20386005.659 9
 122524649.100 9  95473720.629 9  23315689.835 9  23315697.713 9
 123877661.646 9  96349281.370 9  23214628.142 9  23214630.746 9
 120479259.505 9  93706077.239 9  22506548.079 9  22506551.411 9
 107305852.237 9  83460105.390 9  20094940.611 9  20094941.191 9
 123942429.781 9  96399649.168 9  23251297.868 9  23251302.251 9
 111361929.753 9  86614824.504 9  20847193.365 9  20847195.544 9
 112065000.886 9  87161658.952 9  20993557.617 9  20993559.757 9
 106537294.038 9  82862335.542 9  19916026.183 9  19916027.175 9
 123874731.736 9  96346993.975 9  23165213.636 9  23165218.274 9
 18  9  7  1  3  0.0000000  0 19G01G03G06G08G11G17G18G19G22G28G30R02
                                R03R09R10R16R18R19R20
 111267702.395 9  86702074.015 9  21173563.652 9  21173571.404 9
 115512893.837 9  90010018.494 9  21981394.864 9  21981401.976 9
 124894990.945 9  97320737.323 9  23766752.222 9  23766760.553 9
 132777203.479 9 103462720.535 9  25266688.249 9  25266696.843 9
 115422405.320 9  89939520.146 9  21964165.858 9  21964169.851 9
 114262637.023 9  89035803.053 9  21743471.142 9  21743475.732 9
 120691181.863 9  94045055.284 9  22966785.183 9  22966790.625 9
 122576589.814 9  95514211.510 9  23325559.860 9  23325563.234 9
 117112126.998 9  91256193.134 9  22285703.966 9  22285706.310 9
 107119409.752 9  83469654.126 9  20384157.874 9  20384161.744 9
 122618981.794 9  95547226.579 9  23333640.785 9  23333648.673 9
 123903809.900 9  96369618.912 9  23219528.305 9  23219530.906 9
 120412136.594 9  93653870.554 9  22494008.938 9  22494012.265 9
 107278247.058 9  83438634.681 9  20089771.058 9  20089771.642 9
 123826120.581 9  96309186.509 9  23229478.519 9  23229482.890 9
 111466827.186 9  86696411.352 9  20866830.417 9  20866832.606 9
 112135258.206 9  87216303.542 9  21006719.174 9  21006721.313 9
 106527523.358 9  82854736.113 9  19914199.666 9  19914200.661 9
 123792512.730 9  96283045.864 9  23149838.264 9  23149842.900 9
 18  9  7  1  3 30.0000000  0 20G01G03G06G08G11G17G18G19G22G28G30R02
                                R03R04R09R10R16R18R19R20
 111338683.452 9  86757383.928 9  21187070.899 9  21187078.652 9
 115454238.714 9  89964313.209 9  21970233.161 9  21970240.272 9
 124795987.257 9  97243591.623 9  23747912.423 9  23747920.747 9
 132859080.473 9 103526520.790 9  25282268.923 9  25282277.517 9
 115503309.214 9  90002562.123 9  21979561.371 9  21979565.368 9
 114218427.793 9  89001354.317 9  21735058.394 9  21735062.981 9
 120793940.527 9  94125126.935 9  22986339.533 9  22986344.984 9
 122496168.762 9  95451545.785 9  23310256.220 9  23310259.587 9
 117106100.244 9  91251496.964 9  22284557.112 9  22284559.455 9
 107110155.993 9  83462443.395 9  20382396.950 9  20382400.822 9
 122713465.604 9  95620850.297 9  23351620.478 9  23351628.374 9
 123930677.367 9  96390515.771 9  23224563.301 9  23224565.916 9
 120345559.756 9  93602088.586 9  22481571.812 9  22481575.135 9
 128508814.81919  99951285.11419  23998126.152 9  23998129.885 9
 107251443.819 9  83417787.713 9  20084751.676 9  20084752.260 9
 123710156.104 9  96218991.914 9  23207723.880 9  23207728.251 9
 111572202.789 9  86778370.131 9  20886556.968 9  20886559.163 9
 112205641.344 9  87271045.953 9  21019904.330 9  21019906.476 9
 106518086.010 9  82847395.969 9  19912435.442 9  19912436.433 9
 123710489.495 9  96219250.009 9  23134499.510 9  23134504.147 9
 18  9  7  1  4  0.0000000  0 20G01G03G06G08G11G17G18G19G22G28G30R02
                                R03R04R09R10R16R18R19R20
 111410011.622 9  86812964.314 9  21200644.203 9  21200651.958 9
 115396051.503 9  89918972.538 9  21959160.493 9  21959167.601 9
 124697176.124 9  97166595.950 9  23729109.278 9  23729117.599 9
 132940986.089 9 103590343.274 9  25297855.100 9  25297863.711 9
 115584423.220 9  90065767.836 9  21994996.857 9  21995000.856 9
 114174354.302 9  88967011.346 9  21726671.481 9  21726676.065 9
 120896852.474 9  94205318.045 9  23005923.039 9  23005928.494 9
 122415853.616 9  95388962.581 9  23294972.736 9  23294976.097 9
 117100614.039 9  91247222.003 9  22283513.119 9  22283515.461 9
 107101341.198 9  83455574.721 9  20380719.552 9  20380723.425 9
 122808099.013 9  95694590.585 9  23369628.641 9  23369636.544 9
 123958264.677 9  96411972.590 9  23229733.135 9  23229735.745 9
 120279534.817 9  93550735.898 9  22469237.768 9  22469241.081 9
 128392495.755 9  99860814.814 9  23976404.326 9  23976408.039 9
 107225445.604 9  83397566.864 9  20079883.056 9  20079883.645 9
 123594542.433 9  96129070.220 9  23186035.013 9  23186039.371 9
 111678054.344 9  86860699.086 9  20906372.625 9  20906374.828 9
 112276150.431 9  87325886.344 9  21033113.065 9  21033115.213 9
 106508982.843 9  82840315.729 9  19910733.700 9  19910734.691 9
 123628664.460 9  96155608.370 9  23119197.775 9  23119202.400 9
 18  9  7  1  4 30.0000000  0 20G01G03G06G08G11G17G18G19G22G28G30R02
                                R03R04R09R10R16R18R19R20
 111481684.119 9  86868813.010 9  21214283.028 9  21214290.783 9
 115338334.458 9  89873998.220 9  21948177.302 9  21948184.409 9
 124598558.732 9  97089751.259 9  23710342.990 9  23710351.303 9
 133022919.619 9 103654187.609 9  25313446.512 9  25313455.118 9
 115665745.352 9  90129135.721 9  22010471.952 9  22010475.953 9
 114130416.411 9  88932774.035 9  21718310.373 9  21718314.956 9
 120999915.154 9  94285626.602 9  23025535.233 9  23025540.695 9
 122335645.002 9  95326462.379 9  23279709.531 9  23279712.888 9
 117095668.691 9  91243368.498 9  22282572.040 9  22282574.380 9
 107092966.410 9  83449048.901 9  20379125.891 9  20379129.767 9
 122902878.668 9  95768444.830 9  23387664.633 9  23387672.544 9
 123986570.668 9  96433988.353 9  23235037.671 9  23235040.283 9
 120214065.103 9  93499815.051 9  22457007.445 9  22457010.747 9
 128276139.396 9  99770315.502 9  23954675.539 9  23954679.234 9
 107200253.832 9  83377973.270 9  20075165.442 9  20075166.029 9
 123479283.106 9  96039424.105 9  23164412.635 9  23164416.987 9
 111784377.564 9  86943394.903 9  20926276.570 9  20926278.778 9
 112346783.741 9  87380823.351 9  21046345.073 9  21046347.224 9
 106500212.183 9  82833494.120 9  19909094.106 9  19909095.093 9
 123547037.039 9  96092120.411 9  23103933.010 9  23103937.626 9
 18  9  7  1  5  0.0000000  0 20G01G03G06G08G11G17G18G19G22G28G30R02
                                R03R04R09R10R16R18R19R20
 111553698.168 9  86924927.849 9  21227986.849 9  21227994.606 9
 115281089.806 9  89829392.011 9  21937283.997 9  21937291.101 9
 124500136.239 9  97013058.409 9  23691613.811 9  23691622.124 9
 133104881.144 9 103718053.697 9  25329043.299 9  25329051.913 9
 115747273.683 9  90192664.266 9  22025986.296 9  22025990.303 9
 114086614.179 9  88898642.431 9  21709975.082 9  21709979.663 9
 121103125.826 9  94366050.490 9  23045175.581 9  23045181.045 9
 122255542.643 9  95264044.976 9  23264466.545 9  23264469.897 9
 117091264.516 9  91239936.684 9  22281733.946 9  22281736.282 9
 107085032.767 9  83442866.838 9  20377616.172 9  20377620.048 9
 122997801.178 9  95842410.377 9  23405727.820 9  23405735.742 9
 124015594.362 9  96456562.329 9  23240476.705 9  23240479.318 9
 120149154.106 9  93449328.771 9  22444881.488 9  22444884.778 9
 128159749.986 9  99679790.427 9  23932940.622 9  23932944.311 9
 107175869.572 9  83359007.711 9  20070599.071 9  20070599.663 9
 123364382.435 9  95950056.951 9  23142857.536 9  23142861.880 9
 111891168.233 9  87026454.278 9  20946268.033 9  20946270.248 9
 112417539.670 9  87435855.736 9  21059600.046 9  21059602.198 9
 106491772.888 9  82826930.219 9  19907516.473 9  19907517.461 9
 123465607.011 9  96028785.973 9  23088705.164 9  23088709.773 9
 18  9  7  1  5 30.0000000  0 20G01G03G06G08G11G17G18G19G22G28G30R02
                                R03R04R09R10R16R18R19R20
 111626051.720 9  86981307.233 9  21241755.278 9  21241763.036 9
 115224320.447 9  89785156.148 9  21926481.146 9  21926488.250 9
 124401910.475 9  96936518.859 9  23672922.064 9  23672930.376 9
 133186870.827 9 103781941.679 9  25344645.479 9  25344654.113 9
 115829006.851 9  90256352.446 9  22041539.603 9  22041543.611 9
 114042948.114 9  88864616.934 9  21701665.699 9  21701670.279 9
 121206482.742 9  94446588.302 9  23064843.781 9  23064849.256 9
 122175547.477 9  95201711.109 9  23249243.949 9  23249247.294 9
 117087402.420 9  91236927.266 9  22280999.008 9  22281001.342 9
 107077542.027 9  83437029.889 9  20376190.738 9  20376194.616 9
 123092864.011 9  95916485.280 9  23423817.700 9  23423825.630 9
 124045334.969 9  96479693.878 9  23246050.107 9  23246052.729 9
 120084805.800 9  93399280.114 9  22432860.665 9  22432863.949 9
 128043331.898 9  99589243.138 9  23911200.282 9  23911203.944 9
 107152294.564 9  83340671.582 9  20066184.238 9  20066184.833 9
 123249845.053 9  95860972.352 9  23121370.592 9  23121374.928 9
 111998422.660 9  87109874.394 9  20966346.282 9  20966348.496 9
 112488417.228 9  87490982.720 9  21072877.805 9  21072879.959 9
 106483664.176 9  82820623.441 9  19906000.636 9  19906001.625 9
 123384375.072 9  95965605.635 9  23073514.338 9  23073518.933 9
 18  9  7  1  6  0.0000000  0 20G01G03G06G08G11G17G18G19G22G28G30R02
                                R03R04R09R10R16R18R19R20
 111698741.583 9  87037948.684 9  21255587.699 9  21255595.458 9
 115168028.146 9  89741292.032 9  21915769.067 9  21915776.167 9
 124303882.170 9  96860133.178 9  23654267.890 9  23654276.198 9
 133268888.322 9 103845851.395 9  25360252.905 9  25360261.544 9
 115910942.860 9  90320198.660 9  22057131.527 9  22057135.542 9
 113999417.709 9  88830697.140 9  21693382.137 9  21693386.716 9
 121309982.656 9  94527237.566 9  23084539.175 9  23084544.655 9
 122095659.267 9  95139460.582 9  23234041.708 9  23234045.047 9
 117084082.149 9  91234340.034 9  22280367.187 9  22280369.524 9
 107070494.499 9  83431538.307 9  20374849.639 9  20374853.518 9
 123188063.297 9  95990666.504 9  23441933.550 9  23441941.489 9
 124075791.602 9  96503382.361 9  23251757.673 9  23251760.298 9
 120021023.157 9  93349671.447 9  22420945.490 9  22420948.761 9
 127926888.612 9  99498676.146 9  23889455.314 9  23889458.974 9
 107129529.752 9  83322965.609 9  20061921.126 9  20061921.723 9
 123135674.085 9  95772172.725 9  23099952.398 9  23099956.730 9
 112106136.160 9  87193651.511 9  20986510.511 9  20986512.738 9
 112559414.462 9  87546202.777 9  21086177.990 9  21086180.147 9
 106475884.022 9  82814572.239 9  19904546.197 9  19904547.179 9
 123303340.719 9  95902578.920 9  23058360.502 9  23058365.096 9
 18  9  7  1  6 30.0000000  0 20G01G03G06G08G11G17G18G19G22G28G30R02
                                R03R04R09R10R16R18R19R20
 111771765.110 9  87094850.124 9  21269483.622 9  21269491.382 9
 115112215.234 9  89697801.451 9  21905148.223 9  21905155.323 9
 124206052.631 9  96783902.393 9  23635651.529 9  23635659.832 9
 133350933.242 9 103909782.559 9  25375865.491 9  25375874.115 9
 115993079.858 9  90384201.508 9  22072761.684 9  22072765.700 9
 113956022.865 9  88796882.986 9  21685124.365 9  21685128.942 9
 121413623.483 9  94607996.611 9  23104261.400 9  23104266.889 9
 122015878.354 9  95077293.642 9  23218859.901 9  23218863.239 9
 117081303.861 9  91232175.152 9  22279838.483 9  22279840.815 9
 107063891.462 9  83426393.071 9  20373593.132 9  20373597.014 9
 123283395.824 9  96064951.548 9  23460074.759 9  23460082.708 9
 124106962.272 9  96527626.206 9  23257599.050 9  23257601.677 9
 119957809.578 9  93300505.351 9  22409136.647 9  22409139.913 9
 127810423.931 9  99408092.532 9  23867706.336 9  23867709.990 9
 107107576.268 9  83305890.665 9  20057809.952 9  20057810.552 9
 123021873.485 9  95683661.182 9  23078603.669 9  23078607.993 9
 112214304.653 9  87277782.551 9  21006759.887 9  21006762.116 9
 112630529.763 9  87601514.678 9  21099500.282 9  21099502.439 9
 106468431.528 9  82808775.836 9  19903153.046 9  19903154.032 9
 123222503.700 9  95839705.703 9  23043243.558 9  23043248.147 9
 18  9  7  1  7  0.0000000  0 19G01G03G06G11G17G18G19G22G28G30R02R03
                                R04R09R10R16R18R19R20
 111845122.150 9  87152011.453 9  21283443.003 9  21283450.764 9
 115056886.482 9  89654688.152 9  21894619.501 9  21894626.597 9
 124108425.482 9  96707829.330 9  23617073.670 9  23617081.963 9
 116075418.484 9  90448361.473 9  22088430.206 9  22088434.223 9
 113912766.814 9  88763176.987 9  21676893.001 9  21676897.574 9
 121517405.027 9  94688865.325 9  23124010.387 9  23124015.882 9
 121936207.419 9  95015212.437 9  23203698.994 9  23203702.321 9
 117079070.452 9  91230434.834 9  22279413.479 9  22279415.811 9
 107057736.291 9  83421596.829 9  20372421.846 9  20372425.729 9
 123378860.925 9  96139339.909 9  23478241.186 9  23478249.142 9
 124138848.994 9  96552426.985 9  23263574.612 9  23263577.240 9
 119895171.559 9  93251786.940 9  22397435.304 9  22397438.558 9
 127693944.574 9  99317497.508 9  23845954.615 9  23845958.261 9
 107086437.637 9  83289449.489 9  20053851.379 9  20053851.984 9
 122908450.078 9  95595443.008 9  23057325.703 9  23057330.020 9
 112322926.461 9  87362266.163 9  21027094.130 9  21027096.362 9
 112701764.205 9  87656919.229 9  21112844.904 9  21112847.065 9
 106461307.540 9  82803234.963 9  19901821.287 9  19901822.271 9
 123141866.644 9  95776988.000 9  23028164.016 9  23028168.603 9
 18  9  7  1  7 30.0000000  0 19G01G03G06G11G17G18G19G22G28G30R02R03
                                R04R09R10R16R18R19R20
 111918808.388 9  87209429.299 9  21297465.029 9  21297472.790 9
 115002042.428 9  89611952.533 9  21884183.018 9  21884190.113 9
 124011000.361 9  96631913.665 9  23598534.275 9  23598542.565 9
 116157955.093 9  90512675.699 9  22104136.412 9  22104140.433 9
 113869647.529 9  88729577.552 9  21668687.668 9  21668692.239 9
 121621323.126 9  94769840.439 9  23143785.365 9  23143790.867 9
 121856645.099 9  94953215.840 9  23188558.776 9  23188562.099 9
 117077380.384 9  91229117.903 9  22279091.866 9  22279094.197 9
 107052028.298 9  83417149.036 9  20371335.656 9  20371339.540 9
 123474453.688 9  96213827.735 9  23496431.915 9  23496439.881 9
 124171448.348 9  96577782.005 9  23269683.741 9  23269686.377 9
 119833110.681 9  93203517.409 9  22385841.780 9  22385845.025 9
 127577452.779 9  99226892.866 9  23824200.529 9  23824204.155 9
 107066113.253 9  83273641.622 9  20050045.285 9  20050045.892 9
 122795406.752 9  95507520.467 9  23036119.029 9  23036123.335 9
 112431995.655 9  87447097.738 9  21047512.127 9  21047514.364 9
 112773114.661 9  87712414.019 9  21126211.256 9  21126213.418 9
 106454509.748 9  82797947.790 9  19900550.512 9  19900551.497 9
 123061427.411 9  95714424.169 9  23013121.462 9  23013126.045 9
 18  9  7  1  8  0.0000000  0 19G01G03G06G11G17G18G19G22G28G30R02R03
                                R04R09R10R16R18R19R20
 111992820.333 9  87267100.947 9  21311549.032 9  21311556.793 9
 114947684.531 9  89569595.729 9  21873839.055 9  21873846.150 9
 123913777.667 9  96556155.739 9  23580033.399 9  23580041.684 9
 116240687.304 9  90577142.347 9  22119879.836 9  22119883.859 9
 113826664.070 9  88696083.953 9  21660508.184 9  21660512.754 9
 121725374.643 9  94850919.517 9  23163585.730 9  23163591.238 9
 121777191.044 9  94891303.613 9  23173439.154 9  23173442.471 9
 117076233.313 9  91228224.096 9  22278873.574 9  22278875.902 9
 107046767.771 9  83413049.907 9  20370334.624 9  20370338.512 9
 123570170.069 9  96288411.906 9  23514646.153 9  23514654.125 9
 124204758.217 9  96603689.698 9  23275925.984 9  23275928.615 9
 119771629.227 9  93155698.564 9  22374356.481 9  22374359.711 9
 127460952.054 9  99136281.211 9  23802444.826 9  23802448.447 9
 107046603.321 9  83258467.231 9  20046391.701 9  20046392.308 9
 122682745.955 9  95419895.437 9  23014984.125 9  23014988.422 9
 112541507.305 9  87532273.438 9  21068012.958 9  21068015.202 9
 112844578.846 9  87767997.239 9  21139598.932 9  21139601.103 9
 106448035.453 9  82792912.238 9  19899340.203 9  19899341.185 9
 122981185.040 9  95652013.516 9  22998115.675 9  22998120.239 9
 18  9  7  1  8 30.0000000  0 19G01G03G06G11G17G18G19G22G28G30R02R03
                                R04R09R10R16R18R19R20
 112067157.061 9  87325025.660 9  21325694.849 9  21325702.612 9
 114893816.761 9  89527620.850 9  21863588.355 9  21863595.448 9
 123816760.348 9  96480557.849 9  23561571.601 9  23561579.881 9
 116323615.276 9  90641761.536 9  22135660.511 9  22135664.537 9
 113783818.724 9  88662697.982 9  21652354.976 9  21652359.542 9
 121829559.088 9  94932102.140 9  23183411.417 9  23183416.940 9
 121697847.063 9  94829477.167 9  23158340.472 9  23158343.781 9
 117075630.885 9  91227754.675 9  22278758.934 9  22278761.260 9
 107041957.455 9  83409301.599 9  20369419.258 9  20369423.150 9
 123666008.525 9  96363091.201 9  23532883.621 9  23532891.598 9
 124238779.652 9  96630150.773 9  23282301.616 9  23282304.258 9
 119710732.942 9  93108334.792 9  22362980.540 9  22362983.768 9
 127344448.062 9  99045667.014 9  23780688.513 9  23780692.129 9
 107027910.847 9  83243928.613 9  20042891.221 9  20042891.835 9
 122570473.815 9  95332572.672 9  22993922.149 9  22993926.444 9
 112651459.008 9  87617791.395 9  21088596.172 9  21088598.425 9
 112916156.949 9  87823669.113 9  21153007.910 9  21153010.078 9
 106441885.155 9  82788128.664 9  19898190.476 9  19898191.461 9
 122901141.485 9  95589757.432 9  22983147.116 9  22983151.676 9
 18  9  7  1  9  0.0000000  0 19G01G03G06G11G17G18G19G22G28G30R02R03
                                R04R09R10R16R18R19R20
 112141814.538 9  87383200.311 9  21339901.699 9  21339909.464 9
 114840439.905 9  89486028.512 9  21853431.063 9  21853438.153 9
 123719948.206 9  96405119.859 9  23543148.831 9  23543157.100 9
 116406735.628 9  90706530.623 9  22151477.802 9  22151481.833 9
 113741110.110 9  88629418.550 9  21644227.791 9  21644232.356 9
 121933872.472 9  95013385.282 9  23203261.605 9  23203267.132 9
 121618611.895 9  94767735.500 9  23143262.504 9  23143265.808 9
 117075571.988 9  91227708.782 9  22278747.725 9  22278750.052 9
 107037596.778 9  83405903.659 9  20368589.457 9  20368593.350 9
 123761964.539 9  96437862.084 9  23551143.471 9  23551151.457 9
 124273508.928 9  96657162.464 9  23288809.844 9  23288812.478 9
 119650423.315 9  93061427.380 9  22351714.139 9  22351717.349 9
 127227942.710 9  98955051.809 9  23758931.910 9  23758935.510 9
 107010035.132 9  83230025.281 9  20039543.672 9  20039544.286 9
 122458592.676 9  95245554.040 9  22972933.509 9  22972937.796 9
 112761845.052 9  87703647.182 9  21109260.690 9  21109262.948 9
 112987846.162 9  87879427.372 9  21166437.729 9  21166439.900 9
 106436056.114 9  82783594.977 9  19897100.790 9  19897101.772 9
 122821294.970 9  95527654.617 9  22968215.393 9  22968219.946 9
 18  9  7  1  9 30.0000000  0 19G01G03G06G11G17G18G19G22G28G30R02R03
                                R04R09R10R16R18R19R20
 112216792.916 9  87441625.016 9  21354169.614 9  21354177.380 9
 114787558.909 9  89444822.550 9  21843368.138 9  21843375.225 9
 123623345.308 9  96329844.918 9  23524765.877 9  23524774.136 9
 116490049.350 9  90771450.394 9  22167331.886 9  22167335.919 9
 113698540.941 9  88596247.774 9  21636127.144 9  21636131.707 9
 122038315.036 9  95094769.079 9  23223136.378 9  23223141.910 9
 121539488.786 9  94706081.162 9  23128205.852 9  23128209.148 9
 117076059.491 9  91228088.664 9  22278840.487 9  22278842.811 9
 107033689.741 9  83402859.200 9  20367845.983 9  20367849.880 9
 123858037.623 9  96512724.176 9  23569425.610 9  23569433.609 9
 124308948.573 9  96684726.589 9  23295451.250 9  23295453.894 9
 119590707.189 9  93014981.520 9  22340558.653 9  22340561.859 9
 127111443.933 9  98864441.690 9  23737176.555 9  23737180.145 9
 106992980.191 9  83216760.319 9  20036349.836 9  20036350.451 9
 122347109.651 9  95158845.084 9  22952019.531 9  22952023.802 9
 112872664.082 9  87789839.718 9  21130006.276 9  21130008.545 9
 113059647.937 9  87935273.185 9  21179888.630 9  21179890.804 9
 106430550.611 9  82779312.920 9  19896071.594 9  19896072.575 9
 122741648.306 9  95465707.216 9  22953321.062 9  22953325.614 9
 18  9  7  1 10  0.0000000  0 19G01G03G06G11G17G18G19G22G28G30R02R03
                                R04R09R10R16R18R19R20
 112292088.080 9  87500296.567 9  21368497.811 9  21368505.578 9
 114735174.576 9  89404003.608 9  21833399.717 9  21833406.799 9
 123526951.305 9  96254732.737 9  23506422.686 9  23506430.938 9
 116573553.458 9  90836518.514 9  22183222.201 9  22183226.239 9
 113656109.930 9  88563184.660 9  21628052.782 9  21628057.343 9
 122142883.222 9  95176250.731 9  23243035.081 9  23243040.625 9
 121460476.556 9  94644513.189 9  23113170.326 9  23113173.622 9
 117077092.107 9  91228893.305 9  22279036.983 9  22279039.306 9
 107030235.703 9  83400167.737 9  20367188.705 9  20367192.604 9
 123954223.110 9  96587673.889 9  23587729.112 9  23587737.115 9
 124345094.791 9  96712840.354 9  23302225.006 9  23302227.641 9
 119531586.036 9  92968998.431 9  22329514.303 9  22329517.502 9
 126994954.052 9  98773838.493 9  23715422.859 9  23715426.438 9
 106976745.373 9  83204133.216 9  20033309.592 9  20033310.213 9
 122236027.429 9  95072447.817 9  22931180.776 9  22931185.043 9
 112983910.382 9  87876364.561 9  21150831.859 9  21150834.141 9
 113131559.314 9  87991204.233 9  21193360.071 9  21193362.251 9
 106425365.195 9  82775279.810 9  19895102.241 9  19895103.225 9
 122662200.028 9  95403914.132 9  22938463.818 9  22938468.365 9
 18  9  7  1 10 30.0000000  0 19G01G03G06G11G17G18G19G22G28G30R02R03
                                R04R09R10R16R18R19R20
 112367697.469 9  87559212.970 9  21382885.802 9  21382893.571 9
 114683289.061 9  89363573.355 9  21823526.217 9  21823533.295 9
 123430767.499 9  96179784.351 9  23488119.490 9  23488127.734 9
 116657246.211 9  90901733.640 9  22199148.408 9  22199152.446 9
 113613817.117 9  88530229.228 9  21620004.723 9  21620009.282 9
 122247574.330 9  95257828.195 9  23262957.154 9  23262962.704 9
 121381575.799 9  94583032.101 9  23098155.995 9  23098159.286 9
 117078670.063 9  91230122.883 9  22279337.257 9  22279339.579 9
 107027235.692 9  83397830.046 9  20366617.837 9  20366621.741 9
 124050517.890 9  96662708.755 9  23606053.421 9  23606061.430 9
 124381946.907 9  96741503.075 9  23309131.103 9  23309133.747 9
 119473063.162 9  92923480.694 9  22318581.699 9  22318584.885 9
 126878476.901 9  98683245.187 9  23693671.548 9  23693675.119 9
 106961331.511 9  83192144.643 9  20030423.081 9  20030423.705 9
 122125349.864 9  94986365.309 9  22910417.915 9  22910422.172 9
 113095579.652 9  87963218.443 9  21171736.576 9  21171738.857 9
 113203578.928 9  88047219.486 9  21206851.773 9  21206853.954 9
 106420498.751 9  82771494.797 9  19894192.512 9  19894193.495 9
 122582949.663 9  95342275.009 9  22923643.563 9  22923648.099 9
 18  9  7  1 11  0.0000000  0 19G01G03G06G11G17G18G19G22G28G30R02R03
                                R04R09R10R16R18R19R20
 112443617.717 9  87618371.603 9  21397332.947 9  21397340.715 9
 114631903.800 9  89323532.914 9  21813747.911 9  21813754.983 9
 123334794.344 9  96105000.108 9  23469856.381 9  23469864.616 9
 116741124.876 9  90967093.627 9  22215109.996 9  22215114.037 9
 113571662.034 9  88497381.123 9  21611982.868 9  21611987.424 9
 122352385.616 9  95339499.273 9  23282902.119 9  23282907.682 9
 121302785.918 9  94521637.403 9  23083162.768 9  23083166.056 9
 117080792.704 9  91231776.897 9  22279741.176 9  22279743.496 9
 107024689.935 9  83395846.328 9  20366133.404 9  20366137.310 9
 124146918.023 9  96737825.705 9  23624397.784 9  23624405.802 9
 124419502.449 9  96770712.923 9  23316169.009 9  23316171.657 9
 119415141.413 9  92878430.461 9  22307761.418 9  22307764.600 9
 126762016.285 9  98592664.746 9  23671923.321 9  23671926.883 9
 106946738.675 9  83180794.643 9  20027690.324 9  20027690.952 9
 122015080.171 9  94900600.028 9  22889731.575 9  22889735.823 9
 113207667.022 9  88050397.481 9  21192719.587 9  21192721.875 9
 113275704.660 9  88103317.271 9  21220363.358 9  21220365.540 9
 106415949.294 9  82767956.332 9  19893342.038 9  19893343.021 9
 122503896.787 9  95280789.455 9  22908860.265 9  22908864.796 9
 18  9  7  1 11 30.0000000  0 19G01G03G06G11G17G18G19G22G28G30R02R03
                                R04R09R10R16R18R19R20
 112519847.310 9  87677771.279 9  21411838.961 9  21411846.732 9
 114581022.024 9  89283884.800 9  21804065.413 9  21804072.480 9
 123239034.182 9  96030381.823 9  23451633.811 9  23451642.040 9
 116825189.327 9  91032598.376 9  22231106.942 9  22231110.988 9
 113529645.975 9  88464641.343 9  21603987.473 9  21603992.028 9
 122457315.702 9  95421262.977 9  23302869.650 9  23302875.213 9
 121224108.412 9  94460330.280 9  23068190.918 9  23068194.199 9
 117083461.239 9  91233856.283 9  22280248.975 9  22280251.294 9
 107022600.530 9  83394218.205 9  20365735.815 9  20365739.725 9
 124243421.447 9  96813023.151 9  23642761.795 9  23642769.821 9
 124457761.090 9  96800469.634 9  23323338.669 9  23323341.319 9
 119357825.204 9  92833851.213 9  22297054.249 9  22297057.425 9
 126645576.983 9  98502100.907 9  23650179.057 9  23650182.604 9
 106932968.796 9  83170084.733 9  20025111.671 9  20025112.300 9
 121905223.668 9  94815156.121 9  22869122.745 9  22869126.984 9
 113320169.145 9  88137899.102 9  21213780.243 9  21213782.538 9
 113347936.442 9  88159497.543 9  21233894.807 9  21233896.990 9
 106411716.619 9  82764664.270 9  19892550.770 9  19892551.749 9
 122425042.042 9  95219458.025 9  22894114.002 9  22894118.524 9
 18  9  7  1 12  0.0000000  0 19G01G03G06G11G17G18G19G22G28G30R02R03
                                R04R09R10R16R18R19R20
 112596383.367 9  87737409.760 9  21426403.292 9  21426411.064 9
 114530645.587 9  89244630.446 9  21794479.086 9  21794486.150 9
 123143487.893 9  95955930.196 9  23433451.936 9  23433460.159 9
 116909437.571 9  91098246.349 9  22247138.857 9  22247142.905 9
 113487768.693 9  88432009.699 9  21596018.488 9  21596023.042 9
 122562361.976 9  95503117.157 9  23322859.337 9  23322864.914 9
 121145543.114 9  94399110.601 9  23053240.414 9  23053243.687 9
 117086675.382 9  91236360.815 9  22280860.602 9  22280862.920 9
 107020968.203 9  83392946.253 9  20365425.200 9  20365429.112 9
 124340024.751 9  96888298.409 9  23661144.826 9  23661152.862 9
 124496720.782 9  96830771.627 9  23330639.691 9  23330642.338 9
 119301117.154 9  92789745.006 9  22286460.669 9  22286463.832 9
 126529163.196 9  98411556.967 9  23628439.518 9  23628443.037 9
 106920022.264 9  83160015.194 9  20022687.212 9  20022687.844 9
 121795783.840 9  94730036.280 9  22848592.093 9  22848596.326 9
 113433081.922 9  88225720.132 9  21234917.765 9  21234920.065 9
 113420272.432 9  88215758.855 9  21247445.786 9  21247447.971 9
 106407799.463 9  82761617.577 9  19891818.511 9  19891819.494 9
 122346385.169 9  95158280.480 9  22879404.753 9  22879409.270 9
 18  9  7  1 12 30.0000000  0 19G01G03G06G11G17G18G19G22G28G30R02R03
                                R04R09R10R16R18R19R20
 112673223.679 9  87797285.317 9  21441025.525 9  21441033.300 9
 114480776.973 9  89205771.802 9  21784989.392 9  21784996.452 9
 123048157.097 9  95881646.486 9  23415311.068 9  23415319.285 9
 116993867.858 9  91164036.167 9  22263205.419 9  22263209.471 9
 113446030.453 9  88399486.401 9  21588075.961 9  21588080.513 9
 122667522.576 9  95585060.460 9  23342870.750 9  23342876.332 9
 121067090.506 9  94337978.727 9  23038311.357 9  23038314.623 9
 117090435.407 9  91239290.706 9  22281576.110 9  22281578.427 9
 107019793.976 9  83392031.269 9  20365201.754 9  20365205.666 9
 124436725.110 9  96963649.308 9  23679546.315 9  23679554.358 9
 124536380.711 9  96861618.264 9  23338071.925 9  23338074.567 9
 119245021.340 9  92746114.923 9  22275981.504 9  22275984.668 9
 126412779.596 9  98321036.419 9  23606705.679 9  23606709.191 9
 106907900.172 9  83150586.878 9  20020417.150 9  20020417.788 9
 121686765.556 9  94645244.317 9  22828140.514 9  22828144.739 9
 113546401.435 9  88313857.507 9  21256131.433 9  21256133.739 9
 113492711.750 9  88272100.531 9  21261016.122 9  21261018.312 9
 106404196.769 9  82758815.490 9  19891145.019 9  19891146.000 9
 122267926.529 9  95097257.125 9  22864732.569 9  22864737.078 9
 18  9  7  1 13  0.0000000  0 19G01G03G06G11G17G18G19G22G28G30R02R03
                                R04R09R10R16R18R19R20
 112750365.856 9  87857396.092 9  21455705.203 9  21455712.980 9
 114431418.537 9  89167310.702 9  21775596.780 9  21775603.835 9
 122953043.229 9  95807531.808 9  23397211.483 9  23397219.693 9
 117078479.066 9  91229966.966 9  22279306.406 9  22279310.461 9
 113404432.091 9  88367072.103 9  21580160.048 9  21580164.598 9
 122772795.378 9  95667091.183 9  23362903.522 9  23362909.112 9
 120988752.110 9  94276935.823 9  23023404.055 9  23023407.320 9
 117094741.855 9  91242646.392 9  22282395.591 9  22282397.905 9
 107019079.472 9  83391474.505 9  20365065.794 9  20365069.708 9
 124533519.644 9  97039073.578 9  23697965.734 9  23697973.788 9
 124576739.226 9  96893008.217 9  23345635.096 9  23345637.738 9
 119189541.090 9  92702963.658 9  22265617.297 9  22265620.452 9
 126296430.404 9  98230542.692 9  23584978.223 9  23584981.713 9
 106896603.508 9  83141800.574 9  20018301.655 9  20018302.295 9
 121578173.040 9  94560783.486 9  22807768.824 9  22807773.044 9
 113660123.340 9  88402307.838 9  21277420.442 9  21277422.757 9
 113565253.403 9  88328521.801 9  21274605.630 9  21274607.824 9
 106400907.489 9  82756257.147 9  19890530.133 9  19890531.117 9
 122189666.101 9  95036387.954 9  22850097.437 9  22850101.933 9
 18  9  7  1 13 30.0000000  0 19G01G03G06G11G17G18G19G22G28G30R02R03
                                R04R09R10R16R18R19R20
 112827806.145 9  87917739.172 9  21470441.602 9  21470449.380 9
 114382571.174 9  89129247.847 9  21766301.417 9  21766308.466 9
 122858146.229 9  95733586.127 9  23379153.159 9  23379161.361 9
 117163268.242 9  91296036.427 9  22295441.270 9  22295445.331 9
 113362972.765 9  88334766.148 9  21572270.591 9  21572275.137 9
 122878176.954 9  95749206.652 9  23382957.003 9  23382962.604 9
 120910526.643 9  94215980.951 9  23008518.215 9  23008521.472 9
 117099593.426 9  91246426.845 9  22283318.808 9  22283321.120 9
 107018824.073 9  83391275.483 9  20365017.201 9  20365021.117 9
 124630403.979 9  97114567.826 9  23716402.240 9  23716410.303 9
 124617793.985 9  96924939.710 9  23353328.730 9  23353331.369 9
 119134678.474 9  92660292.767 9  22255368.476 9  22255371.623 9
 126180118.455 9  98140077.929 9  23563257.724 9  23563261.193 9
 106886131.583 9  83133655.741 9  20016340.601 9  20016341.242 9
 121470009.199 9  94476656.089 9  22787477.537 9  22787481.749 9
 113774242.389 9  88491067.087 9  21298783.775 9  21298786.093 9
 113637894.783 9  88385020.634 9  21288213.822 9  21288216.020 9
 106397929.294 9  82753940.774 9  19889973.390 9  19889974.374 9
 122111602.555 9  94975671.913 9  22835499.123 9  22835503.607 9
 18  9  7  1 14  0.0000000  0 19G01G03G06G11G17G18G19G22G28G30R02R03
                                R04R09R10R16R18R19R20
 112905543.557 9  87978313.780 9  21485234.538 9  21485242.316 9
 114334238.486 9  89091586.032 9  21757103.997 9  21757111.041 9
 122763468.924 9  95659811.626 9  23361136.650 9  23361144.847 9
 117248235.379 9  91362244.580 9  22311609.982 9  22311614.045 9
 113321654.008 9  88302569.713 9  21564407.893 9  21564412.440 9
 122983666.560 9  95831406.325 9  23403031.022 9  23403036.628 9
 120832415.789 9  94155115.385 9  22993654.188 9  22993657.436 9
 117104991.627 9  91250633.243 9  22284346.046 9  22284348.356 9
 107019030.238 9  83391436.119 9  20365056.442 9  20365060.361 9
 124727376.616 9  97190130.872 9  23734855.555 9  23734863.630 9
 124659544.668 9  96957412.434 9  23361152.811 9  23361155.457 9
 119080438.451 9  92618106.095 9  22245235.975 9  22245239.118 9
 126063849.939 9  98049646.893 9  23541545.375 9  23541548.837 9
 106876486.857 9  83126154.266 9  20014534.470 9  20014535.116 9
 121362279.862 9  94392866.617 9  22767267.778 9  22767271.987 9
 113888755.966 9  88580133.184 9  21320220.971 9  21320223.293 9
 113710636.346 9  88441597.391 9  21301840.778 9  21301842.980 9
 106395262.547 9  82751866.648 9  19889474.862 9  19889475.844 9
 122033737.444 9  94915110.177 9  22820937.942 9  22820942.422 9
 18  9  7  1 14 30.0000000  0 19G01G03G06G11G17G18G19G22G28G30R02R03
                                R04R09R10R16R18R19R20
 112983575.946 9  88039118.235 9  21500083.611 9  21500091.390 9
 114286423.053 9  89054327.279 9  21748005.003 9  21748012.041 9
 122669012.954 9  95586209.597 9  23343162.257 9  23343170.448 9
 117333379.457 9  91428590.590 9  22327812.380 9  22327816.450 9
 113280476.563 9  88270483.399 9  21556572.081 9  21556576.626 9
 123089262.388 9  95913688.726 9  23423125.287 9  23423130.909 9
 120754420.531 9  94094339.883 9  22978812.166 9  22978815.408 9
 117110936.918 9  91255265.947 9  22285477.390 9  22285479.698 9
 107019699.578 9  83391957.680 9  20365183.815 9  20365187.735 9
 124824434.835 9  97265760.608 9  23753325.154 9  23753333.240 9
 124701989.770 9  96990425.283 9  23369107.011 9  23369109.659 9
 119026824.215 9  92576406.121 9  22235220.394 9  22235223.541 9
 125947629.020 1  97959252.856 1  23519841.930 1  23519845.389 1
 106867670.031 9  83119296.721 9  20012883.372 9  20012884.021 9
 121254989.089 9  94309418.273 9  22747140.276 9  22747144.477 9
 114003660.313 9  88669503.206 9  21341731.324 9  21341733.652 9
 113783477.256 9  88498251.411 9  21315486.351 9  21315488.557 9
 106392906.510 9  82750034.188 9  19889034.416 9  19889035.395 9
 121956070.982 9  94854702.959 9  22806413.900 9  22806418.373 9
 18  9  7  1 15  0.0000000  0 19G01G03G06G11G17G18G19G22G28G30R02R03
                                R04R09R10R16R18R19R20
 113061899.436 9  88100149.516 9  21514988.083 9  21514995.864 9
 114239125.506 9  89017472.067 9  21739004.565 9  21739011.598 9
 122574778.141 9  95512779.897 9  23325229.950 9  23325238.135 9
 117418697.184 9  91495071.922 9  22344047.814 9  22344051.887 9
 113239439.360 9  88238506.364 9  21548762.956 9  21548767.500 9
 123194960.978 9  95996051.237 9  23443239.080 9  23443244.708 9
 120676540.032 9  94033653.789 9  22963991.993 9  22963995.233 9
 117117428.051 9  91260323.982 9  22286712.604 9  22286714.910 9
 107020831.321 9  83392839.543 9  20365399.189 9  20365403.113 9
 124921574.198 9  97341453.605 9  23771810.170 9  23771818.259 9
 124745126.632 9  97023976.179 9  23377190.838 9  23377193.485 9
 118973837.968 9  92535194.621 9  22225322.099 9  22225325.240 9
 125831458.664 9  97868898.148 9  23498147.925 9  23498151.381 9
 106859680.380 9  83113082.521 9  20011387.187 9  20011387.842 9
 121148139.862 9  94226313.349 9  22727095.611 9  22727099.804 9
 114118949.857 9  88759172.816 9  21363313.795 9  21363316.131 9
 113856414.761 9  88554980.584 9  21329150.002 9  21329152.207 9
 106390858.329 9  82748441.130 9  19888651.552 9  19888652.537 9
 121878601.774 9  94794449.135 9  22791926.764 9  22791931.236 9
 18  9  7  1 15 30.0000000  0 19G01G03G06G11G17G18G19G22G28G30R02R03
                                R04R09R10R16R18R19R20
 113140512.772 9  88161406.651 9  21529947.711 9  21529955.495 9
 114192349.237 9  88981023.036 9  21730103.329 9  21730110.360 9
 122480767.053 9  95439524.523 9  23307340.220 9  23307348.400 9
 117504188.614 9  91561688.605 9  22360316.304 9  22360320.381 9
 113198543.524 9  88206639.476 9  21540980.740 9  21540985.284 9
 123300761.165 9  96078492.895 9  23463372.222 9  23463377.861 9
 120598775.958 9  93973058.435 9  22949193.960 9  22949197.193 9
 117124466.089 9  91265808.181 9  22288051.888 9  22288054.190 9
 107022427.789 9  83394083.538 9  20365702.992 9  20365706.917 9
 125018792.907 9  97417208.389 9  23790310.316 9  23790318.418 9
 124788954.581 9  97058064.574 9  23385404.184 9  23385406.833 9
 118921484.335 9  92494475.111 9  22215542.014 9  22215545.159 9
 125715345.115 9  97778587.637 9  23476464.519 9  23476467.969 9
 106852519.581 9  83107512.995 9  20010046.211 9  20010046.870 9
 121041737.557 9  94143556.053 9  22707134.770 9  22707138.951 9
 114234621.520 9  88849139.628 9  21384967.800 9  21384970.145 9
 113929449.131 9  88611785.068 9  21342831.819 9  21342834.031 9
 106389118.608 9  82747088.036 9  19888326.313 9  19888327.292 9
 121801330.854 9  94734349.572 9  22777476.682 9  22777481.144 9
 18  9  7  1 16  0.0000000  0 19G01G03G06G11G17G18G19G22G28G30R02R03
                                R04R09R10R16R18R19R20
 113219413.875 9  88222888.015 9  21544962.103 9  21544969.890 9
 114146096.745 9  88944982.145 9  21721301.764 9  21721308.792 9
 122386981.302 9  95366444.722 9  23289493.382 9  23289501.560 9
 117589852.723 9  91628439.843 9  22376617.654 9  22376621.734 9
 113157790.024 9  88174883.509 9  21533225.601 9  21533230.144 9
 123406661.496 9  96161012.598 9  23483524.411 9  23483530.059 9
 120521129.164 9  93912554.480 9  22934418.236 9  22934421.459 9
 117132051.608 9  91271718.986 9  22289495.356 9  22289497.656 9
 107024490.237 9  83395690.619 9  20366095.479 9  20366099.409 9
 125116088.325 9  97493022.986 9  23808825.029 9  23808833.135 9
 124833472.491 9  97092689.603 9  23393746.830 9  23393749.482 9
 118869766.496 9  92454250.152 9  22205880.667 9  22205883.806 9
 125599292.377 9  97688324.477 9  23454792.429 9  23454795.860 9
 106846188.725 9  83102588.992 9  20008860.648 9  20008861.308 9
 120935786.663 9  94061149.798 9  22687258.655 9  22687262.837 9
 114350671.558 9  88939400.727 9  21406692.641 9  21406694.997 9
 114002579.630 9  88668664.355 9  21356531.619 9  21356533.828 9
 106387686.245 9  82745973.988 9  19888058.539 9  19888059.515 9
 121724258.706 9  94674404.552 9  22763063.813 9  22763068.279 9
 18  9  7  1 16 30.0000000  0 19G01G03G06G11G17G18G19G22G28G30R02R03
                                R04R09R10R16R18R19R20
 113298598.437 9  88284590.265 9  21560030.429 9  21560038.218 9
 114100368.074 9  88909349.429 9  21712599.876 9  21712606.900 9
 122293420.255 9  95293540.027 9  23271689.294 9  23271697.468 9
 117675685.311 9  91695322.368 9  22392951.061 9  22392955.144 9
 113117177.348 9  88143237.286 9  21525497.252 9  21525501.790 9
 123512657.841 9  96243607.112 9  23503694.876 9  23503700.533 9
 120443598.328 9  93852140.860 9  22919664.594 9  22919667.813 9
 117140182.543 9  91278054.791 9  22291042.613 9  22291044.910 9
 107027017.677 9  83397660.043 9  20366576.442 9  20366580.375 9
 125213455.569 9  97568893.527 9  23827353.429 9  23827361.545 9
 124878676.879 9  97127848.519 9  23402218.151 9  23402220.816 9
 118818685.578 9  92414520.560 9  22196338.315 9  22196341.450 9
 125483303.467 9  97598110.923 9  23433132.287 9  23433135.707 9
 106840686.041 9  83098309.125 9  20007830.173 9  20007830.834 9
 120830289.481 9  93979096.468 9  22667467.628 9  22667471.801 9
 114467093.959 9  89029951.462 9  21428487.174 9  21428489.535 9
 114075803.071 9  88725615.885 9  21370248.863 9  21370251.081 9
 106386558.332 9  82745096.732 9  19887847.680 9  19887848.654 9
 121647383.414 9  94614612.686 9  22748687.726 9  22748692.185 9
 18  9  7  1 17  0.0000000  0 19G01G03G06G11G17G18G19G22G28G30R02R03
                                R04R09R10R16R18R19R20
 113378062.803 9  88346510.534 9  21575152.007 9  21575159.800 9
 114055164.367 9  88874125.769 9  21703997.891 9  21704004.913 9
 122200084.069 9  95220810.553 9  23253927.992 9  23253936.161 9
 117761684.454 9  91762334.664 9  22409316.171 9  22409320.260 9
 113076704.725 9  88111700.181 9  21517795.565 9  21517800.102 9
 123618746.959 9  96326273.930 9  23523882.984 9  23523888.648 9
 120366182.665 9  93791817.023 9  22904932.841 9  22904936.046 9
 117148857.842 9  91284814.779 9  22292693.456 9  22292695.749 9
 107030010.239 9  83399991.901 9  20367145.914 9  20367149.849 9
 125310890.538 9  97644816.846 9  23845894.713 9  23845902.836 9
 124924565.108 9  97163539.356 9  23410817.591 9  23410820.258 9
 118768244.002 9  92375288.209 9  22186915.415 9  22186918.554 9
 125367381.297 9  97507949.275 9  23411484.610 9  23411488.021 9
 106836011.048 9  83094673.001 9  20006954.710 9  20006955.376 9
 120725249.538 9  93897398.791 9  22647762.360 9  22647766.520 9
 114583883.592 9  89120787.790 9  21450350.478 9  21450352.851 9
 114149117.528 9  88782638.221 9  21383983.145 9  21383985.368 9
 106385732.744 9  82744454.612 9  19887693.342 9  19887694.316 9
 121570703.642 9  94554972.888 9  22734348.203 9  22734352.657 9
 18  9  7  1 17 30.0000000  0 19G01G03G06G11G17G18G19G22G28G30R02R03
                                R04R09R10R16R18R19R20
 113457808.907 9  88408650.352 9  21590327.189 9  21590334.982 9
 114010491.847 9  88839316.022 9  21695496.986 9  21695504.006 9
 122106978.291 9  95148260.606 9  23236210.544 9  23236218.711 9
 117847852.703 9  91829478.731 9  22425713.461 9  22425717.556 9
 113036376.878 9  88080275.901 9  21510121.419 9  21510125.952 9
 123724931.143 9  96409014.803 9  23544089.200 9  23544094.876 9
 120288887.083 9  93731586.720 9  22890223.965 9  22890227.165 9
 117158081.486 9  91292002.047 9  22294448.648 9  22294450.938 9
 107033472.713 9  83402689.923 9  20367804.808 9  20367808.745 9
 125408394.514 9  97720793.920 9  23864449.140 9  23864457.276 9
 124971138.777 9  97199763.266 9  23419545.517 9  23419548.197 9
 118718449.360 9  92336559.079 9  22177613.331 9  22177616.461 9
 125251534.579 9  97417846.284 9  23389851.044 9  23389854.452 9
 106832168.468 9  83091684.297 9  20006235.141 9  20006235.814 9
 120620674.517 9  93816062.690 9  22628144.333 9  22628148.486 9
 114701040.320 9  89211909.686 9  21472282.465 9  21472284.840 9
 114222526.071 9  88839733.728 9  21397735.059 9  21397737.288 9
 106385212.572 9  82744050.046 9  19887596.092 9  19887597.063 9
 121494223.987 9  94495488.779 9  22720046.073 9  22720050.510 9
 18  9  7  1 18  0.0000000  0 19G01G03G06G11G17G18G19G22G28G30R02R03
                                R04R09R10R16R18R19R20
 113537830.271 9  88471004.638 9  21605554.766 9  21605562.565 9
 113966348.526 9  88804918.639 9  21687096.784 9  21687103.802 9
 122014100.154 9  95075888.060 9  23218536.400 9  23218544.560 9
 117934184.642 9  91896750.355 9  22442141.896 9  22442145.994 9
 112996189.995 9  88048961.447 9  21502474.109 9  21502478.642 9
 123831204.074 9  96491824.846 9  23564312.291 9  23564317.976 9
 120211708.100 9  93671447.273 9  22875537.278 9  22875540.473 9
 117167849.644 9  91299613.609 9  22296307.459 9  22296309.746 9
 107037402.010 9  83405751.708 9  20368552.532 9  20368556.471 9
 125505960.484 9  97796819.319 9  23883015.351 9  23883023.495 9
 125018393.063 9  97236516.573 9  23428400.970 9  23428403.656 9
 118669300.578 9  92298332.249 9  22168431.925 9  22168435.056 9
 125135763.800 9  97327802.355 9  23368231.660 9  23368235.066 9
 106829154.614 9  83089340.200 9  20005670.735 9  20005671.404 9
 120516564.571 9  93735088.342 9  22608613.531 9  22608617.672 9
 114818556.096 9  89303310.820 9  21494281.684 9  21494284.064 9
 114296023.593 9  88896898.462 9  21411503.625 9  21411505.856 9
 106384992.842 9  82743879.132 9  19887555.026 9  19887555.999 9
 121417939.973 9  94436156.822 9  22705780.538 9  22705784.962 9
 18  9  7  1 18 30.0000000  0 19G01G03G06G11G17G18G19G22G28G30R02R03
                                R04R09R10R16R18R19R20
 113618127.359 9  88533573.785 9  21620834.803 9  21620842.605 9
 113922739.343 9  88770937.464 9  21678798.227 9  21678805.243 9
 121921453.833 9  95003696.141 9  23200906.377 9  23200914.532 9
 118020681.740 9  91964150.663 9  22458601.768 9  22458605.873 9
 112956147.429 9  88017759.457 9  21494854.255 9  21494858.786 9
 123937566.924 9  96574704.956 9  23584552.493 9  23584558.186 9
 120134649.232 9  93611401.437 9  22860873.436 9  22860876.623 9
 117178165.109 9  91307651.646 9  22298270.417 9  22298272.701 9
 107041802.229 9  83409180.441 9  20369389.873 9  20369393.814 9
 125603588.415 9  97872893.016 9  23901593.340 9  23901601.488 9
 125066328.518 9  97273799.677 9  23437384.074 9  23437386.767 9
 118620803.649 9  92260612.422 9  22159372.286 9  22159375.415 9
 125020076.546 9  97237823.472 9  23346627.814 9  23346631.197 9
 106826972.816 9  83087643.237 9  20005262.161 9  20005262.833 9
 120412926.890 9  93654481.294 9  22589171.339 9  22589175.471 9
 114936429.759 9  89394990.286 9  21516347.917 9  21516350.310 9
 114369611.955 9  88954133.828 9  21425289.225 9  21425291.462 9
 106385075.133 9  82743943.152 9  19887570.397 9  19887571.367 9
 121341854.546 9  94376979.265 9  22691552.181 9  22691556.607 9
 18  9  7  1 19  0.0000000  0 19G01G03G06G11G17G18G19G22G28G30R02R03
                                R04R09R10R16R18R19R20
 113698695.754 9  88596354.344 9  21636166.465 9  21636174.270 9
 113879664.274 9  88737372.487 9  21670601.305 9  21670608.318 9
 121829038.512 9  94931684.232 9  23183320.304 9  23183328.452 9
 118107340.427 9  92031676.893 9  22475092.382 9  22475096.492 9
 112916247.508 9  87986668.613 9  21487261.550 9  21487266.080 9
 124044015.436 9  96657651.801 9  23604809.008 9  23604814.712 9
 120057708.814 9  93551447.879 9  22846232.151 9  22846235.334 9
 117189025.768 9  91316114.516 9  22300337.117 9  22300339.397 9
 107046671.956 9  83412975.024 9  20370316.558 9  20370320.501 9
 125701273.286 9  97949011.056 9  23920182.185 9  23920190.342 9
 125114941.386 1  97311609.641 1  23446494.137 1  23446496.841 1
 118572959.109 9  92223400.014 9  22150434.516 9  22150437.642 9
 124904474.783 9  97147911.020 9  23325039.977 9  23325043.353 9
 106825621.211 9  83086591.970 9  20005009.062 9  20005009.739 9
 120309763.984 9  93574243.490 9  22569818.231 9  22569822.360 9
 115054654.771 9  89486943.038 9  21538479.913 9  21538482.314 9
 114443288.101 9  89011437.506 9  21439091.243 9  21439093.478 9
 106385456.356 9  82744239.669 9  19887641.656 9  19887642.623 9
 121265965.631 9  94317954.585 9  22677360.548 9  22677364.966 9
 18  9  7  1 19 30.0000000  0 19G01G03G06G11G17G18G19G22G28G30R02R03
                                R04R09R10R16R18R19R20
 113779532.648 9  88659344.108 9  21651549.233 9  21651557.043 9
 113837124.947 9  88704224.963 9  21662506.338 9  21662513.350 9
 121736855.122 9  94859853.047 9  23165778.367 9  23165786.508 9
 118194159.158 9  92099327.835 9  22491613.450 9  22491617.564 9
 112876490.154 9  87955688.850 9  21479695.982 9  21479700.513 9
 124150547.102 9  96740663.457 9  23625081.334 9  23625087.045 9
 119980887.034 9  93491586.762 9  22831613.444 9  22831616.625 9
 117200431.031 9  91325001.748 9  22302507.456 9  22302509.733 9
 107052011.921 9  83417136.026 9  20371332.727 9  20371336.673 9
 125799011.793 9  98025170.884 9  23938781.240 9  23938789.409 9
 125164229.621 9  97349944.900 9  23455730.756 9  23455733.469 9
 118525770.187 9  92186697.545 9  22141619.209 9  22141622.329 9
 124788962.766 9  97058068.348 9  23303468.917 9  23303472.291 9
 106825099.484 9  83086186.185 9  20004911.357 9  20004912.033 9
 120207079.264 9  93494377.644 9  22550554.804 9  22550558.922 9
 115173226.965 9  89579165.817 9  21560676.905 9  21560679.315 9
 114517050.795 9  89068808.463 9  21452909.501 9  21452911.743 9
 106386135.176 9  82744767.641 9  19887768.553 9  19887769.520 9
 121190272.743 9  94259082.386 9  22663205.562 9  22663209.968 9
 18  9  7  1 20  0.0000000  0 19G01G03G06G11G17G18G19G22G28G30R02R03
                                R04R09R10R16R18R19R20
 113860636.678 9  88722542.050 9  21666982.819 9  21666990.630 9
 113795124.248 9  88671497.153 9  21654513.865 9  21654520.876 9
 121644905.821 9  94788204.274 9  23148280.972 9  23148289.105 9
 118281137.281 9  92167102.978 9  22508164.850 9  22508168.969 9
 112836876.763 9  87924821.285 9  21472157.795 9  21472162.323 9
 124257161.152 9  96823739.299 9  23645369.344 9  23645375.066 9
 119904185.426 9  93431819.283 9  22817017.608 9  22817020.786 9
 117212381.819 9  91334314.059 9  22304781.609 9  22304783.883 9
 107057823.750 9  83421664.717 9  20372438.687 9  20372442.634 9
 125896801.915 9  98101370.949 9  23957390.104 9  23957398.280 9
 125214191.951 9  97388804.476 9  23465093.686 9  23465096.401 9
 118479240.669 9  92150507.920 9  22132927.104 9  22132930.224 9
 124673545.522 9  96968299.469 9  23281915.496 9  23281918.849 9
 106825408.984 9  83086426.880 9  20004969.337 9  20004970.019 9
 120104878.277 9  93414888.020 9  22531382.135 9  22531386.245 9
 115292142.911 9  89671655.959 9  21582938.247 9  21582940.667 9
 114590899.898 9  89126246.647 9  21466743.932 9  21466746.175 9
 106387111.738 9  82745527.188 9  19887951.112 9  19887952.079 9
 121114777.034 9  94200363.532 9  22649087.461 9  22649091.860 9
 18  9  7  1 20 30.0000000  0 19G01G03G06G11G17G18G19G22G28G30R02R03
                                R04R09R10R16R18R19R20
 113942005.882 9  88785946.606 9  21682466.878 9  21682474.693 9
 113753664.642 9  88639190.978 9  21646624.356 9  21646631.363 9
 121553192.331 9  94716739.241 9  23130828.457 9  23130836.584 9
 118368273.966 9  92235001.676 9  22524746.423 9  22524750.546 9
 112797408.139 9  87894066.519 9  21464647.161 9  21464651.688 9
 124363855.954 9  96906878.057 9  23665672.726 9  23665678.460 9
 119827605.009 9  93372146.257 9  22802444.819 9  22802447.991 9
 117224878.282 9  91344051.579 9  22307159.594 9  22307161.865 9
 107064108.804 9  83426562.156 9  20373634.697 9  20373638.645 9
 125994641.277 9  98177609.369 9  23976008.349 9  23976016.536 9
 125264827.365 9  97428187.585 9  23474582.734 9  23474585.447 9
 118433373.803 9  92114833.745 9  22124358.749 9  22124361.855 9
 124558228.799 9  96878608.684 9  23260380.912 9  23260384.264 9
 106826550.083 9  83087314.391 9  20005183.036 9  20005183.721 9
 120003164.935 9  93335777.645 9  22512300.970 9  22512305.079 9
 115411398.838 9  89764410.569 9  21605263.207 9  21605265.626 9
 114664834.876 9  89183751.593 9  21480594.472 9  21480596.724 9
 106388385.249 9  82746517.693 9  19888189.184 9  19888190.152 9
 121039478.756 9  94141798.192 9  22635006.313 9  22635010.714 9
 18  9  7  1 21  0.0000000  0 19G01G03G06G11G17G18G19G22G28G30R02R03
                                R04R09R10R16R18R19R20
 114023636.947 9  88849555.215 9  21698000.763 9  21698008.581 9
 113712747.140 9  88607307.217 9  21638838.009 9  21638845.015 9
 121461715.050 9  94645458.279 9  23113420.882 9  23113429.000 9
 118455566.537 9  92303021.844 9  22541357.660 9  22541361.787 9
 112758084.064 9  87863424.381 9  21457164.039 9  21457168.567 9
 124470628.414 9  96990077.333 9  23685990.883 9  23685996.627 9
 119751145.496 9  93312567.439 9  22787895.040 9  22787898.207 9
 117237919.560 9  91354213.629 9  22309641.256 9  22309643.522 9
 107070866.724 9  83431828.052 9  20374920.698 9  20374924.650 9
 126092526.013 9  98253883.131 9  23994635.239 9  23994643.440 9
 125316132.719 9  97468091.714 9  23484197.361 9  23484200.083 9
 118388172.208 9  92079676.962 9  22115914.701 9  22115917.805 9
 124443015.707 9  96788998.592 9  23238865.613 9  23238868.944 9
 106828522.257 9  83088848.294 9  20005552.368 9  20005553.055 9
 119901943.464 9  93257049.856 9  22493312.063 9  22493316.167 9
 115530990.066 9  89857425.913 9  21627650.977 9  21627653.409 9
 114738853.977 9  89241322.012 9  21494460.739 9  21494462.989 9
 106389953.856 9  82747737.738 9  19888482.406 9  19888483.370 9
 120964377.033 9  94083385.830 9  22620961.846 9  22620966.226 9
 18  9  7  1 21 30.0000000  0 20G01G03G06G11G17G18G19G22G24G28G30R02
                                R03R04R09R10R16R18R19R20
 114105528.218 9  88913366.581 9  21713584.164 9  21713591.986 9
 113672374.301 9  88575847.879 9  21631155.300 9  21631162.302 9
 121370475.808 9  94574362.800 9  23096058.605 9  23096066.716 9
 118543014.356 9  92371162.987 9  22557998.438 9  22558002.569 9
 112718905.547 9  87832895.679 9  21449708.606 9  21449713.130 9
 124577477.394 9  97073336.240 9  23706323.597 9  23706329.350 9
 119674808.407 9  93253084.033 9  22773368.545 9  22773371.702 9
 117251505.792 9  91364800.319 9  22312226.618 9  22312228.881 9
 132336891.44619 103119621.81319  25182898.758 9  25182907.074 9
 107078099.428 9  83437463.923 9  20376297.038 9  20376300.991 9
 126190453.775 9  98330190.445 9  24013270.297 9  24013278.507 9
 125368106.621 9  97508515.838 9  23493937.264 9  23493939.991 9
 118343639.039 9  92045040.075 9  22107595.515 9  22107598.613 9
 124327911.680 9  96699473.311 9  23217370.694 9  23217374.007 9
 106831325.920 9  83091028.907 9  20006077.414 9  20006078.105 9
 119801217.980 9  93178707.868 9  22474416.178 9  22474420.269 9
 115650912.800 9  89950699.107 9  21650100.796 9  21650103.239 9
 114812956.731 9  89298957.466 9  21508342.698 9  21508344.953 9
 106391816.656 9  82749186.578 9  19888830.640 9  19888831.605 9
 120889472.239 9  94025126.522 9  22606954.289 9  22606958.676 9
 18  9  7  1 22  0.0000000  0 20G01G03G06G11G17G18G19G22G24G28G30R02
                                R03R04R09R10R16R18R19R20
 114187677.429 9  88977378.937 9  21729216.651 9  21729224.477 9
 113632548.188 9  88544814.547 9  21623576.641 9  21623583.642 9
 121279475.989 9  94503453.891 9  23078741.885 9  23078749.985 9
 118630616.275 9  92439424.194 9  22574668.551 9  22574672.688 9
 112679873.055 9  87802480.766 9  21442280.958 9  21442285.478 9
 124684401.163 9  97156653.414 9  23726670.550 9  23726676.316 9
 119598594.030 9  93193696.221 9  22758865.420 9  22758868.574 9
 117265637.047 9  91375811.694 9  22314915.701 9  22314917.961 9
 132295162.855 9 103087106.036 9  25174958.065 9  25174966.379 9
 107085807.898 9  83443470.510 9  20377763.921 9  20377767.877 9
 126288421.970 9  98406529.273 9  24031913.044 9  24031921.259 9
 125420747.310 9  97549458.595 9  23503802.107 9  23503804.834 9
 118299777.522 9  92010925.587 9  22099401.796 9  22099404.889 9
 124212921.043 9  96610036.234 9  23195896.941 9  23195900.233 9
 106834961.529 9  83093856.590 9  20006758.257 9  20006758.950 9
 119700992.567 9  93100754.776 9  22455614.140 9  22455618.229 9
 115771163.126 9  90044227.121 9  21672611.922 9  21672614.369 9
 114887142.519 9  89356657.490 9  21522240.220 9  21522242.483 9
 106393973.102 9  82750863.810 9  19889233.767 9  19889234.734 9
 120814764.649 9  93967020.662 9  22592983.562 9  22592987.937 9
 18  9  7  1 22 30.0000000  0 20G01G03G06G11G17G18G19G22G24G28G30R02
                                R03R04R09R10R16R18R19R20
 114270080.855 9  89041589.389 9  21744897.509 9  21744905.338 9
 113593269.228 9  88514207.586 9  21616102.087 9  21616109.083 9
 121188715.403 9  94432731.399 9  23061470.687 9  23061478.777 9
 118718369.593 9  92507803.385 9  22591367.465 9  22591371.607 9
 112640985.839 9  87772179.044 9  21434880.963 9  21434885.482 9
 124791396.211 9  97240026.132 9  23747031.066 9  23747036.843 9
 119522501.733 9  93134403.552 9  22744385.515 9  22744388.661 9
 117280311.787 9  91387246.572 9  22317708.199 9  22317710.456 9
 132253915.476 9 103054965.240 9  25167108.936 9  25167117.245 9
 107093991.392 9  83449847.251 9  20379321.193 9  20379325.151 9
 126386426.088 9  98482896.153 9  24050562.581 9  24050570.788 9
 125474051.300 9  97590917.187 9  23513791.301 9  23513794.044 9
 118256588.831 9  91977334.412 9  22091333.765 9  22091336.850 9
 124098046.911 9  96520689.701 9  23174444.996 9  23174448.286 9
 106839427.510 9  83097330.132 9  20007594.590 9  20007595.284 9
 119601270.162 9  93023192.943 9  22436906.443 9  22436910.523 9
 115891735.431 9  90138005.541 9  21695183.339 9  21695185.796 9
 114961408.945 9  89414420.253 9  21536152.834 9  21536155.100 9
 106396420.730 9  82752767.550 9  19889691.304 9  19889692.263 9
 120740252.792 9  93909067.029 9  22579049.444 9  22579053.811 9
 18  9  7  1 23  0.0000000  0 20G01G03G06G11G17G18G19G22G24G28G30R02
                                R03R04R09R10R16R18R19R20
 114352735.407 9  89105995.523 9  21760626.155 9  21760633.986 9
 113554538.601 9  88484027.890 9  21608731.884 9  21608738.877 9
 121098194.648 9  94362195.794 9  23044245.124 9  23044253.202 9
 118806272.416 9  92576299.062 9  22608094.838 9  22608098.987 9
 112602243.442 9  87741990.169 9  21427508.526 9  21427513.044 9
 124898460.052 9  97323452.462 9  23767404.667 9  23767410.454 9
 119446531.483 9  93075205.972 9  22729928.844 9  22729931.986 9
 117295529.092 9  91399104.221 9  22320603.949 9  22320606.204 9
 132213148.952 9 103023199.100 9  25159351.337 9  25159359.651 9
 107102649.891 9  83456594.120 9  20380968.861 9  20380972.822 9
 126484462.709 9  98559288.264 9  24069218.376 9  24069226.598 9
 125528015.931 9  97632889.696 9  23523904.236 9  23523906.975 9
 118214075.330 9  91944268.370 9  22083391.875 9  22083394.957 9
 123983293.428 9  96431437.083 9  23153015.526 9  23153018.793 9
 106844723.125 9  83101448.930 9  20008586.299 9  20008586.996 9
 119502054.231 9  92946025.030 9  22418293.762 9  22418297.834 9
 116012624.880 9  90232030.609 9  21717814.141 9  21717816.612 9
 115035754.442 9  89472244.501 9  21550080.271 9  21550082.544 9
 106399158.051 9  82754896.569 9  19890203.024 9  19890203.985 9
 120665935.868 9  93851264.987 9  22565151.797 9  22565156.162 9
 18  9  7  1 23 30.0000000  0 20G01G03G06G11G17G18G19G22G24G28G30R02
                                R03R04R09R10R16R18R19R20
 114435641.116 9  89170597.364 9  21776402.595 9  21776410.428 9
 113516360.484 9  88454278.726 9  21601466.816 9  21601473.805 9
 121007917.179 9  94291849.740 9  23027065.874 9  23027073.945 9
 118894325.393 9  92644911.757 9  22624850.774 9  22624854.926 9
 112563648.859 9  87711916.476 9  21420164.215 9  21420168.731 9
 125005592.938 9  97406932.617 9  23787791.390 9  23787797.180 9
 119370686.249 9  93016105.829 9  22715495.946 9  22715499.078 9
 117311290.611 9  91411385.929 9  22323603.263 9  22323605.517 9
 132172868.201 9 102991811.554 9  25151686.126 9  25151694.427 9
 107111786.445 9  83463713.501 9  20382707.498 9  20382711.462 9
 126582531.209 9  98635705.252 9  24087880.210 9  24087888.438 9
 125582641.472 9  97675376.163 9  23534141.087 9  23534143.841 9
 118172242.162 9  91911731.480 9  22075577.074 9  22075580.152 9
 123868667.361 9  96342283.545 9  23131609.865 9  23131613.116 9
 106850850.408 9  83106214.729 9  20009733.643 9  20009734.308 9
 119403351.426 9  92869256.219 9  22399777.340 9  22399781.403 9
 116133829.772 9  90326301.038 9  21740503.982 9  21740506.464 9
 115110180.454 9  89530131.384 9  21564022.782 9  21564025.059 9
 106402186.467 9  82757252.017 9  19890769.144 9  19890770.102 9
 120591816.225 9  93793616.420 9  22551291.018 9  22551295.372 9
 18  9  7  1 24  0.0000000  0 20G01G03G06G11G17G18G19G22G24G28G30R02
                                R03R04R09R10R16R18R19R20
 114518794.627 9  89235392.292 9  21792226.194 9  21792234.031 9
 113478735.703 9  88424960.729 9  21594307.048 9  21594314.033 9
 120917883.225 9  94221693.443 9  23009932.958 9  23009941.023 9
 118982526.189 9  92713639.622 9  22641634.848 9  22641639.007 9
 112525201.546 9  87681957.540 9  21412847.927 9  21412852.441 9
 125112792.206 9  97490464.448 9  23808190.782 9  23808196.589 9
 119294965.568 9  92957102.731 9  22701086.757 9  22701089.882 9
 117327595.414 9  91424090.979 9  22326705.957 9  22326708.209 9
 132133072.112 9 102960801.574 9  25144113.212 9  25144121.523 9
 107121400.970 9  83471205.333 9  20384537.086 9  20384541.051 9
 126680627.757 9  98712144.090 9  24106547.385 9  24106555.621 9
 125637924.517 9  97718374.064 9  23544501.122 9  23544503.883 9
 118131090.871 9  91879724.963 9  22067889.636 9  22067892.703 9
 123754172.033 9  96253231.648 9  23110228.652 9  23110231.897 9
 106857808.487 9  83111626.565 9  20011036.670 9  20011037.335 9
 119305164.260 9  92792888.431 9  22381357.672 9  22381361.733 9
 116255344.806 9  90420812.692 9  21763251.880 9  21763254.371 9
 115184685.212 9  89588079.513 9  21577980.046 9  21577982.326 9
 106405503.127 9  82759831.632 9  19891389.166 9  19891390.126 9
 120517892.846 9  93736120.471 9  22537466.964 9  22537471.315 9
 18  9  7  1 24 30.0000000  0 20G01G03G06G11G17G18G19G22G24G28G30R02
                                R03R04R09R10R16R18R19R20
 114602192.430 9  89300377.587 9  21808096.273 9  21808104.111 9
 113441664.808 9  88396074.334 9  21587252.678 9  21587259.659 9
 120828092.772 9  94151726.891 9  22992846.377 9  22992854.433 9
 119070872.418 9  92782480.804 9  22658446.603 9  22658450.771 9
 112486900.243 9  87652112.374 9  21405559.428 9  21405563.940 9
 125220054.396 9  97574045.328 9  23828602.134 9  23828607.952 9
 119219368.737 9  92898196.119 9  22686701.151 9  22686704.274 9
 117344441.756 9  91437218.007 9  22329911.703 9  22329913.953 9
 132093761.430 9 102930169.863 9  25136632.646 9  25136640.960 9
 107131492.892 9  83479069.155 9  20386457.525 9  20386461.493 9
 126778748.290 9  98788601.596 9  24125219.141 9  24125227.390 9
 125693861.925 9  97761880.921 9  23554983.780 9  23554986.544 9
 118090623.358 9  91848250.231 9  22060329.964 9  22060333.031 9
 123639810.837 9  96164284.144 9  23088872.437 9  23088875.660 9
 106865595.748 9  83117683.321 9  20012494.976 9  20012495.642 9
 119207496.358 9  92716924.548 9  22363035.392 9  22363039.443 9
 116377164.426 9  90515561.246 9  21786056.798 9  21786059.298 9
 115259266.451 9  89646087.126 9  21591951.638 9  21591953.923 9
 106409106.840 9  82762634.540 9  19892062.827 9  19892063.782 9
 120444164.110 9  93678775.896 9  22523679.320 9  22523683.672 9
 18  9  7  1 25  0.0000000  0 20G01G03G06G11G17G18G19G22G24G28G30R02
                                R03R04R09R10R16R18R19R20
 114685834.380 9  89365553.113 9  21824012.821 9  21824020.665 9
 113405151.808 9  88367622.661 9  21580304.474 9  21580311.451 9
 120738549.224 9  94081952.747 9  22975806.769 9  22975814.813 9
 119159364.790 9  92851435.877 9  22675286.158 9  22675290.332 9
 112448748.225 9  87622383.533 9  21398299.337 9  21398303.848 9
 125327380.092 9  97657675.706 9  23849025.561 9  23849031.387 9
 119143898.768 9  92839388.360 9  22672339.687 9  22672342.807 9
 117361831.766 9  91450768.670 9  22333220.908 9  22333223.156 9
 132054939.181 9 102899918.796 9  25129244.991 9  25129253.296 9
 107142065.208 9  83487307.316 9  20388469.375 9  20388473.346 9
 126876892.064 9  98865077.215 9  24143895.318 9  24143903.578 9
 125750453.723 9  97805896.753 9  23565589.067 9  23565591.833 9
 118050844.222 9  91817310.952 9  22052898.851 9  22052901.907 9
 123525591.034 9  96075446.518 9  23067542.695 9  23067545.918 9
 106874214.358 9  83124386.669 9  20014108.976 9  20014109.646 9
 119110353.588 9  92641369.089 9  22344811.634 9  22344815.678 9
 116499286.925 9  90610545.373 9  21808918.414 9  21808920.924 9
 115333925.651 9  89704155.383 9  21605937.829 9  21605940.116 9
 106412998.228 9  82765661.171 9  19892790.284 9  19892791.240 9
 120370632.335 9  93621584.544 9  22509928.487 9  22509932.832 9
 18  9  7  1 25 30.0000000  0 20G01G03G06G11G17G18G19G22G24G28G30R02
                                R03R04R09R10R16R18R19R20
 114769716.590 9  89430915.863 9  21839975.083 9  21839982.929 9
 113369196.865 9  88339605.840 9  21573462.462 9  21573469.435 9
 120649252.231 9  94012370.703 9  22958814.095 9  22958822.132 9
 119248000.513 9  92920502.658 9  22692152.988 9  22692157.165 9
 112410744.186 9  87592769.998 9  21391067.407 9  21391071.918 9
 125434765.912 9  97741352.912 9  23869460.445 9  23869466.286 9
 119068554.387 9  92780678.471 9  22658002.114 9  22658005.230 9
 117379763.585 9  91464741.519 9  22336633.217 9  22336635.464 9
 132016604.993 9 102870047.998 9  25121950.239 9  25121958.544 9
 107153116.869 9  83495918.991 9  20390572.443 9  20390576.416 9
 126975054.691 9  98941567.523 9  24162575.083 9  24162583.355 9
 125807696.166 9  97850418.618 9  23576316.302 9  23576319.077 9
 118011754.991 9  91786908.221 9  22045596.652 9  22045599.706 9
 123411515.060 9  95986720.860 9  23046239.739 9  23046242.938 9
 106883662.353 9  83131735.100 9  20015878.289 9  20015878.961 9
 119013738.655 9  92566224.162 9  22326686.903 9  22326690.942 9
 116621706.598 9  90705760.618 9  21831835.675 9  21831838.198 9
 115408660.380 9  89762282.343 9  21619938.200 9  21619940.500 9
 106417174.908 9  82768909.709 9  19893571.064 9  19893572.018 9
 120297295.966 9  93564545.203 9  22496214.174 9  22496218.505 9
 18  9  7  1 26  0.0000000  0 20G01G03G06G11G17G18G19G22G24G28G30R02
                                R03R04R09R10R16R18R19R20
 114853835.860 9  89496463.333 9  21855982.458 9  21855990.307 9
 113333800.773 9  88312024.481 9  21566726.801 9  21566733.772 9
 120560202.025 9  93942980.971 9  22941868.375 9  22941876.402 9
 119336777.293 9  92989679.337 9  22709046.672 9  22709050.857 9
 112372887.919 9  87563271.610 9  21383863.598 9  21383868.108 9
 125542208.995 9  97825074.770 9  23889906.203 9  23889912.049 9
 118993335.857 9  92722066.651 9  22643688.487 9  22643691.598 9
 117398235.796 9  91479135.454 9  22340148.359 9  22340150.605 9
 131978759.248 9 102840557.783 9  25114748.451 9  25114756.763 9
 107164647.827 9  83504904.137 9  20392766.724 9  20392770.700 9
 127073232.460 9  99018069.620 9  24181257.737 9  24181266.024 9
 125865586.010 9  97895443.950 9  23587164.909 9  23587167.708 9
 117973357.057 9  91757043.179 9  22038423.582 9  22038426.632 9
 123297586.804 9  95898110.005 9  23024964.432 9  23024967.629 9
 106893938.421 9  83139727.583 9  20017802.677 9  20017803.352 9
 118917654.530 9  92491492.096 9  22308661.743 9  22308665.774 9
 116744418.282 9  90801203.008 9  21854807.583 9  21854810.113 9
 115483468.841 9  89820466.714 9  21633952.336 9  21633954.633 9
 106421634.531 9  82772378.292 9  19894404.752 9  19894405.710 9
 120224154.036 9  93507657.088 9  22482536.225 9  22482540.544 9
 18  9  7  1 26 30.0000000  0 20G01G03G06G11G17G18G19G22G24G28G30R02
                                R03R04R09R10R16R18R19R20
 114938190.981 9  89562194.594 9  21872034.705 9  21872042.555 9
 113298966.347 9  88284880.793 9  21560098.015 9  21560104.980 9
 120471400.856 9  93873785.298 9  22924970.042 9  22924978.058 9
 119425694.795 9  93058965.678 9  22725967.128 9  22725971.319 9
 112335180.654 9  87533889.333 9  21376688.138 9  21376692.647 9
 125649708.469 9  97908840.534 9  23910362.718 9  23910368.579 9
 118918244.496 9  92663553.923 9  22629399.061 9  22629402.166 9
 117417248.943 9  91493950.891 9  22343766.442 9  22343768.689 9
 131941403.951 9 102811449.796 9  25107639.947 9  25107648.249 9
 107176660.046 9  83514264.301 9  20395052.578 9  20395056.556 9
 127171423.530 9  99094582.108 9  24199942.902 9  24199951.198 9
 125924122.080 1  97940971.984 1  23598134.558 1  23598137.363 1
 117935654.198 9  91727718.750 9  22031380.359 9  22031383.404 9
 123183811.960 9  95809618.478 9  23003717.769 9  23003720.962 9
 106905043.342 9  83148364.737 9  20019882.277 9  20019882.954 9
 118822106.704 9  92417177.118 9  22290737.215 9  22290741.247 9
 116867418.715 9  90896869.968 9  21877833.554 9  21877836.095 9
 115558351.387 9  89878708.667 9  21647980.381 9  21647982.684 9
 106426377.560 9  82776067.320 9  19895291.408 9  19895292.364 9
 120151207.492 9  93450920.981 9  22468894.785 9  22468899.081 9
 18  9  7  1 27  0.0000000  0 20G01G03G06G11G17G18G19G22G24G28G30R02
                                R03R04R09R10R16R18R19R20
 115022779.874 9  89628107.997 9  21888131.452 9  21888139.306 9
 113264695.530 9  88258176.270 9  21553576.488 9  21553583.451 9
 120382850.220 9  93804784.835 9  22908119.391 9  22908127.400 9
 119514752.161 9  93128361.001 9  22742914.202 9  22742918.400 9
 112297623.502 9  87504624.032 9  21369541.241 9  21369545.746 9
 125757262.789 9  97992649.057 9  23930829.653 9  23930835.524 9
 118843281.357 9  92605141.124 9  22615134.022 9  22615137.119 9
 117436802.650 9  91509187.544 9  22347487.390 9  22347489.637 9
 131904540.260 9 102782724.848 9  25100625.015 9  25100633.316 9
 107189154.228 9  83524000.015 9  20397430.151 9  20397434.132 9
 127269625.336 9  99171102.961 9  24218630.110 9  24218638.415 9
 125983302.374 9  97987001.064 9  23609224.947 9  23609227.761 9
 117898649.116 9  91698937.028 9  22024467.492 9  22024470.536 9
 123070195.533 9  95721250.181 9  22982500.677 9  22982503.861 9
 106916976.742 9  83157646.275 9  20022117.016 9  20022117.692 9
 118727098.953 9  92343282.222 9  22272913.987 9  22272918.014 9
 116990704.247 9  90992758.715 9  21900912.864 9  21900915.405 9
 115633307.558 9  89937007.885 9  21662022.217 9  21662024.526 9
 106431403.246 9  82779976.192 9  19896230.903 9  19896231.858 9
 120078456.600 9  93394336.924 9  22455290.023 9  22455294.326 9
 18  9  7  1 27 30.0000000  0 20G01G03G06G11G17G18G19G22G24G28G30R02
                                R03R04R09R10R16R18R19R20
 115107599.565 9  89694201.256 9  21904272.107 9  21904279.964 9
 113230989.254 9  88231911.648 9  21547162.391 9  21547169.351 9
 120294550.463 9  93735979.862 9  22891316.482 9  22891324.483 9
 119603947.241 9  93197863.636 9  22759887.480 9  22759891.684 9
 112260216.343 9  87475475.594 9  21362422.897 9  21362427.403 9
 125864869.526 9  98076498.427 9  23951306.561 9  23951312.440 9
 118768446.247 9  92546828.073 9  22600893.358 9  22600896.449 9
 117456896.072 9  91524844.749 9  22351311.046 9  22351313.295 9
 131868168.646 9 102754383.318 9  25093703.737 9  25093712.041 9
 107202130.012 9  83534111.008 9  20399899.366 9  20399903.349 9
 127367834.386 9  99247629.426 9  24237318.722 9  24237327.043 9
 126043123.650 9  98033528.689 9  23620435.454 9  23620438.276 9
 117862343.823 9  91670699.570 9  22017685.364 9  22017688.410 9
 122956741.225 9  95633007.979 9  22961313.858 9  22961317.033 9
 106929737.691 9  83167571.436 9  20024506.748 9  20024507.429 9
 118632634.884 9  92269810.191 9  22255192.751 9  22255196.773 9
 117114269.956 9  91088865.322 9  21924044.664 9  21924047.219 9
 115708335.635 9  89995363.030 9  21676077.523 9  21676079.839 9
 106436710.072 9  82784103.732 9  19897222.952 9  19897223.904 9
 120005900.424 9  93337904.398 9  22441721.611 9  22441725.902 9
 18  9  7  1 28  0.0000000  0 20G01G03G06G11G17G18G19G22G24G28G30R02
                                R03R04R09R10R16R18R19R20
 115192647.966 9  89760472.732 9  21920456.284 9  21920464.142 9
 113197849.355 9  88206088.364 9  21540856.067 9  21540863.024 9
 120206502.958 9  93667371.444 9  22874561.578 9  22874569.572 9
 119693278.997 9  93267472.766 9  22776886.771 9  22776890.982 9
 112222959.713 9  87446444.465 9  21355333.187 9  21355337.691 9
 125972526.969 9  98160387.262 9  23971793.153 9  23971799.052 9
 118693740.056 9  92488615.489 9  22586677.218 9  22586680.301 9
 117477529.185 9  91540922.491 9  22355237.403 9  22355239.655 9
 131832290.536 9 102726426.325 9  25086876.378 9  25086884.688 9
 107215588.509 9  83544598.134 9  20402460.444 9  20402464.430 9
 127466047.978 9  99324159.410 9  24256008.214 9  24256016.556 9
 126103583.930 9  98080553.349 9  23631765.686 9  23631768.508 9
 117826741.057 9  91643008.570 9  22011034.439 9  22011037.475 9
 122843453.720 9  95544895.500 9  22940158.197 9  22940161.366 9
 106943325.548 9  83178139.749 9  20027051.332 9  20027052.017 9
 118538718.759 9  92196764.318 9  22237574.324 9  22237578.345 9
 117238111.949 9  91185186.814 9  21947228.188 9  21947230.757 9
 115783435.131 9  90053773.737 9  21690146.198 9  21690148.517 9
 106442296.969 9  82788449.093 9  19898267.365 9  19898268.319 9
 119933539.019 9  93281623.328 9  22428189.647 9  22428193.932 9
 18  9  7  1 28 30.0000000  0 20G01G03G06G11G17G18G19G22G24G28G30R02
                                R03R04R09R10R16R18R19R20
 115277922.262 9  89826920.219 9  21936683.455 9  21936691.317 9
 113165276.961 9  88180707.286 9  21534657.740 9  21534664.695 9
 120118708.372 9  93598960.097 9  22857854.810 9  22857862.799 9
 119782745.579 9  93337186.967 9  22793911.710 9  22793915.926 9
 112185853.691 9  87417530.697 9  21348272.135 9  21348276.634 9
 126080232.548 9  98244313.663 9  23992288.861 9  23992294.766 9
 118619163.220 9  92430503.697 9  22572485.696 9  22572488.773 9
 117498700.656 9  91557419.732 9  22359266.207 9  22359268.461 9
 131796906.457 9 102698854.352 9  25080142.984 9  25080151.285 9
 107229529.844 9  83555461.506 9  20405113.396 9  20405117.384 9
 127564262.868 9  99400690.467 9  24274697.905 9  24274706.254 9
 126164680.390 9  98128072.729 9  23643215.201 9  23643218.045 9
 117791842.842 9  91615865.479 9  22004515.185 9  22004518.229 9
 122730337.412 9  95456916.174 9  22919034.506 9  22919037.669 9
 106957739.607 9  83189350.681 9  20029750.624 9  20029751.310 9
 118445353.886 9  92124147.214 9  22220059.297 9  22220063.313 9
 117362225.462 9  91281719.528 9  21970462.511 9  21970465.084 9
 115858604.818 9  90112239.038 9  21704228.022 9  21704230.343 9
 106448162.545 9  82793011.215 9  19899363.868 9  19899364.819 9
 119861371.966 9  93225493.397 9  22414694.045 9  22414698.330 9
 18  9  7  1 29  0.0000000  0 20G01G03G06G11G17G18G19G22G24G28G30R02
                                R03R04R09R10R16R18R19R20
 115363421.608 9  89893543.080 9  21952953.444 9  21952961.307 9
 113133274.993 9  88155770.693 9  21528567.964 9  21528574.918 9
 120031169.221 9  93530747.794 9  22841196.646 9  22841204.630 9
 119872347.178 9  93407006.364 9  22810962.350 9  22810966.574 9
 112148900.148 9  87388735.736 9  21341240.103 9  21341244.601 9
 126187986.331 9  98328277.598 9  24012793.764 9  24012799.681 9
 118544717.369 9  92372493.960 9  22558319.109 9  22558322.181 9
 117520411.176 9  91574337.017 9  22363397.584 9  22363399.839 9
 131762018.446 9 102671668.891 9  25073504.014 9  25073512.315 9
 107243955.609 9  83566702.347 9  20407858.539 9  20407862.531 9
 127662477.600 9  99477221.391 9  24293387.575 9  24293395.932 9
 126226412.270 9  98176086.374 9  23654783.758 9  23654786.611 9
 117757652.795 9  91589273.249 9  21998128.175 9  21998131.213 9
 122617398.043 9  95369074.495 9  22897943.837 9  22897946.987 9
 106972980.415 9  83201204.632 9  20032604.745 9  20032605.435 9
 118352545.974 9  92051963.310 9  22202648.749 9  22202652.758 9
 117486607.770 9  91378461.274 9  21993747.177 9  21993749.761 9
 115933845.348 9  90170759.422 9  21718323.129 9  21718325.457 9
 106454307.243 9  82797790.444 9  19900512.540 9  19900513.487 9
 119789400.586 9  93169515.683 9  22401235.015 9  22401239.294 9
 18  9  7  1 29 30.0000000  0 20G01G03G06G11G17G18G19G22G24G28G30R02
                                R03R04R09R10R16R18R19R20
 115449140.364 9  89960336.898 9  21969265.195 9  21969273.062 9
 113101841.698 9  88131277.228 9  21522586.398 9  21522593.349 9
 119943883.262 9  93462732.784 9  22824586.663 9  22824594.641 9
 119962078.929 9  93476927.177 9  22828037.759 9  22828041.990 9
 112112096.347 9  87360057.454 9  21334236.570 9  21334241.066 9
 126295782.869 9  98412274.914 9  24033306.752 9  24033312.667 9
 118470399.991 9  92314584.335 9  22544176.967 9  22544180.034 9
 117542657.128 9  91591671.516 9  22367630.855 9  22367633.112 9
 131727624.063 9 102644868.063 9  25066958.988 9  25066967.291 9
 107258863.583 9  83578318.939 9  20410695.441 9  20410699.435 9
 127760685.944 9  99553747.291 9  24312076.063 9  24312084.441 9
 126288773.328 9  98224589.394 9  23666470.212 9  23666473.071 9
 117724169.861 9  91563230.982 9  21991873.271 9  21991876.305 9
 122504637.057 9  95281371.524 9  22876886.505 9  22876889.651 9
 106989044.033 9  83213698.529 9  20035612.966 9  20035613.662 9
 118260295.393 9  91980212.876 9  22185342.761 9  22185346.766 9
 117611251.168 9  91475406.093 9  22017080.716 9  22017083.312 9
 116009152.492 9  90229331.613 9  21732430.719 9  21732433.054 9
 106460726.702 9  82802783.356 9  19901712.590 9  19901713.537 9
 119717621.004 9  93113687.146 9  22387811.851 9  22387816.124 9
 18  9  7  1 30  0.0000000  0 20G01G03G06G11G17G18G19G22G24G28G30R02
                                R03R04R09R10R16R18R19R20
 115535079.708 9  90027302.613 9  21985618.914 9  21985626.783 9
 113070982.077 9  88107230.780 9  21516714.000 9  21516720.949 9
 119856855.074 9  93394918.630 9  22808025.736 9  22808033.709 9
 120051943.186 9  93546951.250 9  22845138.376 9  22845142.613 9
 112075446.391 9  87331499.058 9  21327262.306 9  21327266.800 9
 126403623.900 9  98496306.792 9  24053828.289 9  24053834.227 9
 118396215.126 9  92256777.971 9  22530060.038 9  22530063.100 9
 117565441.376 9  91609425.476 9  22371966.553 9  22371968.809 9
 131693727.924 9 102618455.517 9  25060508.745 9  25060517.041 9
 107274257.445 9  83590314.144 9  20413624.804 9  20413628.802 9
 127858888.663 9  99630268.837 9  24330763.460 9  24330771.850 9
 126351764.945 9  98273582.857 9  23678274.826 9  23678277.690 9
 117691400.113 9  91537743.414 9  21985751.597 9  21985754.627 9
 122392062.573 9  95193813.644 9  22855863.976 9  22855867.109 9
 107005933.187 9  83226834.529 9  20038775.768 9  20038776.466 9
 118168609.438 9  91908901.596 9  22168142.696 9  22168146.697 9
 117736155.142 9  91572553.574 9  22040463.042 9  22040465.651 9
 116084529.087 9  90287957.836 9  21746551.308 9  21746553.648 9
 106467423.292 9  82807991.815 9  19902964.447 9  19902965.394 9
 119646036.974 9  93058010.718 9  22374425.248 9  22374429.510 9
 18  9  7  1 30 30.0000000  0 20G01G03G06G11G17G18G19G22G24G28G30R02
                                R03R04R09R10R16R18R19R20
 115621236.377 9  90094437.673 9  22002013.988 9  22002021.859 9
 113040696.594 9  88083631.704 9  21510950.863 9  21510957.811 9
 119770084.698 9  93327305.373 9  22791513.865 9  22791521.833 9
 120141937.819 9  93617076.905 9  22862263.810 9  22862268.055 9
 112038949.579 9  87303059.984 9  21320317.194 9  21320321.688 9
 126511506.672 9  98580371.288 9  24074357.700 9  24074363.637 9
 118322162.594 9  92199074.703 9  22515968.307 9  22515971.368 9
 117588762.324 9  91627597.640 9  22376404.384 9  22376406.641 9
 131660329.818 9 102592431.016 9  25054153.299 9  25054161.595 9
 107290136.754 9  83602687.624 9  20416646.542 9  20416650.541 9
 127957081.920 9  99706782.996 9  24349449.066 9  24349457.473 9
 126415383.245 9  98323063.770 9  23690196.858 9  23690199.719 9
 117659345.009 9  91512811.684 9  21979763.421 9  21979766.447 9
 122279678.469 9  95106403.828 9  22834877.006 9  22834880.129 9
 107023646.065 9  83240611.207 9  20042092.825 9  20042093.524 9
 118077491.382 9  91838031.998 9  22151049.180 9  22151053.180 9
 117861314.583 9  91669899.744 9  22063893.197 9  22063895.821 9
 116159973.365 9  90346636.715 9  21760684.566 9  21760686.907 9
 106474394.752 9  82813414.051 9  19904267.696 9  19904268.645 9
 119574647.296 9  93002485.455 9  22361074.987 9  22361079.239 9
 18  9  7  1 31  0.0000000  0 20G01G03G06G11G17G18G19G22G24G28G30R02
                                R03R04R09R10R16R18R19R20
 115707607.001 9  90161739.445 9  22018449.781 9  22018457.655 9
 113010985.623 9  88060480.305 9  21505297.048 9  21505303.994 9
 119683572.189 9  93259893.049 9  22775051.066 9  22775059.029 9
 120232060.164 9  93687302.082 9  22879413.543 9  22879417.794 9
 112002605.272 9  87274739.747 9  21313401.100 9  21313405.594 9
 126619428.178 9  98664465.919 9  24094894.516 9  24094900.466 9
 118248241.987 9  92141474.251 9  22501901.668 9  22501904.723 9
 117612617.949 9  91646186.428 9  22380943.967 9  22380946.227 9
 131627429.520 9 102566794.408 9  25047892.590 9  25047900.889 9
 107306501.050 9  83615439.013 9  20419760.572 9  20419764.574 9
 128055261.754 9  99783286.679 9  24368132.130 9  24368140.558 9
 126479624.673 9  98373029.263 9  23702235.720 9  23702238.595 9
 117628005.425 9  91488436.447 9  21973908.927 9  21973911.955 9
 122167487.590 9  95019144.291 9  22813926.124 9  22813929.239 9
 107042180.827 9  83255027.127 9  20045563.795 9  20045564.495 9
 117986943.955 9  91767606.245 9  22134062.695 9  22134066.690 9
 117986724.163 9  91767440.512 9  22087370.146 9  22087372.773 9
 116235483.468 9  90405366.748 9  21774830.188 9  21774832.540 9
 106481639.687 9  82819048.994 9  19905622.065 9  19905623.016 9
 119503450.479 9  92947110.189 9  22347760.797 9  22347765.040 9
 18  9  7  1 31 30.0000000  0 20G01G03G06G11G17G18G19G22G24G28G30R02
                                R03R04R09R10R16R18R19R20
 115794190.408 9  90229207.021 9  22034926.066 9  22034933.944 9
 112981851.727 9  88037778.575 9  21499753.046 9  21499759.991 9
 119597319.685 9  93192683.319 9  22758637.750 9  22758645.710 9
 120322310.109 9  93757626.683 9  22896587.560 9  22896591.819 9
 111966415.316 9  87246539.781 9  21306514.381 9  21306518.874 9
 126727387.892 9  98748590.400 9  24115438.545 9  24115444.488 9
 118174454.775 9  92083977.725 9  22487860.426 9  22487863.481 9
 117637008.879 9  91665192.352 9  22385585.403 9  22385587.662 9
 131595028.747 9 102541547.068 9  25041726.916 9  25041735.211 9
 107323351.671 9  83628569.357 9  20422967.146 9  20422971.150 9
 128153426.521 9  99859778.639 9  24386812.314 9  24386820.758 9
 126544487.633 9  98423478.259 9  23714390.991 9  23714393.860 9
 117597384.730 9  91464620.377 9  21968188.705 9  21968191.726 9
 122055496.043 9  94932039.845 9  22793012.426 9  22793015.519 9
 107061537.741 9  83270082.485 9  20049188.737 9  20049189.443 9
 117896972.072 9  91697628.124 9  22117184.191 9  22117188.184 9
 118112380.578 9  91865173.214 9  22110893.338 9  22110895.982 9
 116311059.847 9  90464148.366 9  21788988.198 9  21788990.553 9
 106489157.740 9  82824896.377 9  19907027.479 9  19907028.428 9
 119432447.869 9  92891885.927 9  22334482.958 9  22334487.204 9
 18  9  7  1 32  0.0000000  0 20G01G03G06G11G17G18G19G22G24G28G30R02
                                R03R04R09R10R16R18R19R20
 115880981.363 9  90296836.318 9  22051441.850 9  22051449.732 9
 112953293.315 9  88015525.272 9  21494318.558 9  21494325.501 9
 119511325.263 9  93125674.708 9  22742273.533 9  22742281.486 9
 120412683.629 9  93828047.568 9  22913785.099 9  22913789.368 9
 111930377.279 9  87218458.197 9  21299656.568 9  21299661.061 9
 126835381.000 9  98832740.780 9  24135989.021 9  24135994.987 9
 118100798.934 9  92026583.591 9  22473844.164 9  22473847.212 9
 117661931.666 9  91684612.702 9  22390328.054 9  22390330.314 9
 131563125.629 9 102516687.516 9  25035655.939 9  25035664.229 9
 107340685.867 9  83642076.512 9  20426265.742 9  20426269.749 9
 128251570.349 9  99936254.347 9  24405488.465 9  24405496.910 9
 126609967.136 9  98474406.759 9  23726661.823 9  23726664.692 9
 117567482.313 9  91441362.966 9  21962602.664 9  21962605.680 9
 121943705.408 9  94845091.582 9  22772136.307 9  22772139.398 9
 107081712.801 9  83285774.200 9  20052966.877 9  20052967.581 9
 117807576.449 9  91628098.202 9  22100413.795 9  22100417.786 9
 118238277.123 9  91963092.717 9  22134461.459 9  22134464.110 9
 116386698.693 9  90522978.549 9  21803157.925 9  21803160.287 9
 106496945.340 9  82830953.413 9  19908483.279 9  19908484.225 9
 119361636.089 9  92836810.151 9  22321240.759 9  22321244.992 9
 18  9  7  1 32 30.0000000  0 20G01G03G06G11G17G18G19G22G24G28G30R02
                                R03R04R09R10R16R18R19R20
 115967980.717 9  90364628.010 9  22067997.286 9  22068005.171 9
 112925314.940 9  87993723.960 9  21488994.435 9  21489001.374 9
 119425593.051 9  93058870.417 9  22725959.213 9  22725967.159 9
 120503182.782 9  93898566.374 9  22931006.526 9  22931010.798 9
 111894494.684 9  87190497.733 9  21292828.338 9  21292832.830 9
 126943408.853 9  98916918.302 9  24156546.058 9  24156552.030 9
 118027277.957 9  91969294.539 9  22459853.572 9  22459856.615 9
 117687389.122 9  91704449.674 9  22395172.452 9  22395174.713 9
 131531724.134 9 102492218.796 9  25029680.450 9  25029688.746 9
 107358507.747 9  83655963.681 9  20429657.141 9  20429661.150 9
 128349693.623 9 100012713.947 9  24424160.775 9  24424169.242 9
 126676063.075 9  98525814.665 9  23739048.208 9  23739051.088 9
 117538303.485 9  91418668.310 9  21957151.823 9  21957154.841 9
 121832123.473 9  94758305.694 9  22751299.123 9  22751302.199 9
 107102708.199 9  83302103.937 9  20056898.653 9  20056899.362 9
 117718764.458 9  91559022.220 9  22083752.883 9  22083756.871 9
 118364412.164 9  92061197.710 9  22158074.232 9  22158076.892 9
 116462402.545 9  90581859.291 9  21817339.831 9  21817342.201 9
 106505004.267 9  82837221.468 9  19909989.810 9  19909990.755 9
 119291018.078 9  92781885.058 9  22308034.815 9  22308039.042 9
 18  9  7  1 33  0.0000000  0 20G01G03G06G11G17G18G19G22G24G28G30R02
                                R03R04R09R10R16R18R19R20
 116055186.079 9  90432580.224 9  22084591.926 9  22084599.815 9
 112897917.748 9  87972375.514 9  21483780.911 9  21483787.847 9
 119340123.975 9  92992271.160 9  22709694.972 9  22709702.911 9
 120593805.569 9  93969181.491 9  22948251.500 9  22948255.783 9
 111858768.062 9  87162658.812 9  21286029.783 9  21286034.275 9
 127051469.730 9  99001121.584 9  24177109.358 9  24177115.330 9
 117953892.473 9  91912111.061 9  22445888.766 9  22445891.805 9
 117713379.721 9  91724702.090 9  22400118.298 9  22400120.559 9
 131500824.669 9 102468141.316 9  25023800.458 9  25023808.748 9
 107376817.256 9  83670230.823 9  20433141.330 9  20433145.342 9
 128447793.320 9 100089155.187 9  24442828.588 9  24442837.076 9
 126742772.775 9  98577699.955 9  23751549.600 9  23751552.489 9
 117509850.091 9  91396537.929 9  21951836.463 9  21951839.472 9
 121720754.513 9  94671685.409 9  22730501.742 9  22730504.814 9
 107124522.831 9  83319070.872 9  20060983.833 9  20060984.542 9
 117630539.455 9  91490402.789 9  22067202.086 9  22067206.070 9
 118490781.854 9  92159485.220 9  22181730.922 9  22181733.589 9
 116538170.415 9  90640789.846 9  21831533.714 9  21831536.086 9
 106513333.624 9  82843699.829 9  19911546.915 9  19911547.868 9
 119220593.284 9  92727110.279 9  22294864.979 9  22294869.191 9
 18  9  7  1 33 30.0000000  0 20G01G03G06G11G17G18G19G22G24G28G30R02
                                R03R04R09R10R16R18R19R20
 116142594.889 9  90500690.974 9  22101225.278 9  22101233.170 9
 112871102.830 9  87951480.786 9  21478678.192 9  21478685.124 9
 119254918.818 9  92925877.550 9  22693480.955 9  22693488.890 9
 120684550.532 9  94039891.824 9  22965519.714 9  22965524.003 9
 111823197.694 9  87134941.643 9  21279260.967 9  21279265.458 9
 127159561.365 9  99085348.788 9  24197678.545 9  24197684.528 9
 117880642.987 9  91855033.557 9  22431949.839 9  22431952.874 9
 117739902.518 9  91745369.192 9  22405165.428 9  22405167.692 9
 131470427.834 9 102444455.459 9  25018016.142 9  25018024.434 9
 107395614.748 9  83684878.206 9  20436718.384 9  20436722.399 9
 128545866.487 9 100165575.830 9  24461491.297 9  24461499.785 9
 126810093.176 9  98630060.259 9  23764165.420 9  23764168.311 9
 117482124.187 9  91374973.361 9  21946657.013 9  21946660.017 9
 121609603.186 9  94585234.425 9  22709744.981 9  22709748.041 9
 107147155.443 9  83336674.003 9  20065222.203 9  20065222.915 9
 117542905.729 9  91422243.251 9  22050762.202 9  22050766.180 9
 118617381.390 9  92257951.475 9  22205430.658 9  22205433.338 9
 116614001.462 9  90699769.516 9  21845739.449 9  21845741.829 9
 106521932.028 9  82850387.485 9  19913154.290 9  19913155.240 9
 119150361.961 9  92672485.889 9  22281731.388 9  22281735.607 9
 18  9  7  1 34  0.0000000  0 20G01G03G06G11G17G18G19G22G24G28G30R02
                                R03R04R09R10R16R18R19R20
 116230202.945 9  90568956.973 9  22117896.551 9  22117904.447 9
 112844869.500 9  87931039.243 9  21473686.146 9  21473693.074 9
 119169976.549 9  92859688.793 9  22677316.961 9  22677324.890 9
 120775414.482 9  94110694.881 9  22982810.564 9  22982814.859 9
 111787782.088 9  87107345.072 9  21272521.597 9  21272526.087 9
 127267680.198 9  99169597.214 9  24218252.887 9  24218258.873 9
 117807528.020 9  91798060.866 9  22418036.516 9  22418039.548 9
 117766954.884 9  91766448.965 9  22410313.316 9  22410315.578 9
 131440532.813 9 102421160.636 9  25012327.309 9  25012335.602 9
 107414898.516 9  83699904.514 9  20440387.967 9  20440391.983 9
 128643908.290 9 100241971.983 9  24480148.074 9  24480156.577 9
 126878019.815 1  98682892.035 1  23776894.883 1  23776897.787 1
 117455125.318 9  91353974.266 9  21941613.379 9  21941616.377 9
 121498672.043 9  94498954.687 9  22689029.343 9  22689032.394 9
 107170602.680 9  83354910.731 9  20069613.126 9  20069613.841 9
 117455864.196 9  91354544.296 9  22034433.421 9  22034437.395 9
 118744204.671 9  92356591.788 9  22229172.255 9  22229174.938 9
 116689892.941 9  90758796.195 9  21859956.500 9  21859958.887 9
 106530796.751 9  82857282.278 9  19914811.450 9  19914812.399 9
 119080321.424 9  92618009.940 9  22268633.436 9  22268637.649 9
 18  9  7  1 34 30.0000000  0 20G01G03G06G11G17G18G19G22G24G28G30R02
                                R03R04R09R10R16R18R19R20
 116318010.282 9  90637378.261 9  22134605.742 9  22134613.642 9
 112819221.320 9  87911053.668 9  21468805.444 9  21468812.368 9
 119085300.418 9  92793707.434 9  22661203.597 9  22661211.516 9
 120866398.457 9  94181591.449 9  23000124.266 9  23000128.569 9
 111752524.316 9  87079871.487 9  21265812.264 9  21265816.753 9
 127375826.757 9  99253867.220 9  24238832.523 9  24238838.519 9
 117734550.960 9  91741195.645 9  22404149.428 9  22404152.454 9
 117794538.298 9  91787942.533 9  22415562.267 9  22415564.529 9
 131411142.078 9 102398258.764 9  25006734.439 9  25006742.732 9
 107434671.035 9  83715311.665 9  20444150.557 9  20444154.574 9
 128741918.317 9 100318343.379 9  24498798.803 9  24498807.319 9
 126946552.235 9  98736194.993 9  23789737.855 9  23789740.767 9
 117428858.023 9  91333544.168 9  21936706.413 9  21936709.406 9
 121387967.933 9  94412851.506 9  22668356.119 9  22668359.167 9
 107194865.867 9  83373782.087 9  20074156.850 9  20074157.568 9
 117369421.425 9  91287311.050 9  22018216.962 9  22018220.931 9
 118871249.944 9  92455404.672 9  22252955.475 9  22252958.183 9
 116765846.411 9  90817871.109 9  21874185.150 9  21874187.538 9
 106539928.593 9  82864384.816 9  19916518.556 9  19916519.506 9
 119010473.910 9  92563684.099 9  22255571.597 9  22255575.809 9
 18  9  7  1 35  0.0000000  0 20G01G03G06G11G17G18G19G22G24G28G30R02
                                R03R04R09R10R16R18R19R20
 116406014.488 9  90705952.953 9  22151352.396 9  22151360.299 9
 112794159.328 9  87891524.858 9  21464036.295 9  21464043.215 9
 119000891.267 9  92727934.082 9  22645141.060 9  22645148.976 9
 120957501.035 9  94252580.453 9  23017460.524 9  23017464.831 9
 111717424.316 9  87052520.842 9  21259132.952 9  21259137.441 9
 127483998.895 9  99338157.167 9  24259417.019 9  24259423.023 9
 117661711.800 9  91684437.872 9  22390288.586 9  22390291.609 9
 117822651.709 9  91809849.094 9  22420912.066 9  22420914.326 9
 131382256.059 9 102375750.202 9  25001237.594 9  25001245.881 9
 107454932.264 9  83731099.630 9  20448006.145 9  20448010.164 9
 128839893.445 9 100394687.570 9  24517442.899 9  24517451.430 9
 127015687.337 9  98789966.657 9  23802693.804 9  23802696.735 9
 117403323.964 9  91313684.354 9  21931936.429 9  21931939.419 9
 121277494.972 9  94326928.140 9  22647726.038 9  22647729.073 9
 107219943.434 9  83393286.854 9  20078853.078 9  20078853.797 9
 117283580.676 9  91220546.027 9  22002113.453 9  22002117.421 9
 118998512.633 9  92554386.736 9  22276779.337 9  22276782.052 9
 116841861.157 9  90876993.660 9  21888425.295 9  21888427.690 9
 106549326.401 9  82871694.235 9  19918275.368 9  19918276.314 9
 118940819.051 9  92509508.112 9  22242545.776 9  22242549.985 9
 18  9  7  1 35 30.0000000  0 20G01G03G06G11G17G18G19G22G24G28G30R02
                                R03R04R09R10R16R18R19R20
 116494211.222 9  90774677.667 9  22168135.687 9  22168143.593 9
 112769682.679 9  87872452.152 9  21459378.538 9  21459385.456 9
 118916747.992 9  92662367.906 9  22629129.118 9  22629137.031 9
 121048719.112 9  94323659.457 9  23034818.760 9  23034823.071 9
 111682480.820 9  87025292.145 9  21252483.425 9  21252487.913 9
 127592192.948 9  99422464.235 9  24280005.653 9  24280011.653 9
 117589009.270 9  91627786.561 9  22376453.746 9  22376456.767 9
 117851292.389 9  91832166.499 9  22426362.212 9  22426364.474 9
 131353873.334 9 102353633.803 9  24995836.533 9  24995844.818 9
 107475680.460 9  83747267.046 9  20451954.403 9  20451958.424 9
 128937828.918 9 100471000.878 9  24536079.435 9  24536087.979 9
 127085420.427 9  98844203.485 9  23815761.769 9  23815764.706 9
 117378523.022 9  91294394.755 9  21927303.388 9  21927306.373 9
 121167256.151 9  94241186.875 9  22627139.686 9  22627142.712 9
 107245832.275 9  83413422.605 9  20083701.237 9  20083701.960 9
 117198343.917 9  91154250.784 9  21986123.243 9  21986127.208 9
 119125986.556 9  92653533.079 9  22300642.753 9  22300645.479 9
 116917934.292 9  90936161.637 9  21902676.369 9  21902678.769 9
 106558987.435 9  82879208.379 9  19920081.391 9  19920082.336 9
 118871354.624 9  92455480.253 9  22229555.557 9  22229559.759 9
 18  9  7  1 36  0.0000000  0 20G01G03G06G11G17G18G19G22G24G28G30R02
                                R03R04R09R10R16R18R19R20
 116582598.981 9  90843551.234 9  22184955.327 9  22184963.236 9
 112745793.248 9  87853837.031 9  21454832.515 9  21454839.428 9
 118832872.225 9  92597010.172 9  22613168.086 9  22613175.997 9
 121140051.840 9  94394827.793 9  23052198.818 9  23052203.135 9
 111647695.089 9  86998186.381 9  21245863.921 9  21245868.408 9
 127700408.050 9  99506787.630 9  24300598.348 9  24300604.363 9
 117516444.698 9  91571242.757 9  22362645.153 9  22362648.169 9
 117880459.958 9  91854894.483 9  22431912.609 9  22431914.870 9
 131325995.239 9 102331910.586 9  24990531.528 9  24990539.819 9
 107496917.198 9  83763815.150 9  20455995.622 9  20455999.644 9
 129035722.522 9 100547281.545 9  24554708.017 9  24554716.575 9
 127155749.065 9  98898903.500 9  23828941.353 9  23828944.298 9
 117354458.207 9  91275677.691 9  21922807.868 9  21922810.849 9
 121057256.993 9  94155632.009 9  22606598.094 9  22606601.111 9
 107272531.457 9  83434188.645 9  20088701.129 9  20088701.849 9
 117113715.111 9  91088428.394 9  21970247.084 9  21970251.045 9
 119253668.332 9  92752841.061 9  22324545.098 9  22324547.839 9
 116994065.941 9  90995375.109 9  21916938.417 9  21916940.824 9
 106568911.634 9  82886927.195 9  19921936.620 9  19921937.566 9
 118802080.915 9  92401600.751 9  22216600.988 9  22216605.178 9
 18  9  7  1 36 30.0000000  0 20G01G03G06G11G17G18G19G22G24G28G30R02
                                R03R04R09R10R16R18R19R20
 116671176.176 9  90912572.398 9  22201811.027 9  22201818.943 9
 112722492.930 9  87835680.945 9  21450398.607 9  21450405.519 9
 118749265.696 9  92531862.233 9  22597258.288 9  22597266.198 9
 121231498.953 9  94466085.259 9  23069600.643 9  23069604.967 9
 111613068.350 9  86971204.511 9  21239274.668 9  21239279.154 9
 127808643.128 9  99591126.654 9  24321194.797 9  24321200.811 9
 117444019.629 9  91514807.652 9  22348863.110 9  22348866.123 9
 117910154.043 9  91878032.729 9  22437563.208 9  22437565.469 9
 131298624.033 9 102310582.362 9  24985322.969 9  24985331.263 9
 107518643.286 9  83780744.558 9  20460129.968 9  20460133.992 9
 129133572.509 9 100623528.281 9  24573328.256 9  24573336.816 9
 127226671.488 9  98954065.327 9  23842232.227 9  23842235.186 9
 117331131.582 9  91257534.781 9  21918450.243 9  21918453.220 9
 120947502.126 9  94070267.179 9  22586102.097 9  22586105.099 9
 107300040.776 9  83455584.776 9  20093852.745 9  20093853.467 9
 117029699.001 9  91023082.521 9  21954485.883 9  21954489.847 9
 119381554.434 9  92852308.008 9  22348485.660 9  22348488.407 9
 117070256.158 9  91054634.134 9  21931211.436 9  21931213.851 9
 106579098.611 9  82894850.395 9  19923840.971 9  19923841.918 9
 118732998.784 9  92347870.192 9  22203682.290 9  22203686.483 9
 18  9  7  1 37  0.0000000  0 20G01G03G06G11G17G18G19G22G24G28G30R02
                                R03R04R09R10R16R18R19R20
 116759940.403 9  90981739.319 9  22218702.305 9  22218710.223 9
 112699782.565 9  87817984.567 9  21446076.961 9  21446083.870 9
 118665929.005 9  92466924.569 9  22581399.830 9  22581407.736 9
 121323058.740 9  94537430.519 9  23087023.913 9  23087028.243 9
 111578601.025 9  86944346.855 9  21232715.754 9  21232720.241 9
 127916896.204 9  99675479.638 9  24341794.719 9  24341800.749 9
 117371734.128 9  91458481.298 9  22335107.629 9  22335110.639 9
 117940373.719 9  91901580.530 9  22443313.820 9  22443316.080 9
 131271758.744 9 102289648.386 9  24980210.663 9  24980218.953 9
 107540858.258 9  83798054.926 9  20464357.336 9  20464361.361 9
 129231375.639 9 100699738.430 9  24591939.634 9  24591948.215 9
 127298184.531 9  99009686.489 9  23855633.809 9  23855636.791 9
 117308544.612 9  91239967.193 9  21914230.767 9  21914233.730 9
 120837996.258 9  93985095.977 9  22565652.628 9  22565655.622 9
 107328358.396 9  83477609.578 9  20099155.735 9  20099156.461 9
 116946299.076 9  90958215.916 9  21938840.267 9  21938844.230 9
 119509640.054 9  92951930.121 9  22372463.583 9  22372466.338 9
 117146504.028 9  91113938.003 9  21945495.253 9  21945497.676 9
 106589547.168 9  82902977.054 9  19925794.216 9  19925795.162 9
 118664107.545 9  92294288.162 9  22190799.248 9  22190803.431 9
 18  9  7  1 37 30.0000000  0 20G01G03G06G11G17G18G19G22G24G28G30R02
                                R03R04R09R10R16R18R19R20
 116848889.523 9  91051050.298 9  22235628.777 9  22235636.701 9
 112677663.370 9  87800748.835 9  21441867.815 9  21441874.723 9
 118582863.235 9  92402197.997 9  22565592.938 9  22565600.843 9
 121414730.142 9  94608862.753 9  23104468.421 9  23104472.758 9
 111544293.742 9  86917613.910 9  21226187.293 9  21226191.779 9
 128025165.836 9  99759845.512 9  24362397.801 9  24362403.848 9
 117299589.124 9  91402264.423 9  22321378.883 9  22321381.890 9
 117971118.334 9  91925537.368 9  22449164.329 9  22449166.591 9
 131245400.453 9 102269109.415 9  24975194.880 9  24975203.180 9
 107563562.626 9  83815746.629 9  20468677.843 9  20468681.871 9
 129329129.201 9 100775910.003 9  24610541.544 9  24610550.133 9
 127370285.177 9  99065764.721 9  23869145.474 9  23869148.468 9
 117286699.289 9  91222976.370 9  21910149.889 9  21910152.856 9
 120728744.327 9  93900122.253 9  22545250.600 9  22545253.595 9
 107357482.860 9  83500261.911 9  20104609.832 9  20104610.564 9
 116863519.006 9  90893831.429 9  21923310.927 9  21923314.887 9
 119637921.517 9  93051704.551 9  22396478.173 9  22396480.937 9
 117222809.069 9  91173286.333 9  21959789.785 9  21959792.216 9
 106600256.335 9  82911306.413 9  19927796.176 9  19927797.121 9
 118595407.000 9  92240854.452 9  22177951.865 9  22177956.036 9
 18  9  7  1 38  0.0000000  0 20G01G03G06G11G17G18G19G22G24G28G30R02
                                R03R04R09R10R16R18R19R20
 116938021.701 9  91120503.928 9  22252590.078 9  22252598.006 9
 112656136.793 9  87783974.890 9  21437771.435 9  21437778.341 9
 118500069.688 9  92337683.552 9  22549837.844 9  22549845.748 9
 121506512.321 9  94680381.318 9  23121934.001 9  23121938.342 9
 111510147.621 9  86891006.549 9  21219689.498 9  21219693.982 9
 128133450.503 9  99844223.146 9  24383003.709 9  24383009.763 9
 117227585.917 9  91346158.044 9  22307677.116 9  22307680.120 9
 118002387.256 9  91949902.762 9  22455114.607 9  22455116.869 9
 131219550.212 9 102248966.395 9  24970275.724 9  24970284.018 9
 107586757.061 9  83833820.205 9  20473091.605 9  20473095.635 9
 129426830.949 9 100852041.182 9  24629133.609 9  24629142.211 9
 127442970.791 9  99122298.012 9  23882766.701 9  23882769.686 9
 117265597.793 9  91206564.113 9  21906207.939 9  21906210.902 9
 120619750.972 9  93815349.703 9  22524896.816 9  22524899.797 9
 107387413.383 9  83523541.211 9  20110214.855 9  20110215.586 9
 116781363.027 9  90829932.358 9  21907898.657 9  21907902.612 9
 119766394.940 9  93151628.232 9  22420528.735 9  22420531.522 9
 117299171.006 9  91232678.934 9  21974094.961 9  21974097.396 9
 106611225.359 9  82919837.868 9  19929846.726 9  19929847.672 9
 118526897.775 9  92187569.480 9  22165140.309 9  22165144.484 9
 18  9  7  1 38 30.0000000  0 20G01G03G06G11G17G18G19G22G24G28G30R02
                                R03R04R09R10R16R18R19R20
 117027335.214 9  91190098.859 9  22269585.885 9  22269593.816 9
 112635204.424 9  87767663.961 9  21433788.131 9  21433795.035 9
 118417549.776 9  92273382.323 9  22534134.826 9  22534142.729 9
 121598404.591 9  94751985.639 9  23139420.553 9  23139424.905 9
 111476163.470 9  86864525.399 9  21213222.524 9  21213227.007 9
 128241749.139 9  99928611.667 9  24403612.274 9  24403618.335 9
 117155725.531 9  91290162.953 9  22294002.528 9  22294005.528 9
 118034179.983 9  91974676.318 9  22461164.560 9  22461166.821 9
 131194209.285 9 102229220.220 9  24965453.504 9  24965461.798 9
 107610442.075 9  83852276.045 9  20477598.724 9  20477602.758 9
 129524478.600 9 100928130.183 9  24647715.398 9  24647724.018 9
 127516239.484 9  99179284.768 9  23896497.226 9  23896500.212 9
 117245242.197 9  91190732.022 9  21902405.314 9  21902408.267 9
 120511021.684 9  93730782.513 9  22504592.364 9  22504595.336 9
 107418148.689 9  83547446.441 9  20115970.596 9  20115971.329 9
 116699834.588 9  90766521.343 9  21892604.135 9  21892608.091 9
 119895056.587 9  93251698.402 9  22444614.465 9  22444617.252 9
 117375589.750 9  91292115.698 9  21988410.794 9  21988413.238 9
 106622454.518 9  82928571.651 9  19931945.904 9  19931946.852 9
 118458579.640 9  92134433.197 9  22152364.440 9  22152368.606 9
 18  9  7  1 39  0.0000000  0 20G01G03G06G11G17G18G19G22G24G28G30R02
                                R03R04R09R10R16R18R19R20
 117116827.142 9  91259832.805 9  22286615.651 9  22286623.588 9
 112614866.533 9  87751816.259 9  21429917.956 9  21429924.858 9
 118335303.692 9  92209294.479 9  22518483.906 9  22518491.806 9
 121690405.045 9  94823674.275 9  23156927.680 9  23156932.039 9
 111442341.305 9  86838170.465 9  21206786.380 9  21206790.863 9
 128350059.322 9 100013009.177 9  24424223.043 9  24424229.113 9
 117084008.093 9  91234279.260 9  22280355.134 9  22280358.128 9
 118066494.677 9  91999856.594 9  22467313.845 9  22467316.108 9
 131169376.931 9 102209870.345 9  24960728.056 9  24960736.347 9
 107634616.936 9  83871113.589 9  20482199.055 9  20482203.091 9
 129622068.679 9 101004174.323 9  24666286.231 9  24666294.870 9
 127590086.935 9  99236721.635 9  23910336.235 9  23910339.231 9
 117225633.694 9  91175480.977 9  21898742.271 9  21898745.222 9
 120402560.260 9  93646423.699 9  22484337.905 9  22484340.860 9
 107449686.516 9  83571975.856 9  20121876.622 9  20121877.356 9
 116618937.248 9  90703601.197 9  21877427.994 9  21877431.948 9
 120023901.800 9  93351911.271 9  22468734.614 9  22468737.419 9
 117452063.990 9  91351595.632 9  22002737.019 9  22002739.470 9
 106633940.770 9  82937505.409 9  19934093.133 9  19934094.080 9
 118390451.922 9  92081444.984 9  22139624.205 9  22139628.367 9
 18  9  7  1 39 30.0000000  0 20G01G03G06G11G17G18G19G22G24G28G30R02
                                R03R04R09R10R16R18R19R20
 117206495.093 9  91329703.914 9  22303678.911 9  22303686.853 9
 112595123.852 9  87736432.354 9  21426161.047 9  21426167.949 9
 118253332.023 9  92145420.464 9  22502885.207 9  22502893.104 9
 121782512.080 9  94895445.967 9  23174455.083 9  23174459.448 9
 111408681.450 9  86811942.012 9  21200381.118 9  21200385.600 9
 128458379.114 9 100097414.247 9  24444835.586 9  24444841.647 9
 117012433.919 9  91178507.194 9  22266735.009 9  22266737.998 9
 118099329.867 9  92025442.458 9  22473562.173 9  22473564.435 9
 131145053.753 9 102190917.204 9  24956099.520 9  24956107.816 9
 107659281.953 9  83890333.077 9  20486892.656 9  20486896.694 9
 129719598.178 9 101080171.314 9  24684845.493 9  24684854.138 9
 127664510.013 9  99294606.210 9  23924283.118 9  23924286.124 9
 117206773.476 9  91160811.920 9  21895219.023 9  21895221.973 9
 120294370.781 9  93562276.337 9  22464134.275 9  22464137.228 9
 107482025.059 9  83597128.057 9  20127932.592 9  20127933.326 9
 116538674.040 9  90641174.263 9  21862370.816 9  21862374.769 9
 120152925.783 9  93452263.229 9  22492888.195 9  22492891.007 9
 117528592.801 9  91411118.029 9  22017073.452 9  22017075.906 9
 106645684.058 9  82946639.089 9  19936288.408 9  19936289.352 9
 118322513.904 9  92028604.354 9  22126919.416 9  22126923.566 9
 18  9  7  1 40  0.0000000  0 20G01G03G06G11G17G18G19G22G24G28G30R02
                                R03R04R09R10R16R18R19R20
 117296335.048 9  91399709.056 9  22320774.899 9  22320782.846 9
 112575975.594 9  87721511.630 9  21422517.257 9  21422524.160 9
 118171633.941 9  92081759.652 9  22487338.555 9  22487346.444 9
 121874722.649 9  94967298.320 9  23192002.200 9  23192006.575 9
 111375182.780 9  86785839.159 9  21194006.528 9  21194011.008 9
 128566705.250 9 100181824.140 9  24465449.427 9  24465455.508 9
 116941001.604 9  91122845.660 9  22253141.883 9  22253144.871 9
 118132683.174 9  92051432.053 9  22479909.092 9  22479911.353 9
 131121238.493 9 102172359.859 9  24951567.627 9  24951575.922 9
 107684435.581 9  83909933.298 9  20491679.239 9  20491683.278 9
 129817062.609 9 101156117.560 9  24703392.406 9  24703401.066 9
 127739504.165 1  99352934.988 1  23938336.995 1  23938340.002 1
 117188660.539 9  91146724.109 9  21891835.353 9  21891838.296 9
 120186456.496 9  93478343.017 9  22443982.034 9  22443984.984 9
 107515160.792 9  83622900.285 9  20134137.856 9  20134138.593 9
 116459047.067 9  90579242.174 9  21847432.998 9  21847436.951 9
 120282122.696 9  93552749.683 9  22517074.153 9  22517076.973 9
 117605173.896 9  91470681.077 9  22031419.691 9  22031422.151 9
 106657681.491 9  82955970.381 9  19938531.234 9  19938532.190 9
 118254763.719 9  91975909.791 9  22114249.771 9  22114253.915 9
 18  9  7  1 40 30.0000000  0 20G01G03G06G11G17G18G19G22G24G28G30R02
                                R03R04R09R10R16R18R19R20
 117386347.111 9  91469848.312 9  22337903.636 9  22337911.586 9
 112557424.933 9  87707056.579 9  21418987.176 9  21418994.077 9
 118090212.543 9  92018314.427 9  22471844.563 9  22471852.447 9
 121967038.036 9  95039232.360 9  23209569.255 9  23209573.637 9
 111341847.950 9  86759863.977 9  21187663.113 9  21187667.591 9
 128675038.243 9 100266239.417 9  24486064.542 9  24486070.633 9
 116869714.679 9  91067297.429 9  22239576.416 9  22239579.398 9
 118166555.609 9  92077826.154 9  22486354.806 9  22486357.067 9
 131097933.304 9 102154199.953 9  24947132.811 9  24947141.110 9
 107710079.899 9  83929915.873 9  20496559.198 9  20496563.240 9
 129914461.529 9 101232012.780 9  24721926.836 9  24721935.507 9
 127815068.723 9  99411707.433 9  23952497.753 9  23952500.757 9
 117171299.808 9  91133221.317 9  21888592.223 9  21888595.167 9
 120078824.085 9  93394628.983 9  22423882.394 9  22423885.328 9
 107549094.283 9  83649293.000 9  20140492.509 9  20140493.246 9
 116380061.571 9  90517809.014 9  21832615.517 9  21832619.469 9
 120411490.711 9  93653369.211 9  22541292.146 9  22541294.975 9
 117681808.911 9  91530286.056 9  22045776.036 9  22045778.504 9
 106669934.335 9  82965500.390 9  19940821.760 9  19940822.711 9
 118187203.699 9  91923363.121 9  22101615.697 9  22101619.838 9
 18  9  7  1 41  0.0000000  0 20G01G03G06G11G17G18G19G22G24G28G30R02
                                R03R04R09R10R16R18R19R20
 117476528.835 9  91540119.763 9  22355064.664 9  22355072.619 9
 112539472.582 9  87693067.740 9  21415570.953 9  21415577.852 9
 118009068.474 9  91955085.312 9  22456403.338 9  22456411.215 9
 122059456.638 9  95111246.833 9  23227155.947 9  23227160.334 9
 111308677.688 9  86734017.019 9  21181351.023 9  21181355.501 9
 128783376.233 9 100350658.582 9  24506680.613 9  24506686.715 9
 116798573.183 9  91011862.513 9  22226038.627 9  22226041.605 9
 118200945.927 9  92104623.805 9  22492899.065 9  22492901.327 9
 131075138.818 9 102136438.028 9  24942795.155 9  24942803.452 9
 107736214.665 9  83950280.617 9  20501532.485 9  20501536.530 9
 130011791.927 9 101307854.602 9  24740448.230 9  24740456.912 9
 127891200.270 9  99470920.788 9  23966764.824 9  23966767.845 9
 117154691.963 9  91120304.127 9  21885489.722 9  21885492.660 9
 119971477.847 9  93311137.477 9  22403836.232 9  22403839.163 9
 107583823.585 9  83676304.671 9  20146996.198 9  20146996.936 9
 116301721.389 9  90456877.757 9  21817919.102 9  21817923.055 9
 120541024.968 9  93754118.032 9  22565541.264 9  22565544.104 9
 117758497.073 9  91589932.395 9  22060142.320 9  22060144.790 9
 106682441.286 9  82975228.026 9  19943159.797 9  19943160.746 9
 118119833.024 9  91870963.713 9  22089017.037 9  22089021.177 9
 18  9  7  1 41 30.0000000  0 20G01G03G06G11G17G18G19G22G24G28G30R02
                                R03R04R09R10R16R18R19R20
 117566879.298 9  91610522.707 9  22372257.796 9  22372265.755 9
 112522120.646 9  87679546.756 9  21412268.985 9  21412275.883 9
 117928203.739 9  91892073.860 9  22441015.268 9  22441023.138 9
 122151978.486 9  95183341.734 9  23244762.304 9  23244766.702 9
 111275673.591 9  86708299.543 9  21175070.550 9  21175075.028 9
 128891718.705 9 100435081.223 9  24527297.548 9  24527303.667 9
 116727579.395 9  90956542.683 9  22212528.955 9  22212531.932 9
 118235854.098 9  92131824.980 9  22499541.867 9  22499544.128 9
 131052856.790 9 102119075.391 9  24938555.040 9  24938563.340 9
 107762841.283 9  83971028.617 9  20506599.373 9  20506603.421 9
 130109052.401 9 101383641.909 9  24758956.340 9  24758965.040 9
 127967896.662 1  99530573.562 1  23981137.676 1  23981140.691 1
 117138839.863 9  91107974.737 9  21882528.401 9  21882531.334 9
 119864424.063 9  93227873.462 9  22383844.664 9  22383847.586 9
 107619348.077 9  83703934.828 9  20153648.797 9  20153649.536 9
 116224030.754 9  90396451.735 9  21803344.516 9  21803348.462 9
 120670723.350 9  93854994.476 9  22589821.129 9  22589823.987 9
 117835239.054 9  91649620.573 9  22074518.700 9  22074521.178 9
 106695203.060 9  82985153.850 9  19945545.476 9  19945546.425 9
 118052652.604 9  91818712.327 9  22076453.922 9  22076458.049 9
 18  9  7  1 42  0.0000000  0 20G01G03G06G11G17G18G19G22G24G28G30R02
                                R03R04R09R10R16R18R19R20
 117657392.451 9  91681052.422 9  22389481.888 9  22389489.850 9
 112505366.046 9  87666491.231 9  21409080.685 9  21409087.581 9
 117847615.333 9  91829277.721 9  22425679.788 9  22425687.652 9
 122244598.509 9  95255513.165 9  23262387.320 9  23262391.721 9
 111242832.296 9  86682708.925 9  21168821.059 9  21168825.535 9
 129000060.507 9 100519503.370 9  24547914.335 9  24547920.462 9
 116656729.817 9  90901335.234 9  22199046.718 9  22199049.691 9
 118271275.057 9  92159425.731 9  22506282.249 9  22506284.509 9
 131031083.066 9 102102108.842 9  24934411.646 9  24934419.949 9
 107789955.660 9  83992156.690 9  20511759.077 9  20511763.128 9
 130206236.279 9 101459369.567 9  24777449.847 9  24777458.557 9
 128045151.115 9  99590660.308 9  23995615.165 9  23995618.192 9
 117123740.429 9  91096230.726 9  21879707.705 9  21879710.639 9
 119757662.713 9  93144836.893 9  22363907.708 9  22363910.621 9
 107655662.109 9  83732179.072 9  20160449.251 9  20160449.990 9
 116146989.387 9  90336530.672 9  21788891.752 9  21788895.698 9
 120800577.178 9  93955991.867 9  22614130.060 9  22614132.926 9
 117912030.336 9  91709347.119 9  22088904.300 9  22088906.779 9
 106708213.801 9  82995273.309 9  19947977.702 9  19947978.652 9
 117985658.597 9  91766605.893 9  22063925.693 9  22063929.816 9
 18  9  7  1 42 30.0000000  0 20G01G03G06G11G17G18G19G22G24G28G30R02
                                R03R04R09R10R16R18R19R20
 117748070.057 9  91751710.277 9  22406737.277 9  22406745.244 9
 112489213.542 9  87653904.876 9  21406006.957 9  21406013.850 9
 117767307.942 9  91766700.557 9  22410397.782 9  22410405.640 9
 122337319.524 9  95327763.254 9  23280031.582 9  23280035.996 9
 111210158.372 9  86657248.727 9  21162603.416 9  21162607.892 9
 129108403.736 9 100603926.662 9  24568531.369 9  24568537.497 9
 116586029.240 9  90846243.888 9  22185592.836 9  22185595.806 9
 118307211.922 9  92187428.473 9  22513120.814 9  22513123.077 9
 131009822.254 9 102085542.024 9  24930365.811 9  24930374.103 9
 107817562.172 9  84013668.251 9  20517012.427 9  20517016.479 9
 130303344.817 9 101535038.516 9  24795929.018 9  24795937.739 9
 128122964.248 1  99651181.497 1  24010197.413 1  24010200.473 1
 117109399.716 9  91085076.866 9  21877028.718 9  21877031.646 9
 119651202.917 9  93062034.859 9  22344027.071 9  22344029.977 9
 107692767.629 9  83761038.912 9  20167397.929 9  20167398.671 9
 116070604.632 9  90277120.314 9  21774562.161 9  21774566.105 9
 120930586.285 9  94057110.022 9  22638468.067 9  22638470.942 9
 117988874.314 9  91769114.668 9  22103299.759 9  22103302.235 9
 106721477.240 9  83005589.341 9  19950457.144 9  19950458.089 9
 117918854.316 9  91714646.999 9  22051432.962 9  22051437.087 9
 18  9  7  1 43  0.0000000  0 20G01G03G06G11G17G18G19G22G24G28G30R02
                                R03R04R09R10R16R18R19R20
 117838908.954 9  91822493.814 9  22424023.359 9  22424031.331 9
 112473662.934 9  87641787.522 9  21403047.773 9  21403054.665 9
 117687281.442 9  91704342.277 9  22395169.221 9  22395177.072 9
 122430139.457 9  95400090.449 9  23297694.647 9  23297699.068 9
 111177651.141 9  86631918.420 9  21156417.493 9  21156421.969 9
 129216745.667 9 100688348.919 9  24589148.173 9  24589154.307 9
 116515477.422 9  90791268.460 9  22172167.260 9  22172170.227 9
 118343662.330 9  92215831.395 9  22520057.091 9  22520059.352 9
 130989073.673 9 102069374.300 9  24926417.486 9  24926425.778 9
 107845659.349 9  84035562.141 9  20522359.152 9  20522363.208 9
 130400374.323 9 101610645.834 9  24814393.187 9  24814401.929 9
 128201332.042 9  99712134.218 9  24024883.509 9  24024886.572 9
 117095817.421 9  91074512.827 9  21874491.455 9  21874494.390 9
 119545048.025 9  92979469.976 9  22324203.369 9  22324206.267 9
 107730661.857 9  83790512.192 9  20174494.307 9  20174495.051 9
 115994878.884 9  90218222.513 9  21760356.201 9  21760360.145 9
 121060745.712 9  94158345.070 9  22662834.230 9  22662837.120 9
 118065769.489 9  91828921.982 9  22117704.849 9  22117707.336 9
 106734991.738 9  83016100.583 9  19952983.562 9  19952984.515 9
 117852238.996 9  91662835.112 9  22038975.540 9  22038979.659 9
 18  9  7  1 43 30.0000000  0 20G01G03G06G11G17G18G19G22G24G28G30R02
                                R03R04R09R10R16R18R19R20
 117929905.427 9  91893400.145 9  22441339.421 9  22441347.396 9
 112458713.461 9  87630138.595 9  21400202.973 9  21400209.862 9
 117607535.099 9  91642202.294 9  22379993.978 9  22380001.823 9
 122523055.425 9  95472492.475 9  23315375.988 9  23315380.416 9
 111145310.250 9  86606717.728 9  21150263.225 9  21150267.699 9
 129325083.600 9 100772767.975 9  24609764.281 9  24609770.443 9
 116445073.242 9  90736408.067 9  22158769.785 9  22158772.750 9
 118380623.655 9  92244632.442 9  22527090.586 9  22527092.844 9
 130968836.148 9 102053604.750 9  24922566.451 9  24922574.755 9
 107874246.028 9  84057837.469 9  20527799.021 9  20527803.079 9
 130497320.445 9 101686188.221 9  24832841.455 9  24832850.208 9
 128280249.798 9  99773514.697 9  24039672.661 9  24039675.723 9
 117082993.595 9  91064538.762 9  21872095.840 9  21872098.771 9
 119439201.279 9  92897144.805 9  22304437.180 9  22304440.060 9
 107769341.273 9  83820596.162 9  20181737.734 9  20181738.483 9
 115919814.009 9  90159838.720 9  21746274.222 9  21746278.167 9
 121191049.575 9  94259692.455 9  22687227.433 9  22687230.339 9
 118142713.683 9  91888767.423 9  22132119.121 9  22132121.619 9
 106748754.461 9  83026804.912 9  19955556.366 9  19955557.322 9
 117785810.238 9  91611168.332 9  22026553.004 9  22026557.115 9
 18  9  7  1 44  0.0000000  0 20G01G03G06G11G17G18G19G22G24G28G30R02
                                R03R04R09R10R16R18R19R20
 118021059.061 9  91964428.934 9  22458685.393 9  22458693.372 9
 112444367.525 9  87618959.950 9  21397473.027 9  21397479.915 9
 117528071.361 9  91580282.527 9  22364872.510 9  22364880.348 9
 122616067.887 9  95544969.660 9  23333075.715 9  23333080.157 9
 111113138.222 9  86581648.619 9  21144141.088 9  21144145.562 9
 129433417.141 9 100857183.643 9  24630379.527 9  24630385.709 9
 116374819.458 9  90681664.881 9  22145400.917 9  22145403.877 9
 118418096.252 9  92273831.866 9  22534221.386 9  22534223.644 9
 130949111.286 9 102038234.783 9  24918812.893 9  24918821.183 9
 107903323.472 9  84080495.211 9  20533332.280 9  20533336.339 9
 130594182.293 9 101761664.907 9  24851273.711 9  24851282.484 9
 128359715.789 9  99835321.533 9  24054564.587 9  24054567.660 9
 117070931.214 9  91055156.919 9  21869842.480 9  21869845.408 9
 119333668.751 9  92815063.971 9  22284729.709 9  22284732.584 9
 107808805.317 9  83851290.415 9  20189128.084 9  20189128.834 9
 115845415.198 9  90101972.994 9  21732317.183 9  21732321.123 9
 121321495.406 9  94361150.292 9  22711647.190 9  22711650.103 9
 118219708.204 9  91948652.033 9  22146542.803 9  22146545.304 9
 106762766.221 9  83037702.970 9  19958175.700 9  19958176.650 9
 117719570.117 9  91559648.276 9  22014165.739 9  22014169.841 9
 18  9  7  1 44 30.0000000  0 20G01G03G06G11G17G18G19G22G24G28G30R02
                                R03R04R09R10R16R18R19R20
 118112367.132 9  92035578.057 9  22476060.759 9  22476068.743 9
 112430625.256 9  87608251.692 9  21394857.958 9  21394864.844 9
 117448890.431 9  91518583.127 9  22349804.860 9  22349812.692 9
 122709175.030 9  95617520.656 9  23350793.434 9  23350797.881 9
 111081134.346 9  86556710.538 9  21138050.950 9  21138055.423 9
 129541744.398 9 100941594.487 9  24650993.523 9  24650999.706 9
 116304715.985 9  90627038.806 9  22132060.664 9  22132063.621 9
 118456078.358 9  92303428.307 9  22541449.145 9  22541451.404 9
 130929899.021 9 102023264.143 9  24915156.954 9  24915165.254 9
 107932891.215 9  84103534.997 9  20538958.845 9  20538962.907 9
 130690956.783 9 101837073.481 9  24869689.375 9  24869698.176 9
 128439726.472 1  99897552.026 1  24069558.583 1  24069561.665 1
 117059630.464 9  91046367.438 9  21867731.411 9  21867734.341 9
 119228454.755 9  92733230.902 9  22265081.709 9  22265084.574 9
 107849051.640 9  83882593.102 9  20196664.934 9  20196665.685 9
 115771684.943 9  90044627.242 9  21718485.574 9  21718489.513 9
 121452078.781 9  94462715.063 9  22736092.728 9  22736095.659 9
 118296751.854 9  92008574.847 9  22160975.693 9  22160978.201 9
 106777025.716 9  83048793.675 9  19960841.372 9  19960842.326 9
 117653517.405 9  91508273.936 9  22001813.555 9  22001817.659 9
 18  9  7  1 45  0.0000000  0 20G01G03G06G11G17G18G19G22G24G28G30R02
                                R03R04R09R10R16R18R19R20
 118203829.074 9  92106847.089 9  22493465.398 9  22493473.386 9
 112417488.944 9  87598015.622 9  21392358.188 9  21392365.070 9
 117369994.696 9  91457105.963 9  22334791.477 9  22334799.300 9
 122802377.477 9  95690145.912 9  23368529.291 9  23368533.745 9
 111049301.148 9  86531905.447 9  21131993.295 9  21131997.769 9
 129650065.365 9 101026000.412 9  24671606.336 9  24671612.524 9
 116234765.348 9  90572531.845 9  22118749.479 9  22118752.429 9
 118494570.322 9  92333422.047 9  22548773.920 9  22548776.179 9
 130911200.977 9 102008694.260 9  24911598.818 9  24911607.114 9
 107962950.852 9  84126958.085 9  20544679.008 9  20544683.072 9
 130787642.500 9 101912412.964 9  24888088.082 9  24888096.893 9
 128520280.351 1  99960205.111 1  24084654.295 1  24084657.361 1
 117049094.445 9  91038172.795 9  21865763.166 9  21865766.087 9
 119123565.445 9  92651650.367 9  22245494.341 9  22245497.197 9
 107890079.540 9  83914503.682 9  20204348.148 9  20204348.902 9
 115698628.233 9  89987805.379 9  21704780.304 9  21704784.238 9
 121582796.812 9  94564384.637 9  22760563.421 9  22760566.354 9
 118373845.709 9  92068536.715 9  22175417.984 9  22175420.496 9
 106791533.487 9  83060077.509 9  19963553.438 9  19963554.388 9
 117587653.408 9  91457046.418 9  21989496.630 9  21989500.725 9
 18  9  7  1 45 30.0000000  0 20G01G03G06G11G17G18G19G22G24G28G30R02
                                R03R04R09R10R16R18R19R20
 118295438.973 9  92178231.401 9  22510898.201 9  22510906.195 9
 112404955.380 9  87588249.216 9  21389973.124 9  21389980.005 9
 117291381.017 9  91395848.573 9  22319831.774 9  22319839.592 9
 122895670.153 9  95762841.460 9  23386282.329 9  23386286.794 9
 111017635.570 9  86507230.983 9  21125967.527 9  21125971.997 9
 129758374.569 9 101110396.998 9  24692217.040 9  24692223.276 9
 116164964.421 9  90518141.528 9  22105466.792 9  22105469.738 9
 118533566.847 9  92363808.941 9  22556194.719 9  22556196.980 9
 130893013.636 9 101994522.300 9  24908137.887 9  24908146.184 9
 107993498.396 9  84150761.355 9  20550492.020 9  20550496.087 9
 130884233.129 9 101987678.285 9  24906468.747 9  24906477.583 9
 128601369.859 9 100023274.741 9  24099850.424 9  24099853.487 9
 117039320.124 9  91030570.523 9  21863937.257 9  21863940.184 9
 119019001.006 9  92570322.489 9  22225967.656 9  22225970.507 9
 107931883.039 9  83947017.511 9  20212176.603 9  20212177.358 9
 115626244.357 9  89931506.795 9  21691201.283 9  21691205.221 9
 121713641.478 9  94666152.649 9  22785057.863 9  22785060.810 9
 118450985.453 9  92128534.252 9  22189868.888 9  22189871.410 9
 106806284.618 9  83071550.603 9  19966311.012 9  19966311.964 9
 117521974.163 9  91405962.589 9  21977214.259 9  21977218.348 9
 18  9  7  1 46  0.0000000  0 19G01G03G06G11G17G18G19G22G24G28G30R03
                                R04R09R10R16R18R19R20
 118387198.139 9  92249732.035 9  22528359.401 9  22528367.399 9
 112393028.655 9  87578955.669 9  21387703.540 9  21387710.419 9
 117213053.648 9  91334814.272 9  22304926.562 9  22304934.377 9
 122989055.321 9  95835609.096 9  23404052.957 9  23404057.428 9
 110986141.619 9  86482690.249 9  21119974.422 9  21119978.890 9
 129866674.019 9 101194786.211 9  24712825.717 9  24712831.945 9
 116095317.260 9  90463871.028 9  22092213.366 9  22092216.309 9
 118573070.363 9  92394590.903 9  22563711.987 9  22563714.247 9
 130875340.541 9 101980750.994 9  24904774.856 9  24904783.169 9
 108024536.712 9  84174947.049 9  20556398.421 9  20556402.489 9
 130980729.479 9 102062870.214 9  24924831.416 9  24924840.260 9
 117030311.847 9  91023564.123 9  21862254.408 9  21862257.325 9
 118914770.020 9  92489253.975 9  22206503.232 9  22206506.076 9
 107974463.481 9  83980135.624 9  20220150.558 9  20220151.315 9
 115554540.259 9  89875736.963 9  21677749.761 9  21677753.693 9
 121844612.244 9  94768018.735 9  22809575.913 9  22809578.876 9
 118528174.045 9  92188569.817 9  22204328.917 9  22204331.441 9
 106821281.713 9  83083215.002 9  19969114.567 9  19969115.521 9
 117456482.625 9  91355024.734 9  21964967.006 9  21964971.092 9
 18  9  7  1 46 30.0000000  0 19G01G03G06G11G17G18G19G22G24G28G30R03
                                R04R09R10R16R18R19R20
 118479102.433 9  92321345.750 9  22545848.222 9  22545856.225 9
 112381707.365 9  87570133.892 9  21385549.164 9  21385556.042 9
 117135011.296 9  91274002.081 9  22290075.573 9  22290083.380 9
 123082529.919 9  95908446.392 9  23421840.621 9  23421845.106 9
 110954817.796 9  86458282.076 9  21114013.696 9  21114018.164 9
 129974960.309 9 101279165.093 9  24733431.947 9  24733438.186 9
 116025822.547 9  90409719.311 9  22078988.957 9  22078991.898 9
 118613077.411 9  92425765.227 9  22571325.074 9  22571327.335 9
 130858179.757 9 101967378.999 9  24901509.234 9  24901517.535 9
 108056064.151 9  84199513.869 9  20562397.905 9  20562401.977 9
 131077126.735 9 102137984.838 9  24943175.295 9  24943184.168 9
 117022068.928 9  91017152.955 9  21860714.568 9  21860717.487 9
 118810874.988 9  92408446.773 9  22187101.534 9  22187104.367 9
 108017816.520 9  84013854.636 9  20228269.203 9  20228269.964 9
 115483516.884 9  89820496.582 9  21664425.940 9  21664429.867 9
 121975702.836 9  94869978.062 9  22834116.363 9  22834119.332 9
 118605409.051 9  92248641.456 9  22218797.660 9  22218800.192 9
 106836522.141 9  83095068.661 9  19971963.610 9  19971964.565 9
 117391176.734 9  91304231.312 9  21952754.439 9  21952758.514 9
 18  9  7  1 47  0.0000000  0 19G01G03G06G11G17G18G19G22G24G28G30R03
                                R04R09R10R16R18R19R20
 118571149.589 9  92393070.788 9  22563364.228 9  22563372.235 9
 112370991.833 9  87561784.129 9  21383510.065 9  21383516.942 9
 117057254.494 9  91213412.386 9  22275278.929 9  22275286.732 9
 123176092.658 9  95981352.405 9  23439645.032 9  23439649.520 9
 110923664.737 9  86434006.967 9  21108085.464 9  21108089.932 9
 130083231.425 9 101363532.132 9  24754035.303 9  24754041.559 9
 115956480.815 9  90355686.804 9  22065793.655 9  22065796.593 9
 118653586.501 9  92457330.750 9  22579033.699 9  22579035.960 9
 130841531.359 9 101954406.225 9  24898341.146 9  24898349.447 9
 108088080.389 9  84224461.580 9  20568490.397 9  20568494.471 9
 131173422.206 9 102213020.278 9  24961499.708 9  24961508.579 9
 117014592.054 9  91011337.603 9  21859317.829 9  21859320.750 9
 118707320.165 9  92327904.172 9  22167763.372 9  22167766.196 9
 108061939.836 9  84048172.765 9  20236532.087 9  20236532.849 9
 115413177.291 9  89765788.005 9  21651230.415 9  21651234.343 9
 122106908.735 9  94972027.074 9  22858678.397 9  22858681.371 9
 118682689.698 9  92308748.591 9  22233274.955 9  22233277.496 9
 106852004.791 9  83107110.720 9  19974857.929 9  19974858.886 9
 117326055.851 9  91253581.745 9  21940576.499 9  21940580.572 9
 18  9  7  1 47 30.0000000  0 19G01G03G06G11G17G18G19G22G24G28G30R03
                                R04R09R10R16R18R19R20
 118663339.927 9  92464907.395 9  22580907.481 9  22580915.493 9
 112360885.066 9  87553908.732 9  21381586.807 9  21381593.682 9
 116979786.432 9  91153047.683 9  22260537.232 9  22260545.029 9
 123269744.730 9  96054327.996 9  23457466.466 9  23457470.967 9
 110892685.565 9  86409867.355 9  21102190.322 9  21102194.789 9
 130191488.357 9 101447888.159 9  24774635.931 9  24774642.192 9
 115887295.433 9  90301776.137 9  22052628.099 9  22052631.033 9
 118694598.961 9  92489288.501 9  22586838.118 9  22586840.381 9
 130825397.444 9 101941834.332 9  24895270.973 9  24895279.276 9
 108120587.453 9  84249791.753 9  20574676.291 9  20574680.366 9
 131269615.677 9 102287976.163 9  24979804.767 9  24979813.654 9
 117007884.450 9  91006120.575 9  21858064.794 9  21858067.715 9
 118604112.546 9  92247631.608 9  22148490.057 9  22148492.873 9
 108106833.548 9  84083090.078 9  20244939.250 9  20244940.017 9
 115343527.255 9  89711615.751 9  21638164.248 9  21638168.178 9
 122238228.925 9  95074164.947 9  22883261.851 9  22883264.838 9
 118760018.023 9  92368892.828 9  22247761.168 9  22247763.712 9
 106867731.426 9  83119342.548 9  19977797.857 9  19977798.813 9
 117261122.281 9  91203077.848 9  21928433.601 9  21928437.676 9
 18  9  7  1 48  0.0000000  0 19G01G03G06G11G17G18G19G22G24G28G30R03
                                R04R09R10R16R18R19R20
 118755669.316 9  92536852.351 9  22598477.196 9  22598485.214 9
 112351385.559 9  87546506.518 9  21379779.111 9  21379785.987 9
 116902605.720 9  91092906.883 9  22245850.220 9  22245858.014 9
 123363482.790 9  96127370.591 9  23475304.263 9  23475308.776 9
 110861878.758 9  86385862.054 9  21096327.979 9  21096332.446 9
 130299727.808 9 101532230.519 9  24795233.266 9  24795239.544 9
 115818264.985 9  90247986.174 9  22039492.045 9  22039494.979 9
 118736111.119 9  92521635.630 9  22594737.625 9  22594739.890 9
 130809776.151 9 101929661.873 9  24892298.357 9  24892306.666 9
 108153583.033 9  84275502.583 9  20580955.150 9  20580959.228 9
 131365702.396 9 102362848.831 9  24998089.537 9  24998098.449 9
 117001945.461 9  91001501.348 9  21856955.351 9  21856958.275 9
 118501254.871 9  92167631.232 9  22129282.083 9  22129284.891 9
 108152493.253 9  84118603.180 9  20253489.848 9  20253490.615 9
 115274567.703 9  89657980.550 9  21625227.607 9  21625231.535 9
 122369656.673 9  95176386.468 9  22907865.446 9  22907868.447 9
 118837391.471 9  92429072.132 9  22262255.855 9  22262258.410 9
 106883698.668 9  83131761.501 9  19980782.774 9  19980783.733 9
 117196373.894 9  91152718.000 9  21916325.320 9  21916329.393 9
 18  9  7  1 48 30.0000000  0 19G01G03G06G11G17G18G19G22G24G28G30R03
                                R04R09R10R16R18R19R20
 118848136.747 9  92608904.872 9  22616073.181 9  22616081.203 9
 112342494.775 9  87539578.633 9  21378087.252 9  21378094.128 9
 116825714.097 9  91032991.345 9  22231218.221 9  22231226.012 9
 123457306.882 9  96200480.233 9  23493158.424 9  23493162.947 9
 110831246.072 9  86361992.430 9  21090498.772 9  21090503.238 9
 130407949.055 9 101616558.794 9  24815827.061 9  24815833.332 9
 115749391.155 9  90194318.264 9  22026385.783 9  22026388.715 9
 118778122.526 9  92554371.792 9  22602732.129 9  22602734.394 9
 130794669.279 9 101917890.243 9  24889423.646 9  24889431.965 9
 108187067.923 9  84301594.690 9  20587327.124 9  20587331.206 9
 131461680.823 9 102437637.120 9  25016353.697 9  25016362.632 9
 116996776.166 9  90997480.812 9  21855989.663 9  21855992.581 9
 118398752.754 9  92087907.390 9  22110140.516 9  22110143.318 9
 108198917.457 9  84154710.874 9  20262183.624 9  20262184.397 9
 115206302.857 9  89604885.687 9  21612421.283 9  21612425.207 9
 122501188.847 9  95278689.251 9  22932488.559 9  22932491.564 9
 118914810.634 9  92489286.993 9  22276759.105 9  22276761.670 9
 106899906.984 9  83144367.979 9  19983812.740 9  19983813.697 9
 117131810.943 9  91102502.428 9  21904251.681 9  21904255.740 9
 18  9  7  1 49  0.0000000  0 18G01G03G06G11G17G18G19G22G24G28R03R04
                                R09R10R16R18R19R20
 118940740.056 9  92681063.285 9  22633695.012 9  22633703.037 9
 112334213.167 9  87533125.439 9  21376511.309 9  21376518.184 9
 116749112.270 9  90973301.627 9  22216641.365 9  22216649.151 9
 123551215.928 9  96273656.056 9  23511028.764 9  23511033.301 9
 110800788.195 9  86338259.026 9  21084702.826 9  21084707.290 9
 130516150.799 9 101700871.747 9  24836417.240 9  24836423.533 9
 115680674.654 9  90140772.946 9  22013309.462 9  22013312.392 9
 118820632.061 9  92587496.096 9  22610821.431 9  22610823.698 9
 130780076.020 9 101906518.891 9  24886646.627 9  24886654.942 9
 108221042.124 9  84328068.079 9  20593792.210 9  20593796.296 9
 116992377.610 9  90994059.725 9  21855167.967 9  21855170.882 9
 118296610.417 9  92008463.390 9  22091066.126 9  22091068.918 9
 108246103.798 9  84191411.350 9  20271020.119 9  20271020.894 9
 115138735.762 9  89552333.496 9  21599745.873 9  21599749.798 9
 122632821.660 9  95381070.273 9  22957130.538 9  22957133.557 9
 118992275.050 9  92549537.082 9  22291270.810 9  22291273.378 9
 106916355.053 9  83157160.916 9  19986887.537 9  19986888.496 9
 117067433.507 9  91052431.143 9  21892212.736 9  21892216.782 9
