     2.10           OBSERVATION DATA    G (GPS)             RINEX VERSION / TYPE
RTKCONV 2.4.2                           20180908 151320 UTC PGM / RUN BY / DATE 
log: C:\Users\80575\Documents\Visual Studio 2015\Projects\  COMMENT             
format: RINEX                                               COMMENT             
BJFS                                                        MARKER NAME         
21601M001                                                   MARKER NUMBER       
                                                            OBSERVER / AGENCY   
5310K42306          TRIMBLE NETR9       4.85                REC # / TYPE / VERS 
5317361110          TRM59900.00     SCIS                    ANT # / TYPE        
 -2148744.5566  4426641.1140  4044655.7555                  APPROX POSITION XYZ 
        0.0465        0.0000        0.0000                  ANTENNA: DELTA H/E/N
     1     1                                                WAVELENGTH FACT L1/2
     3    C1    L1    P1                                    # / TYPES OF OBSERV 
    30.000                                                  INTERVAL   
  2018     9     7     0     0    0.0000000     GPS         TIME OF FIRST OBS   
  2018     9     7    23    59   30.0000000     GPS         TIME OF LAST OBS    
                                                            END OF HEADER       
 18  9  7  0  0  0.0000000  0 10G 7G 1G11G18G28G 3G17G22G30G 8
  22483061.273   118149272.382                  
  20153992.742   105909955.648                  
  20459770.055   107516811.330                  
  20902535.836   109843560.842                  
  21175068.984   111275723.787                  
  23914516.570   125671623.334                  
  23007044.328   120902847.276                  
  23175221.250   121786623.746                  
  21493447.805   112948834.183                  
  23354368.734   122728029.495                  
 18  9  7  0  0 30.0000000  0 10G 7G 1G11G18G28G 3G17G22G30G 8
  22501426.680   118245781.699                  
  20155718.352   105919024.641                  
  20467392.344   107556865.198                  
  20914461.594   109906231.371                  
  21165196.422   111223840.946                  
  23896589.953   125577421.546                  
  22995395.805   120841636.114                  
  23163235.453   121723640.285                  
  21503298.703   113000601.141                  
  23369048.281   122805172.966                  
 18  9  7  0  1  0.0000000  0 10G 7G 1G11G18G28G 3G17G22G30G 8
  22519841.359   118342552.512                  
  20157558.766   105928696.863                  
  20475097.453   107597357.242                  
  20926479.945   109969387.610                  
  21155366.969   111172188.292                  
  23878681.242   125483307.822                  
  22983774.555   120780567.128                  
  23151311.867   121660977.852                  
  21513246.297   113052874.406                  
  23383738.430   122882372.200                  
 18  9  7  0  1 30.0000000  0 10G 7G 1G11G18G28G 3G17G22G30G 8
  22538304.617   118439580.870                  
  20159513.984   105938970.632                  
  20482885.984   107638285.453                  
  20938589.883   110033026.372                  
  21145581.711   111120766.681                  
  23860789.313   125389284.512                  
  22972180.648   120719638.952                  
  23139448.219   121598638.153                  
  21523288.953   113105651.053                  
  23398439.664   122959625.775                  
 18  9  7  0  2  0.0000000  0 10G 7G 1G11G18G28G 3G17G22G30G 8
  22556816.984   118536863.798                  
  20161583.156   105949844.431                  
  20490756.742   107679647.401                  
  20950791.352   110097144.880                  
  21135841.078   111069577.635                  
  23842914.078   125295354.537                  
  22960613.266   120658851.781                  
  23127647.555   121536623.709                  
  21533427.508   113158928.815                  
  23413150.445   123036933.174                  
 18  9  7  0  2 30.0000000  0 10G 7G 1G11G18G28G 3G17G22G30G 8
  22575377.484   118634396.643                  
  20163766.234   105961315.995                  
  20498709.742   107721440.292                  
  20963083.305   110161739.338                  
  21126144.227   111018621.451                  
  23825058.609   125201519.704                  
  22949072.242   120598204.057                  
  23115909.008   121474936.028                  
  21543660.484   113212704.140                  
  23427872.219   123114292.388                  
 18  9  7  0  3  0.0000000  0 10G 7G 1G11G18G28G 3G17G22G30G 8
  22593984.250   118732177.468                  
  20166062.891   105973385.499                  
  20506744.695   107763663.481                  
  20975465.672   110226808.344                  
  21116492.516   110967901.210                  
  23807220.836   125107784.391                  
  22937558.023   120537696.772                  
  23104232.609   121413578.563                  
  21553988.633   113266976.165                  
  23442602.320   123191704.577                  
 18  9  7  0  3 30.0000000  0 10G 7G 1G11G18G28G 3G17G22G30G 8
  22612638.172   118830204.338                  
  20168473.586   105986053.060                  
  20514861.313   107806316.935                  
  20987937.625   110292350.702                  
  21106886.531   110917420.174                  
  23789403.203   125014153.020                  
  22926070.477   120477331.103                  
  23092620.594   121352555.323                  
  21564410.320   113321743.991                  
  23457344.141   123269170.506                  
 18  9  7  0  4  0.0000000  0 10G 7G 1G11G18G28G 3G17G22G30G 8
  22631338.844   118928473.935                  
  20170997.406   105999317.098                  
  20523059.352   107849398.325                  
  21000499.688   110358363.337                  
  21097325.883   110867179.765                  
  23771606.359   124920628.308                  
  22914610.492   120417106.773                  
  23081072.203   121291868.723                  
  21574926.180   113377004.893                  
  23472095.531   123346689.145                  
 18  9  7  0  4 30.0000000  0 10G 7G 1G11G18G28G 3G17G22G30G 8
  22650084.086   119026981.968                  
  20173634.867   106013175.288                  
  20531338.508   107892904.783                  
  21013150.352   110424842.563                  
  21087811.195   110817180.277                  
  23753830.219   124827212.240                  
  22903176.789   120357022.369                  
  23069588.227   121231520.086                  
  21585535.234   113432755.521                  
  23486856.234   123424258.954                  
 18  9  7  0  5  0.0000000  0 10G 7G 1G11G18G28G 3G17G22G30G 8
  22668873.992   119125724.905                  
  20176384.445   106027626.128                  
  20539697.648   107936834.129                  
  21025889.336   110491785.498                  
  21078342.742   110767423.173                  
  23736074.914   124733907.615                  
  22891769.195   120297076.968                  
  23058168.625   121171511.654                  
  21596236.844   113488993.355                  
  23501627.523   123501879.217                  
 18  9  7  0  5 30.0000000  0 10G 7G 1G11G18G28G 3G17G22G30G 8
  22687708.141   119224699.650                  
  20179246.930   106042668.468                  
  20548137.945   107981185.178                  
  21038715.320   110559189.662                  
  21068921.008   110717910.501                  
  23718340.836   124640717.628                  
  22880389.609   120237270.880                  
  23046815.352   121111846.125                  
  21607031.047   113545716.142                  
  23516407.195   123579549.656                  
 18  9  7  0  6  0.0000000  0 10G 7G 1G11G18G28G 3G17G22G30G 8
  22706586.375   119323903.854                  
  20182221.867   106058301.897                  
  20556657.398   108025956.592                  
  21051629.445   110627053.067                  
  21059545.875   110668644.841                  
  23700630.430   124547646.348                  
  22869034.336   120177604.798                  
  23035526.438   121052526.728                  
  21617916.773   113602922.483                  
  23531196.883   123657270.414                  
 18  9  7  0  6 30.0000000  0 11G 7G 1G11G18G28G19G 3G17G22G30G 8
  22725507.320   119423335.221                  
  20185309.234   106074525.857                  
  20565256.961   108071147.353                  
  21064630.445   110695373.951                  
  21050218.422   110619628.470                  
  25168511.188   132261391.0571                 
  23682942.594   124454697.555                  
  22857707.156   120118079.058                  
  23024305.352   120993556.723                  
  21628894.297   113660610.748                  
  23545996.781   123735042.051                  
 18  9  7  0  7  0.0000000  0 11G 7G 1G11G18G28G19G 3G17G22G30G 8
  22744470.906   119522989.168                  
  20188508.633   106091337.969                  
  20573935.570   108116754.396                  
  21077717.727   110764148.779                  
  21040938.102   110570862.202                  
  25151339.641   132171153.9161                 
  23665278.875   124361873.339                  
  22846406.672   120058692.449                  
  23013150.516   120934937.878                  
  21639963.352   113718777.522                  
  23560805.594   123812862.965                  
 18  9  7  0  7 30.0000000  0 11G 7G 1G11G18G28G19G 3G17G22G30G 8
  22763476.172   119622862.856                  
  20191819.328   106108737.009                  
  20582693.633   108162776.691                  
  21090891.242   110833374.778                  
  21031706.734   110522347.893                  
  25134180.820   132080985.9861                 
  23647639.125   124269176.932                  
  22835131.859   119999445.035                  
  23002062.836   120876672.429                  
  21651122.570   113777420.591                  
  23575623.891   123890733.154                  
 18  9  7  0  8  0.0000000  0 11G 7G 1G11G18G28G19G 3G17G22G30G 8
  22782523.664   119722954.392                  
  20195242.016   106126722.894                  
  20591529.898   108209213.542                  
  21104149.945   110903050.667                  
  21022523.102   110474088.455                  
  25117037.102   131990888.6961                 
  23630025.234   124176612.745                  
  22823884.141   119940338.140                  
  22991042.781   120818764.436                  
  21662372.859   113836538.842                  
  23590452.039   123968653.445                  
 18  9  7  0  8 30.0000000  0 11G 7G 1G11G18G28G19G 3G17G22G30G 8
  22801611.375   119823262.140                  
  20198776.258   106145295.806                  
  20600445.414   108256064.375                  
  21117494.234   110973175.455                  
  21013388.469   110426087.474                  
  25099904.219   131900864.2511                 
  23612436.805   124084185.480                  
  22812663.297   119881372.527                  
  22980092.617   120761217.934                  
  21673712.766   113896131.410                  
  23605288.820   124046624.492                  
 18  9  7  0  9  0.0000000  0 11G 7G 1G11G18G28G19G 3G17G22G30G 8
  22820738.734   119923776.499                  
  20202420.727   106164448.005                  
  20609438.078   108303321.475                  
  21130922.383   111043739.852                  
  21004303.016   110378340.203                  
  25082786.867   131810906.4071                 
  23594872.797   123991891.934                  
  22801468.281   119822542.108                  
  22969209.500   120704028.954                  
  21685141.258   113956189.560                  
  23620134.438   124124640.056                  
 18  9  7  0  9 30.0000000  0 11G 7G 1G11G18G28G19G 3G17G22G30G 8
  22839905.484   120024499.997                  
  20206176.344   106184183.730                  
  20618508.617   108350988.407                  
  21144434.344   111114746.969                  
  20995266.398   110330854.059                  
  25065681.719   131721021.3381                 
  23577338.234   123899740.860                  
  22790299.789   119763852.049                  
  22958396.484   120647205.793                  
  21696659.383   114016716.541                  
  23634989.820   124202704.838                  
 18  9  7  0 10  0.0000000  0 11G 7G 1G11G18G28G19G 3G17G22G30G 8
  22859110.930   120125423.716                  
  20210041.625   106204495.831                  
  20627656.133   108399057.589                  
  21158029.539   111186188.424                  
  20986278.922   110283625.229                  
  25048589.508   131631203.4391                 
  23559828.281   123807729.725                  
  22779157.313   119705296.894                  
  22947653.141   120590744.771                  
  21708264.750   114077704.193                  
  23649853.313   124280813.154                  
 18  9  7  0 10 30.0000000  0 11G 7G 1G11G18G28G19G 3G17G22G30G 8
  22878354.492   120226551.895                  
  20214017.594   106225389.972                  
  20636881.023   108447534.135                  
  21171707.953   111258068.636                  
  20977342.516   110236662.419                  
  25031512.852   131541460.3081                 
  23542347.906   123715868.768                  
  22768041.281   119646883.366                  
  22936979.078   120534655.885                  
  21719959.148   114139157.230                  
  23664727.102   124358971.935                  
 18  9  7  0 11  0.0000000  0 11G 7G 1G11G18G28G19G 3G17G22G30G 8
  22897636.008   120327876.512                  
  20218103.617   106246860.605                  
  20646181.930   108496412.789                  
  21185468.289   111330380.843                  
  20968455.859   110189963.300                  
  25014448.563   131451787.8641                 
  23524895.359   123624157.095                  
  22756952.367   119588607.332                  
  22926376.180   120478937.276                  
  21731740.188   114201068.995                  
  23679608.297   124437176.371                  
 18  9  7  0 11 30.0000000  0 11G 7G 1G11G18G28G19G 3G17G22G30G 8
  22916954.930   120429395.672                  
  20222298.547   106268906.710                  
  20655559.766   108545691.980                  
  21199310.578   111403123.048                  
  20959619.836   110143530.311                  
  24997396.984   131362187.1851                 
  23507472.617   123532598.330                  
  22745888.078   119530468.920                  
  22915844.352   120423591.978                  
  21743608.938   114263437.586                  
  23694498.992   124515426.732                  
 18  9  7  0 12  0.0000000  0 11G 7G 1G11G18G28G19G 3G17G22G30G 8
  22936310.070   120531106.515                  
  20226603.172   106291527.273                  
  20665013.398   108595370.182                  
  21213234.500   111476292.523                  
  20950835.250   110097365.470                  
  24980361.289   131272658.5211                 
  23490079.609   123441196.082                  
  22734851.500   119472468.356                  
  22905384.039   120368622.735                  
  21755563.250   114326260.941                  
  23709398.430   124593723.158                  
 18  9  7  0 12 30.0000000  0 11G 7G 1G11G18G28G19G 3G17G22G30G 8
  22955700.633   120633005.902                  
  20231016.945   106314720.799                  
  20674542.422   108645445.716                  
  21227239.125   111549887.174                  
  20942101.461   110051470.863                  
  24963337.820   131183202.6931                 
  23472715.844   123349953.599                  
  22723840.836   119414605.760                  
  22894995.820   120314032.190                  
  21767604.516   114389536.649                  
  23724306.727   124672065.224                  
 18  9  7  0 13  0.0000000  0 11G 7G 1G11G18G28G19G 3G17G22G30G 8
  22975126.398   120735090.077                  
  20235539.047   106338485.304                  
  20684146.391   108695916.475                  
  21241323.938   111623903.458                  
  20933419.883   110005847.705                  
  24946329.336   131093819.5551                 
  23455384.336   123258873.580                  
  22712855.633   119356880.381                  
  22884680.031   120259822.244                  
  21779730.805   114453261.733                  
  23739222.516   124750452.050                  
 18  9  7  0 13 30.0000000  0 11G 7G 1G11G18G28G19G 3G17G22G30G 8
  22994587.742   120837358.419                  
  20240169.969   106362821.690                  
  20693825.977   108746783.044                  
  21255488.734   111698341.268                  
  20924790.781   109960500.507                  
  24929334.234   131004511.7241                 
  23438084.164   123167961.739                  
  22701897.633   119299294.775                  
  22874437.742   120205997.811                  
  21791942.922   114517436.152                  
  23754149.867   124828886.202                  
 18  9  7  0 14  0.0000000  0 11G 7G 1G11G18G28G19G 3G17G22G30G 8
  23014082.656   120939805.871                  
  20244909.289   106387726.509                  
  20703580.367   108798041.848                  
  21269733.430   111773196.039                  
  20916213.492   109915428.832                  
  24912352.867   130915277.7101                 
  23420817.086   123077219.294                  
  22690965.281   119241846.857                  
  22864268.211   120152559.223                  
  21804239.719   114582055.452                  
  23769082.188   124907365.089                  
 18  9  7  0 14 30.0000000  0 11G 7G 1G11G18G28G19G 3G17G22G30G 8
  23033609.891   121042424.668                  
  20249755.383   106413193.537                  
  20713407.664   108849685.855                  
  21284055.539   111848460.452                  
  20907688.875   109870629.758                  
  24895385.906   130826113.179                  
  23403581.398   122986644.835                  
  22680058.859   119184531.448                  
  22854172.906   120099504.392                  
  21816619.383   114647112.466                  
  23784024.203   124985883.558                  
 18  9  7  0 15  0.0000000  0 11G 7G 1G11G18G28G19G 3G17G22G30G 8
  23053170.758   121145219.116                  
  20254709.688   106439229.017                  
  20723309.742   108901721.581                  
  21298457.094   111924139.688                  
  20899217.305   109826113.166                  
  24878432.383   130737026.199                  
  23386379.586   122896249.359                  
  22669178.539   119127356.860                  
  22844151.633   120046843.342                  
  21829084.109   114712612.504                  
  23798975.289   125064449.441                  
 18  9  7  0 15 30.0000000  0 11G 7G 1G11G18G28G19G 3G17G22G30G 8
  23072764.297   121248182.607                  
  20259771.281   106465827.134                  
  20733285.406   108954142.769                  
  21312935.828   112000226.514                  
  20890799.344   109781876.832                  
  24861494.375   130648013.082                  
  23369211.266   122806031.915                  
  22658324.414   119070318.446                  
  22834205.375   119994574.383                  
  21841631.391   114778548.788                  
  23813934.461   125143058.034                  
 18  9  7  0 16  0.0000000  0 11G 7G 1G11G18G28G19G 3G17G22G30G 8
  23092389.586   121351311.836                  
  20264939.664   106492986.482                  
  20743333.711   109006948.108                  
  21327491.609   112076719.156                  
  20882435.594   109737922.624                  
  24844569.883   130559074.1881                 
  23352078.055   122715995.917                  
  22647496.219   119013416.315                  
  22824333.742   119942700.260                  
  21854260.930   114844918.961                  
  23828900.898   125221709.396                  
 18  9  7  0 16 30.0000000  0 11G 7G 1G11G18G28G19G 3G17G22G30G 8
  23112045.664   121454604.985                  
  20270214.563   106520706.791                  
  20753454.977   109060137.130                  
  21342125.063   112153615.732                  
  20874125.656   109694253.623                  
  24827661.766   130470211.2611                 
  23334980.281   122626145.917                  
  22636694.789   118956651.775                  
  22814537.781   119891224.408                  
  21866973.109   114911721.844                  
  23843876.188   125300404.575                  
 18  9  7  0 17  0.0000000  0 11G 7G 1G11G18G28G19G 3G17G22G30G 8
  23131732.180   121558059.470                  
  20275596.055   106548986.756                  
  20763649.352   109113708.327                  
  21356834.063   112230914.063                  
  20865870.445   109650872.289                  
  24810764.789   130381425.0411                 
  23317918.266   122536485.509                  
  22625918.594   118900024.929                  
  22804818.898   119840149.853                  
  21879767.547   114978955.175                  
  23858859.359   125379143.752                  
 18  9  7  0 17 30.0000000  0 11G 7G 1G11G18G28G19G 3G17G22G30G 8
  23151449.070   121661670.654                  
  20281083.602   106577823.281                  
  20773915.992   109167658.233                  
  21371619.336   112308610.141                  
  20857669.758   109607778.751                  
  24793882.156   130292714.4101                 
  23300892.945   122447016.442                  
  22615169.156   118843534.500                  
  22795176.492   119789477.074                  
  21892642.359   115046614.978                  
  23873851.117   125457925.271                  
 18  9  7  0 18  0.0000000  0 11G 7G 1G11G18G28G19G 3G17G22G30G 8
  23171194.188   121765434.270                  
  20286676.523   106607213.516                  
  20784253.742   109221984.024                  
  21386479.078   112386699.916                  
  20849524.313   109564973.785                  
  24777016.305   130204078.7381                 
  23283904.578   122357740.842                  
  22604445.000   118787178.732                  
  22785610.156   119739207.391                  
  21905598.367   115114697.434                  
  23888850.258   125536747.655                  
 18  9  7  0 18 30.0000000  0 11G 7G 1G11G18G28G19G 3G17G22G30G 8
  23190968.016   121869349.252                  
  20292374.461   106637157.954                  
  20794663.125   109276686.056                  
  21401413.859   112465182.869                  
  20841434.375   109522461.287                  
  24760165.289   130115520.3141                 
  23266953.188   122268664.115                  
  22593746.547   118730960.196                  
  22776121.820   119689345.451                  
  21918634.461   115183202.112                  
  23903858.445   125615613.069                  
 18  9  7  0 19  0.0000000  0 11G 7G 1G11G18G28G19G 3G17G22G30G 8
  23210771.641   121973412.332                  
  20298177.727   106667654.517                  
  20805143.914   109331762.360                  
  21416422.797   112544056.120                  
  20833400.359   109480243.051                  
  24743327.172   130027039.2901                 
  23250041.258   122179789.052                  
  22583074.727   118674878.477                  
  22766711.328   119639892.853                  
  21931750.258   115252126.040                  
  23918873.297   125694520.493                  
 18  9  7  0 19 30.0000000  0 11G 7G 1G11G18G28G19G 3G17G22G30G 8
  23230601.922   122077620.760                  
  20304085.867   106698701.629                  
  20815695.398   109387211.255                  
  21431505.984   112623317.042                  
  20825423.055   109438320.999                  
  24726505.070   129938635.8441                 
  23233167.828   122091119.136                  
  22572429.563   118618933.440                  
  22757379.133   119590852.469                  
  21944945.359   115321466.742                  
  23933897.141   125773469.803                  
 18  9  7  0 20  0.0000000  0 10G 7G 1G11G18G28G 3G17G22G30G 8
  23250459.023   122181967.932                  
  20310097.828   106730294.445                  
  20826316.836   109443027.726                  
  21446661.352   112702959.772                  
  20817501.320   109396693.770                  
  23216333.078   122002654.411                  
  22561808.547   118563121.840                  
  22748125.227   119542223.250                  
  21958218.672   115391218.553                  
  23948928.102   125852458.045                  
 18  9  7  0 20 30.0000000  0 10G 7G 1G11G18G28G 3G17G22G30G 8
  23270341.141   122286453.469                  
  20316213.813   106762433.820                  
  20837008.531   109499212.404                  
  21461889.414   112782984.491                  
  20809637.070   109355365.808                  
  23199539.047   121914400.811                  
  22551213.516   118507446.247                  
  22738950.758   119494010.296                  
  21971570.047   115461381.331                  
  23963966.844   125931487.336                  
 18  9  7  0 21  0.0000000  0 11G 7G 1G11G18G28G19G 3G17G22G30G 8
  23290249.781   122391073.737                  
  20322433.289   106795117.336                  
  20847770.000   109555762.916                  
  21477189.422   112863387.540                  
  20801829.898   109314338.332                  
  24676124.570   129673886.0051                 
  23182785.602   121826360.833                  
  22540644.563   118451905.822                  
  22729855.539   119446215.045                  
  21984999.180   115531951.780                  
  23979013.828   126010557.152                  
 18  9  7  0 21 30.0000000  0 11G 7G 1G11G18G28G19G 3G17G22G30G 8
  23310182.914   122495824.118                  
  20328755.758   106828341.553                  
  20858600.289   109612676.083                  
  21492561.414   112944164.881                  
  20794080.047   109273611.591                  
  24659360.391   129585789.3001                 
  23166073.742   121738536.098                  
  22530100.953   118396499.248                  
  22720839.945   119398837.969                  
  21998505.219   115602925.591                  
  23994067.484   126089665.320                  
 18  9  7  0 22  0.0000000  0 11G 7G 1G11G18G28G19G 3G17G22G30G 8
  23330141.547   122600705.060                  
  20335181.250   106862108.318                  
  20869499.555   109669953.311                  
  21508004.016   113025317.295                  
  20786387.898   109233191.130                  
  24642611.000   129497773.5031                 
  23149403.336   121650933.570                  
  22519583.820   118341229.949                  
  22711905.055   119351885.272                  
  22012087.844   115674303.736                  
  24009129.156   126168815.493                  
 18  9  7  0 22 30.0000000  0 11G 7G 1G11G18G28G19G 3G17G22G30G 8
  23350123.844   122705712.910                  
  20341709.711   106896415.434                  
  20880467.734   109727592.740                  
  21523517.438   113106841.700                  
  20778754.602   109193078.468                  
  24625877.719   129409838.1841                 
  23132775.922   121563556.010                  
  22509092.391   118286097.839                  
  22703051.289   119305358.328                  
  22025747.039   115746083.130                  
  24024198.805   126248006.713                  
 18  9  7  0 23  0.0000000  0 11G 7G 1G11G18G28G19G 3G17G22G30G 8
  23370129.023   122810841.246                  
  20348340.039   106931257.431                  
  20891504.102   109785588.944                  
  21539100.914   113188731.866                  
  20771179.828   109153271.379                  
  24609158.758   129321979.992                  
  23116191.656   121476403.040                  
  22498625.828   118231098.569                  
  22694278.352   119259255.926                  
  22039481.641   115818257.461                  
  24039275.203   126327235.674                  
 18  9  7  0 23 30.0000000  0 11G 7G 1G11G18G28G19G 3G17G22G30G 8
  23390156.711   122916088.292                  
  20355071.758   106966633.877                  
  20902608.469   109843941.341                  
  21554753.484   113270986.541                  
  20763663.031   109113773.340                  
  24592454.383   129234200.410                  
  23099650.578   121389479.311                  
  22488185.695   118176233.339                  
  22685586.813   119213581.783                  
  22053290.805   115890825.380                  
  24054359.852   126406503.020                  
 18  9  7  0 24  0.0000000  0 11G 7G 1G11G18G28G19G 3G17G22G30G 8
  23410206.945   123021452.318                  
  20361905.266   107002544.117                  
  20913780.438   109902649.405                  
  21570475.047   113353604.153                  
  20756206.766   109074587.730                  
  24575766.664   129146501.585                  
  23083153.336   121302789.278                  
  22477770.742   118121503.614                  
  22676977.375   119168339.277                  
  22067174.273   115963785.430                  
  24069451.469   126485810.264                  
 18  9  7  0 24 30.0000000  0 11G 7G 1G11G18G28G19G 3G17G22G30G 8
  23430278.859   123126929.514                  
  20368839.828   107038985.720                  
  20925019.133   109961710.532                  
  21586265.242   113436581.496                  
  20748809.750   109035715.675                  
  24559093.391   129058882.968                  
  23066701.844   121216335.649                  
  22467381.992   118066908.943                  
  22668450.117   119123530.053                  
  22081132.328   116037134.297                  
  24084550.727   126565156.461                  
 18  9  7  0 25  0.0000000  0 11G 7G 1G11G18G28G19G 3G17G22G30G 8
  23450371.656   123232516.390                  
  20375874.992   107075956.487                  
  20936324.953   110021122.909                  
  21602122.922   113519915.537                  
  20741472.352   108997158.668                  
  24542434.383   128971344.550                  
  23050295.016   121130121.267                  
  22457018.578   118012448.824                  
  22660006.875   119079155.723                  
  22095163.719   116110868.951                  
  24099657.289   126644541.128                  
 18  9  7  0 25 30.0000000  0 11G 7G 1G11G18G28G19G 3G17G22G30G 8
  23470484.367   123338210.485                  
  20383010.836   107113454.704                  
  20947697.070   110080884.825                  
  21618048.250   113603603.684                  
  20734196.125   108958918.500                  
  24525792.148   128883887.036                  
  23033936.094   121044149.479                  
  22446680.586   117958123.084                  
  22651645.563   119035218.802                  
  22109268.266   116184986.640                  
  24114770.375   126723964.404                  
 18  9  7  0 26  0.0000000  0 11G 7G 1G11G18G28G19G 3G17G22G30G 8
  23490617.430   123444008.461                  
  20390246.227   107151478.231                  
  20959135.219   110140994.371                  
  21634040.719   113687643.189                  
  20726979.570   108920997.403                  
  24509164.383   128796510.7241                 
  23017622.484   120958423.541                  
  22436368.977   117903932.032                  
  22643367.688   118991721.014                  
  22123444.305   116259484.696                  
  24129891.656   126803425.493                  
 18  9  7  0 26 30.0000000  0 11G 7G 1G11G18G28G19G 3G17G22G30G 8
  23510769.219   123549907.225                  
  20397581.320   107190025.195                  
  20970640.148   110201449.865                  
  21650099.250   113772031.348                  
  20719824.320   108883396.879                  
  24492552.078   128709215.594                  
  23001357.172   120872946.685                  
  22426082.094   117849875.755                  
  22635174.500   118948664.713                  
  22137692.516   116334360.277                  
  24145019.977   126882924.936                  
 18  9  7  0 27  0.0000000  0 11G 7G 1G11G18G28G19G 3G17G22G30G 8
  23530939.195   123655902.460                  
  20405015.875   107229092.429                  
  20982209.500   110262247.903                  
  21666223.250   113856764.423                  
  20712730.383   108846117.859                  
  24475956.375   128622001.165                  
  22985139.125   120787720.867                  
  22415820.398   117795952.375                  
  22627065.133   118906050.750                  
  22152012.352   116409609.380                  
  24160155.070   126962461.081                  
 18  9  7  0 27 30.0000000  0 11G 7G 1G11G18G28G19G 3G17G22G30G 8
  23551127.227   123761992.327                  
  20412548.883   107268679.290                  
  20993844.031   110323388.252                  
  21682413.078   113941840.899                  
  20705698.320   108809163.158                  
  24459376.555   128534868.921                  
  22968969.984   120702750.552                  
  22405584.523   117742163.375                  
  22619041.281   118863882.204                  
  22166402.352   116485230.502                  
  24175297.273   127042034.962                  
 18  9  7  0 28  0.0000000  0 11G 7G 1G11G18G28G19G 3G17G22G30G 8
  23571333.109   123868173.405                  
  20420180.734   107308783.023                  
  21005543.516   110384868.358                  
  21698667.070   114027257.337                  
  20698727.867   108772533.879                  
  24442810.727   128447818.464                  
  22952849.500   120618038.336                  
  22395374.625   117688508.213                  
  22611100.953   118822160.636                  
  22180862.711   116561220.142                  
  24190447.102   127121645.855                  
 18  9  7  0 28 30.0000000  0 11G 7G 1G11G18G28G19G 3G17G22G30G 8
  23591556.188   123974445.001                  
  20427910.438   107349404.154                  
  21017307.242   110446688.718                  
  21714986.219   114113013.667                  
  20691820.305   108736234.558                  
  24426262.375   128360852.626                  
  22936779.641   120533589.823                  
  22385189.953   117634988.796                  
  22603248.234   118780890.597                  
  22195393.094   116637577.967                  
  24205604.070   127201296.085                  
 18  9  7  0 29  0.0000000  0 11G 7G 1G11G18G28G19G 3G17G22G30G 8
  23611795.070   124080800.219                  
  20435737.586   107390536.928                  
  21029135.031   110508843.956                  
  21731368.750   114199103.339                  
  20684975.203   108700263.149                  
  24409727.109   128273968.274                  
  22920759.742   120449404.558                  
  22375031.258   117581601.852                  
  22595480.680   118740070.405                  
  22209991.945   116714297.373                  
  24220767.586   127280981.697                  
 18  9  7  0 29 30.0000000  0 11G 7G 1G11G18G28G19G 3G17G22G30G 8
  23632049.484   124187238.002                  
  20443662.180   107432180.967                  
  21041026.781   110571333.835                  
  21747814.031   114285525.410                  
  20678193.500   108664623.164                  
  24393210.398   128187166.962                  
  22904790.742   120365487.390                  
  22364897.461   117528348.837                  
  22587798.875   118699703.551                  
  22224660.219   116791377.245                  
  24235938.563   127360703.854                  
 18  9  7  0 30  0.0000000  0 11G 7G 1G11G18G28G19G 3G17G22G30G 8
  23652318.813   124293754.398                  
  20451683.641   107474333.379                  
  21052981.117   110634155.606                  
  21764322.234   114372276.066                  
  20671474.055   108629315.347                  
  24376708.594   128100448.551                  
  22888873.094   120281840.601                  
  22354789.102   117475229.000                  
  22580203.570   118659791.222                  
  22239395.641   116868813.849                  
  24251115.633   127440462.001                  
 18  9  7  0 30 30.0000000  0 11G 7G 1G11G18G28G19G 3G17G22G30G 8
  23672601.844   124400344.539                  
  20459801.125   107516990.876                  
  21064998.430   110697306.255                  
  21780891.961   114459351.508                  
  20664818.922   108594340.565                  
  24360221.188   128013812.016                  
  22873007.742   120198466.181                  
  22344706.078   117422241.047                  
  22572695.242   118620334.099                  
  22254198.320   116946603.112                  
  24266299.805   127520254.901                  
 18  9  7  0 31  0.0000000  0 12G 7G 1G11G18G28G19G 3G17G22G30G 6G 8
  23692899.703   124507007.939                  
  20468014.672   107560153.247                  
  21077078.188   110760785.625                  
  21797523.328   114546751.166                  
  20658227.281   108559702.508                  
  24343750.727   127927259.664                  
  22857194.977   120115369.226                  
  22334648.305   117369386.700                  
  22565274.109   118581335.979                  
  22269068.242   117024744.001                  
  25035545.281   131562670.9801                 
  24281490.945   127600083.697                  
 18  9  7  0 31 30.0000000  0 12G 7G 1G11G18G28G19G 3G17G22G30G 6G 8
  23713209.914   124613742.102                  
  20476323.922   107603819.099                  
  21089220.344   110824592.694                  
  21814216.188   114634472.755                  
  20651700.609   108525403.519                  
  24327297.961   127840792.557                  
  22841435.500   120032553.548                  
  22324615.641   117316666.629                  
  22557941.133   118542799.585                  
  22284004.594   117103234.379                  
  25014968.266   131454536.7421                 
  24296688.852   127679949.174                  
 18  9  7  0 32  0.0000000  0 12G 7G 1G11G18G28G19G 3G17G22G30G 6G 8
  23733533.773   124720542.784                  
  20484728.383   107647984.881                  
  21101424.203   110888724.292                  
  21830969.703   114722512.229                  
  20645238.555   108491443.939                  
  24310859.625   127754409.430                  
  22825729.625   119950020.893                  
  22314608.547   117264079.315                  
  22550695.578   118504725.221                  
  22299006.492   117182069.834                  
  24994407.570   131346493.434                  
  24311893.570   127759849.989                  
 18  9  7  0 32 30.0000000  0 12G 7G 1G11G18G28G19G 3G17G22G30G 6G 8
  23753868.727   124827403.616                  
  20493227.148   107692645.808                  
  21113688.742   110953175.895                  
  21847782.836   114810864.360                  
  20638840.258   108457823.042                  
  24294435.695   127668107.727                  
  22810078.695   119867771.762                  
  22304626.258   117211622.086                  
  22543537.938   118467112.215                  
  22314072.789   117261244.873                  
  24973865.055   131238540.160                  
  24327103.953   127839783.180                  
 18  9  7  0 33  0.0000000  0 12G 7G 1G11G18G28G19G 3G17G22G30G 6G 8
  23774215.938   124934328.322                  
  20501820.930   107737806.030                  
  21126015.289   111017951.957                  
  21864655.484   114899532.487                  
  20632508.641   108424548.667                  
  24278030.984   127581894.429                  
  22794482.734   119785815.604                  
  22294670.070   117159301.222                  
  22536469.648   118429968.607                  
  22329205.164   117340762.833                  
  24953340.805   131130684.800                  
  24342322.531   127919754.895                  
 18  9  7  0 33 30.0000000  0 12G 7G 1G11G18G28G19G 3G17G22G30G 6G 8
  23794573.656   125041310.655                  
  20510508.641   107783460.360                  
  21138402.641   111083047.420                  
  21881587.492   114988510.827                  
  20626242.367   108391619.681                  
  24261641.344   127495766.711                  
  22778942.555   119704152.479                  
  22284738.805   117107113.421                  
  22529490.875   118393293.283                  
  22344400.859   117420617.755                  
  24932835.594   131022926.070                  
  24357547.281   127999761.902                  
 18  9  7  0 34  0.0000000  0 12G 7G 1G11G18G28G19G 3G17G22G30G 6G 8
  23814943.086   125148349.275                  
  20519290.125   107829608.033                  
  21150850.352   111148461.880                  
  21898578.711   115077798.226                  
  20620042.617   108359039.175                  
  24245267.828   127409726.367                  
  22763459.734   119622786.981                  
  22274832.938   117055059.879                  
  22522601.227   118357089.472                  
  22359660.734   117500808.131                  
  24912347.680   130915267.251                  
  24372779.133   128079805.273                  
 18  9  7  0 34 30.0000000  0 12G 7G 1G11G18G28G19G 3G17G22G30G 6G 8
  23835321.172   125255437.816                  
  20528164.555   107876243.751                  
  21163358.070   111214190.332                  
  21915626.922   115167388.945                  
  20613908.813   108326805.899                  
  24228911.523   127323770.424                  
  22748032.734   119541719.085                  
  22264953.031   117003138.096                  
  22515801.492   118321355.686                  
  22374983.031   117581327.883                  
  24891880.453   130807706.812                  
  24388016.906   128159881.888                  
 18  9  7  0 35  0.0000000  0 12G 7G 1G11G18G28G19G 3G17G22G30G 6G 8
  23855708.734   125362574.714                  
  20537131.984   107923366.649                  
  21175925.758   111280232.417                  
  21932733.016   115257281.468                  
  20607841.805   108294922.824                  
  24212571.180   127237900.651                  
  22732663.273   119460953.280                  
  22255097.773   116951348.997                  
  22509091.172   118286095.246                  
  22390367.641   117662175.406                  
  24871430.375   130700247.785                  
  24403262.625   128239993.022                  
 18  9  7  0 35 30.0000000  0 12G 7G 1G11G18G28G19G 3G17G22G30G 6G 8
  23876104.453   125469757.257                  
  20546191.508   107970974.929                  
  21188552.539   111346586.562                  
  21949895.883   115347473.525                  
  20601841.656   108263392.231                  
  24196246.711   127152117.942                  
  22717352.039   119380493.095                  
  22245267.773   116899692.656                  
  22502471.961   118251310.279                  
  22405814.828   117743348.103                  
  24851002.211   130592892.355                  
  24418512.586   128320139.082                  
 18  9  7  0 36  0.0000000  0 12G 7G 1G11G18G28G19G 3G17G22G30G 6G 8
  23896509.422   125576983.052                  
  20555343.117   108019066.625                  
  21201238.453   111413251.546                  
  21967115.695   115437962.733                  
  20595909.172   108232216.002                  
  24179939.531   127066422.648                  
  22702100.008   119300341.861                  
  22235463.375   116848169.536                  
  22495943.742   118217002.543                  
  22421322.367   117824843.307                  
  24830592.844   130485642.362                  
  24433771.359   128400319.806                  
 18  9  7  0 36 30.0000000  0 12G 7G 1G11G18G28G19G 3G17G22G30G 6G 8
  23916922.102   125684248.721                  
  20564585.891   108067639.601                  
  21213982.734   111480225.164                  
  21984390.906   115528746.435                  
  20590043.875   108201396.032                  
  24163649.086   126980815.562                  
  22686906.969   119220502.785                  
  22225684.445   116796779.710                  
  22489506.055   118183173.829                  
  22436891.430   117906658.137                  
  24810204.273   130378499.705                  
  24449035.672   128480535.208                  
 18  9  7  0 37  0.0000000  0 12G 7G 1G11G18G28G19G 3G17G22G30G 6G 8
  23937340.234   125791550.204                  
  20573920.273   108116690.390                  
  21226785.977   111547504.330                  
  22001721.078   115619820.717                  
  20584247.055   108170932.715                  
  24147375.281   126895295.014                  
  22671773.844   119140977.742                  
  22215930.258   116745522.024                  
  22483159.945   118149824.880                  
  22452519.977   117988788.307                  
  24789836.359   130271464.794                  
  24464306.445   128560784.024                  
 18  9  7  0 37 30.0000000  0 12G 7G 1G11G18G28G19G 3G17G22G30G 6G 8
  23957765.617   125898885.277                  
  20583344.789   108166217.462                  
  21239646.609   111615088.216                  
  22019107.367   115711183.739                  
  20578518.508   108140828.650                  
  24131118.703   126809862.562                  
  22656701.133   119061770.559                  
  22206201.266   116694397.245                  
  22476905.898   118116958.022                  
  22468208.875   118071231.636                  
  24769488.953   130164540.043                  
  24479584.273   128641066.930                  
 18  9  7  0 38  0.0000000  0 12G 7G 1G11G18G28G19G 3G17G22G30G 6G 8
  23978195.961   126006249.149                  
  20592859.445   108216216.657                  
  21252564.648   111682972.823                  
  22036547.469   115802830.724                  
  20572857.836   108111083.517                  
  24114875.883   126724516.641                  
  22641689.313   118982882.413                  
  22196497.539   116643403.168                  
  22470743.445   118084572.860                  
  22483955.727   118153983.222                  
  24749163.406   130057725.240                  
  24494866.734   128721381.626                  
 18  9  7  0 38 30.0000000  0 12G 7G 1G11G18G28G19G 3G17G22G30G 6G 8
  23998632.773   126113641.882                  
  20602463.766   108266688.830                  
  21265540.133   111751159.464                  
  22054041.547   115894762.204                  
  20567267.141   108081702.191                  
  24098653.305   126639260.310                  
  22626739.078   118904319.449                  
  22186818.711   116592543.025                  
  22464673.117   118052674.366                  
  22499761.391   118237043.153                  
  24728858.219   129951025.225                  
  24510157.750   128801731.353                  
 18  9  7  0 39  0.0000000  0 12G 7G 1G11G18G28G19G 3G17G22G30G 6G 8
  24019073.727   126221057.917                  
  20612157.398   108317629.154                  
  21278572.078   111819643.748                  
  22071588.680   115986972.917                  
  20561745.211   108052683.612                  
  24082446.492   126554091.642                  
  22611851.258   118826082.300                  
  22177165.914   116541814.401                  
  22458695.609   118021261.416                  
  22515624.992   118320405.863                  
  24708576.461   129844439.053                  
  24525452.680   128882112.889                  
 18  9  7  0 39 30.0000000  0 12G 7G 1G11G18G28G19G 3G17G22G30G 6G 8
  24039518.078   126328495.058                  
  20621939.859   108369036.264                  
  21291660.500   111888424.781                  
  22089188.742   116079461.016                  
  20556292.648   108024031.014                  
  24066256.430   126469011.793                  
  22597025.539   118748174.894                  
  22167537.516   116491217.803                  
  22452810.164   117990336.503                  
  22531546.008   118404069.294                  
  24688314.898   129737969.441                  
  24540755.766   128962527.843                  
 18  9  7  0 40  0.0000000  0 12G 7G 1G11G18G28G19G 3G17G22G30G 6G 8
  24059966.656   126435952.739                  
  20631811.203   108420910.093                  
  21304806.039   111957502.960                  
  22106841.133   116172226.157                  
  20550910.492   107995747.936                  
  24050084.156   126384023.496                  
  22582264.422   118670602.516                  
  22157935.250   116440755.935                  
  22447019.586   117959903.478                  
  22547523.242   118488032.683                  
  24668077.547   129631620.200                  
  24556064.516   129042977.810                  
 18  9  7  0 40 30.0000000  0 12G 7G 1G11G18G28G19G 3G17G22G30G 6G 8
  24080417.758   126543424.402                  
  20641770.039   108473244.919                  
  21318006.586   112026873.094                  
  22124545.063   116265262.290                  
  20545598.727   107967832.499                  
  24033926.578   126299123.464                  
  22567566.664   118593364.841                  
  22148357.398   116390424.934                  
  22441321.398   117929960.607                  
  22563556.766   118572289.568                  
  24647863.625   129525389.641                  
  24571380.141   129123459.516                  
 18  9  7  0 41  0.0000000  0 12G 7G 1G11G18G28G19G 3G17G22G30G 6G 8
  24100871.125   126650908.258                  
  20651816.719   108526039.303                  
  21331262.859   112096534.191                  
  22142300.594   116358567.610                  
  20540356.625   107940287.401                  
  24017788.273   126214312.928                  
  22552932.938   118516465.745                  
  22138804.898   116340225.595                  
  22435717.273   117900510.182                  
  22579645.734   118656837.800                  
  24627671.516   129419280.236                  
  24586701.344   129203973.616                  
 18  9  7  0 41 30.0000000  0 12G 7G 1G11G18G28G19G 3G17G22G30G 6G 8
  24121326.492   126758402.334                  
  20661950.500   108579292.093                  
  21344574.078   112166485.474                  
  22160107.227   116452140.638                  
  20535185.805   107913115.512                  
  24001666.789   126129593.456                  
  22538365.242   118439909.436                  
  22129277.750   116290159.521                  
  22430207.133   117871554.923                  
  22595790.078   118741675.510                  
  24607502.719   129313294.828                  
  24602029.094   129284520.776                  
 18  9  7  0 42  0.0000000  0 12G 7G 1G11G18G28G19G 3G17G22G30G 6G 8
  24141783.594   126865902.027                  
  20672170.344   108632998.948                  
  21357939.750   112236723.058                  
  22177963.617   116545976.783                  
  20530086.328   107886316.552                  
  23985562.148   126044963.441                  
  22523862.078   118363696.986                  
  22119775.336   116240224.351                  
  22424791.336   117843094.407                  
  22611987.766   118826797.652                  
  24587358.086   129207433.092                  
  24617362.711   129365099.305                  
 18  9  7  0 42 30.0000000  0 12G 7G 1G11G18G28G19G 3G17G22G30G 6G 8
  24162240.086   126973405.594                  
  20682476.586   108687159.079                  
  21371360.055   112307246.807                  
  22195869.773   116640074.686                  
  20525058.305   107859893.628                  
  23969474.867   125960424.537                  
  22509425.703   118287832.931                  
  22110298.211   116190421.670                  
  22419470.125   117815131.510                  
  22628240.195   118912202.748                  
  24567237.305   129101698.180                  
  24632703.016   129445710.599                  
 18  9  7  0 43  0.0000000  0 12G 7G 1G11G18G28G19G 3G17G22G30G 6G 8
  24182697.867   127080910.450                  
  20692868.938   108741770.544                  
  21384834.539   112378055.336                  
  22213825.945   116734432.358                  
  20520102.195   107833848.764                  
  23953405.328   125875977.563                  
  22495056.047   118212320.744                  
  22100846.078   116140751.956                  
  22414243.898   117787668.334                  
  22644545.625   118997888.222                  
  24547141.969   128996092.240                  
  24648048.914   129526354.876                  
 18  9  7  0 43 30.0000000  0 12G 7G 1G11G18G28G19G 3G17G22G30G 6G 8
  24203155.141   127188411.644                  
  20703345.969   108796828.743                  
  21398362.195   112449144.315                  
  22231830.023   116829044.806                  
  20515218.031   107808181.544                  
  23937352.680   125791620.639                  
  22480753.734   118137161.164                  
  22091419.508   116091213.156                  
  22409113.016   117760703.780                  
  22660903.625   119083848.671                  
  24527069.375   128890614.528                  
  24663400.633   129607029.710                  
 18  9  7  0 44  0.0000000  0 12G 7G 1G11G18G28G19G 3G17G22G30G 6G 8
  24223611.195   127295909.809                  
  20713908.477   108852335.004                  
  21411943.953   112520515.888                  
  22249882.289   116923913.046                  
  20510406.648   107782897.157                  
  23921318.313   125707357.670                  
  22466520.055   118062360.843                  
  22082017.781   116041808.883                  
  22404077.844   117734243.180                  
  22677313.367   119170084.851                  
  24507023.016   128785270.538                  
  24678758.930   129687738.943                  
 18  9  7  0 44 30.0000000  0 12G 7G 1G11G18G28G19G 3G17G22G30G 6G 8
  24244065.367   127403398.639                  
  20724555.203   108908283.344                  
  21425577.977   112592164.472                  
  22267983.109   117019031.116                  
  20505667.992   107757993.689                  
  23905301.016   125623185.535                  
  22452354.469   117987919.217                  
  22072641.320   115992535.162                  
  22399137.289   117708284.167                  
  22693775.070   119256590.026                  
  24487001.258   128680058.214                  
  24694122.023   129768478.591                  
 18  9  7  0 45  0.0000000  0 12G 7G 1G11G18G28G19G 3G17G22G30G 6G 8
  24264517.195   127510876.318                  
  20735285.516   108964672.643                  
  21439264.930   112664089.625                  
  22286130.695   117114397.361                  
  20501001.313   107733473.965                  
  23889301.359   125539105.674                  
  22438257.477   117913840.420                  
  22063289.898   115943393.614                  
  22394293.781   117682829.261                  
  22710287.469   119343362.340                  
  24467004.750   128574980.359                  
  24709494.258   129849249.894                  
 18  9  7  0 45 30.0000000  0 12G 7G 1G11G18G28G19G 3G17G22G30G 6G 8
  24284967.414   127618341.487                  
  20746099.992   109021502.026                  
  21453004.500   112736291.054                  
  22304325.320   117210010.637                  
  20496408.867   107709341.146                  
  23873318.914   125455120.069                  
  22424230.289   117840129.058                  
  22053964.039   115894385.917                  
  22389546.422   117657881.997                  
  22726849.844   119430400.353                  
  24447035.273   128470040.258                  
  24724870.594   129930054.180                  
 18  9  7  0 46  0.0000000  0 12G 7G 1G11G18G28G19G 3G17G22G30G 6G 8
  24305414.859   127725788.343                  
  20756997.008   109078766.100                  
  21466795.484   112808763.836                  
  22322565.953   117305865.495                  
  20491890.219   107685594.045                  
  23857354.141   125371226.027                  
  22410273.820   117766784.985                  
  22044663.164   115845508.653                  
  22384895.328   117633439.900                  
  22743463.070   119517697.964                  
  24427092.875   128365236.470                  
  24740254.500   130010888.602                  
 18  9  7  0 46 30.0000000  0 12G 7G 1G11G18G28G19G 3G17G22G30G 6G 8
  24325856.609   127833217.324                  
  20767976.883   109136465.924                  
  21480638.797   112881509.773                  
  22340852.398   117401962.791                  
  20487445.555   107662237.448                  
  23841408.180   125287427.285                  
  22396387.656   117693814.715                  
  22035388.008   115796765.716                  
  22380341.133   117609507.925                  
  22760124.000   119605255.477                  
  24407176.078   128260574.024                  
  24755641.953   130091756.458                  
 18  9  7  0 47  0.0000000  0 12G 7G 1G11G18G28G19G 3G17G22G30G 6G 8
  24346296.234   127940622.506                  
  20779038.797   109194595.999                  
  21494532.984   112954523.593                  
  22359184.336   117498296.778                  
  20483074.938   107639269.909                  
  23825478.336   125203721.045                  
  22382573.438   117621218.009                  
  22026137.469   115748153.893                  
  22375883.867   117586084.424                  
  22776833.953   119693066.828                  
  24387285.961   128156051.499                  
  24771035.727   130172654.1041                 
 18  9  7  0 47 30.0000000  0 12G 7G 1G11G18G28G19G 3G17G22G30G 6G 8
  24366729.766   128048002.875                  
  20790182.492   109253155.754                  
  21508478.055   113027805.490                  
  22377560.563   117594866.467                  
  20478779.492   107616695.147                  
  23809567.789   125120109.560                  
  22368830.414   117548999.708                  
  22016911.945   115699674.607                  
  22371523.891   117563172.460                  
  22793592.477   119781130.708                  
  24367423.305   128051672.282                  
  24786435.523   130253583.689                  
 18  9  7  0 48  0.0000000  0 12G 7G 1G11G18G28G19G 3G17G22G30G 6G 8
  24387158.039   128155354.029                  
  20801406.891   109312141.302                  
  21522472.727   113101352.343                  
  22395981.859   117691668.245                  
  20474558.273   107594512.963                  
  23793675.328   125036591.552                  
  22355159.789   117477161.242                  
  22007711.508   115651326.762                  
  22367261.414   117540771.985                  
  22810397.563   119869442.624                  
  24347587.938   127947436.549                  
  24801842.578   130334543.4931                 
 18  9  7  0 48 30.0000000  0 12G 7G 1G11G18G28G19G 3G17G22G30G 6G 8
  24407579.961   128262673.940                  
  20812712.008   109371550.839                  
  21536519.344   113175162.922                  
  22414446.094   117788699.820                  
  20470412.148   107572725.496                  
  23777800.266   124953168.201                  
  22341562.500   117405706.140                  
  21998536.234   115603111.240                  
  22363096.102   117518884.647                  
  22827249.273   119958000.097                  
  24327780.086   127843346.501                  
  24817254.109   130415533.9881                 
 18  9  7  0 49  0.0000000  0 12G 7G 1G11G18G28G19G 3G17G22G30G 6G 8
  24427996.250   128369959.019                  
  20824097.586   109431381.346                  
  21550614.625   113249234.891                  
  22432954.008   117885958.169                  
  20466341.680   107551333.744                  
  23761942.477   124869839.267                  
  22328038.211   117334636.744                  
  21989386.188   115555027.400                  
  22359029.305   117497511.326                  
  22844147.297   120046799.412                  
  24308000.641   127739403.188                  
  24832671.516   130496554.7221                 
 18  9  7  0 49 30.0000000  0 12G 7G 1G11G18G28G19G 3G17G22G30G 6G 8
  24448405.305   128477207.670                  
  20835562.695   109491631.766                  
  21564759.688   113323567.762                  
  22451503.984   117983441.889                  
  20462346.781   107530340.946                  
  23746104.109   124786606.321                  
  22314588.680   117263957.283                  
  21980261.570   115507076.706                  
  22355059.828   117476654.434                  
  22861090.906   120135838.940                  
  24288249.078   127635609.504                  
  24848095.719   130577607.135                  
 18  9  7  0 50  0.0000000  0 12G 7G 1G11G18G28G19G 3G17G22G30G 6G 8
  24468806.398   128584417.254                  
  20847107.563   109552299.705                  
  21578954.063   113398159.826                  
  22470097.383   118081148.759                  
  20458428.102   107509748.561                  
  23730284.070   124703469.772                  
  22301212.969   117193670.770                  
  21971162.250   115459259.075                  
  22351189.313   117456314.848                  
  22878079.633   120225115.601                  
  24268526.359   127531967.094                  
  24863525.852   130658690.780                  
 18  9  7  0 50 30.0000000  0 12G 7G 1G11G18G28G19G 3G17G22G30G 6G 8
  24489199.477   128691584.453                  
  20858731.063   109613382.198                  
  21593197.430   113473008.643                  
  22488732.242   118179075.435                  
  20454585.758   107489557.596                  
  23714482.078   124620429.406                  
  22287913.531   117123779.447                  
  21962087.953   115411574.139                  
  22347417.766   117436493.714                  
  22895112.742   120314625.766                  
  24248832.008   127428477.148                  
  24878961.109   130739805.263                  
 18  9  7  0 51  0.0000000  0 12G 7G 1G11G18G28G19G 3G17G22G30G 6G 8
  24509584.070   128798704.805                  
  20870432.586   109674875.143                  
  21607488.820   113548110.904                  
  22507408.219   118277217.822                  
  20450819.945   107469768.067                  
  23698697.859   124537483.821                  
  22274688.828   117054284.595                  
  21953038.922   115364020.264                  
  22343744.641   117417190.354                  
  22912189.828   120404364.695                  
  24229168.094   127325139.325                  
  24894401.766   130820948.925                  
 18  9  7  0 51 30.0000000  0 12G 7G 1G11G18G28G19G 3G17G22G30G 6G 8
  24529958.516   128905777.382                  
  20882212.383   109736778.084                  
  21621828.281   113623466.892                  
  22526125.023   118375575.344                  
  20447131.500   107450383.305                  
  23682932.602   124454635.901                  
  22261540.945   116985191.047                  
  21944015.258   115316599.782                  
  22340170.016   117398407.708                  
  22929309.703   120494331.305                  
  24209533.758   127221957.303                  
  24909850.133   130902123.446                  
 18  9  7  0 52  0.0000000  0 12G 7G 1G11G18G28G19G 3G17G22G30G 6G 8
  24550324.641   129012799.366                  
  20894069.859   109799088.514                  
  21636215.828   113699074.470                  
  22544882.477   118474145.487                  
  20443519.414   107431404.885                  
  23667186.023   124371885.307                  
  22248469.766   116916501.592                  
  21935016.508   115269312.492                  
  22336695.313   117380146.971                  
  22946472.539   120584522.483                  
  24189928.148   127118932.608                  
  24925303.102   130983328.614                  
 18  9  7  0 52 30.0000000  0 12G 7G 1G11G18G28G19G 3G17G22G30G 6G 8
  24570679.938   129119767.910                  
  20906004.141   109861803.719                  
  21650651.266   113774932.118                  
  22563679.227   118572925.300                  
  20439985.367   107412833.954                  
  23651456.383   124289232.276                  
  22235476.180   116848218.824                  
  21926043.453   115222158.092                  
  22333319.898   117362408.875                  
  22963677.594   120674934.806                  
  24170353.492   127016066.510                  
  24940760.867   131064564.306                  
 18  9  7  0 53  0.0000000  0 12G 7G 1G11G18G28G19G 3G17G22G30G 6G 8
  24591025.313   129226680.389                  
  20918015.180   109924921.682                  
  21665133.711   113851038.102                  
  22582516.219   118671913.027                  
  20436529.852   107394672.263                  
  23635747.789   124206677.717                  
  22222560.703   116780346.015                  
  21917095.406   115175137.155                  
  22330044.016   117345194.748                  
  22980924.227   120765565.691                  
  24150809.898   126913361.108                  
  24956225.063   131145830.598                  
 18  9  7  0 53 30.0000000  0 12G 7G 1G11G18G28G19G 3G17G22G30G 6G 8
  24611358.734   129333531.927                  
  20930101.953   109988437.739                  
  21679662.648   113927388.618                  
  22601391.172   118771103.755                  
  20433151.625   107376919.253                  
  23620056.469   124124219.668                  
  22209722.906   116712883.750                  
  21908172.547   115128247.768                  
  22326867.633   117328503.576                  
  22998211.102   120856409.771                  
  24131295.727   126810815.642                  
  24971695.859   131227125.409                  
 18  9  7  0 54  0.0000000  0 12G 7G 1G11G18G28G19G 3G17G22G30G 6G 8
  24631679.102   129440321.315                  
  20942263.961   110052350.811                  
  21694238.305   114003983.301                  
  22620305.320   118870496.265                  
  20429851.977   107359578.190                  
  23604383.172   124041860.262                  
  22196963.844   116645836.251                  
  21899275.023   115081491.429                  
  22323791.563   117312337.929                  
  23015537.898   120947465.434                  
  24111813.352   126708433.087                  
  24987171.938   131308450.313                  
 18  9  7  0 54 30.0000000  0 12G 7G 1G11G18G28G19G 3G17G22G30G 6G 8
  24651988.797   129547045.132                  
  20954501.398   110116657.965                  
  21708859.555   114080820.089                  
  22639257.047   118970087.639                  
  20426630.336   107342649.755                  
  23588730.164   123959599.285                  
  22184284.242   116579205.832                  
  21890402.875   115034867.599                  
  22320815.109   117296698.118                  
  23032905.023   121038729.079                  
  24092361.422   126606214.501                  
  25002651.781   131389804.6761                 
 18  9  7  0 55  0.0000000  0 12G 7G 1G11G18G28G19G 3G17G22G30G 6G 8
  24672285.086   129653702.469                  
  20966813.609   110181358.420                  
  21723527.492   114157898.595                  
  22658246.328   119069877.087                  
  20423488.039   107326137.248                  
  23573095.578   123877438.615                  
  22171685.695   116512996.953                  
  21881556.383   114988378.210                  
  22317939.336   117281586.622                  
  23050311.586   121130199.276                  
  24072941.672   126504163.155                  
  25018139.625   131471190.153                  
 18  9  7  0 55 30.0000000  0 12G 7G 1G11G18G28G19G 3G17G22G30G 6G 8
  24692567.305   129760289.284                  
  20979199.430   110246448.286                  
  21738240.492   114235215.788                  
  22677271.969   119169860.764                  
  20420424.789   107310040.587                  
  23557479.375   123795376.953                  
  22159166.703   116447210.968                  
  21872735.055   114942021.691                  
  22315164.797   117267003.187                  
  23067755.914   121221871.549                  
  24053554.180   126402279.148                  
  25033632.117   131552604.957                  
 18  9  7  0 56  0.0000000  0 12G 7G 1G11G18G28G19G 3G17G22G30G 6G 8
  24712836.586   129866803.968                  
  20991659.695   110311926.414                  
  21752998.797   114312771.270                  
  22696335.656   119270037.435                  
  20417441.375   107294362.446                  
  23541882.461   123713416.323                  
  22146729.375   116381851.968                  
  21863939.594   114895799.675                  
  22312490.375   117252950.094                  
  23085238.750   121313744.147                  
  24034198.523   126300565.323                  
  25049129.906   131634050.622                  
 18  9  7  0 56 30.0000000  0 12G 7G 1G11G18G28G19G 3G17G22G30G 6G 8
  24733090.578   129973241.013                  
  21004192.586   110377787.772                  
  21767801.609   114390560.970                  
  22715434.305   119370402.343                  
  20414537.438   107279101.921                  
  23526304.820   123631554.679                  
  22134373.141   116316920.166                  
  21855169.016   114849709.759                  
  22309916.742   117239425.714                  
  23102759.023   121405811.382                  
  24014874.781   126199020.647                  
  25064633.930   131715524.010                  
 18  9  7  0 57  0.0000000  0 12G 7G 1G11G18G28G19G 3G17G22G30G 6G 8
  24753329.539   130079598.856                  
  21016798.336   110444030.942                  
  21782649.063   114468584.007                  
  22734569.125   119470953.772                  
  20411713.719   107264261.193                  
  23510746.023   123549793.494                  
  22122099.469   116252419.319                  
  21846423.469   114803753.143                  
  22307444.164   117226431.736                  
  23120315.094   121498071.259                  
  23995585.070   126097647.718                  
  25080144.211   131797026.506                  
 18  9  7  0 57 30.0000000  0 12G 7G 1G11G18G28G19G 3G17G22G30G 6G 8
  24773553.992   130185875.089                  
  21029476.195   110510653.574                  
  21797540.688   114546838.842                  
  22753737.906   119571689.561                  
  20408969.539   107249842.172                  
  23495206.766   123468132.903                  
  22109907.992   116188352.310                  
  21837703.711   114757930.476                  
  22305072.523   117213969.324                  
  23137907.469   121590520.789                  
  23976327.086   125996448.187                  
  25095658.328   131878558.478                  
 18  9  7  0 58  0.0000000  0 12G 7G 1G11G18G28G19G 3G17G22G30G 6G 8
  24793761.656   130292067.039                  
  21042225.914   110577653.143                  
  21812475.461   114625323.733                  
  22772942.641   119672607.192                  
  20406306.117   107235846.185                  
  23479686.430   123386573.508                  
  22097799.172   116124721.772                  
  21829009.352   114712240.985                  
  22302802.484   117202039.169                  
  23155535.836   121683156.899                  
  23957102.641   125895423.564                  
  25111180.086   131960119.464                  
 18  9  7  0 58 30.0000000  0 12G 7G 1G11G18G28G19G 3G17G22G30G 6G 8
  24813952.883   130398171.785                  
  21055046.516   110645026.903                  
  21827454.297   114704036.896                  
  22792180.180   119773703.952                  
  20403723.563   107222274.159                  
  23464185.445   123305115.356                  
  22085774.578   116061530.184                  
  21820340.297   114666684.914                  
  22300633.141   117190641.984                  
  23173198.023   121775976.181                  
  23937911.594   125794575.026                  
  25126704.406   132041709.333                  
 18  9  7  0 59  0.0000000  0 12G 7G 1G11G18G28G19G 3G17G22G30G 6G 8
  24834126.828   130504187.053                  
  21067938.188   110712772.724                  
  21842476.008   114782976.969                  
  22811451.844   119874977.872                  
  20401222.094   107209128.043                  
  23448703.992   123223759.034                  
  22073833.711   115998780.478                  
  21811696.695   114621263.178                  
  22298566.406   117179778.657                  
  23190895.750   121868975.928                  
  23918754.703   125693904.428                  
  25142237.266   132123328.229                  
 18  9  7  0 59 30.0000000  0 12G 7G 1G11G18G28G19G 3G17G22G30G 6G 8
  24854283.289   130610110.419                  
  21080900.336   110780888.681                  
  21857541.109   114862142.583                  
  22830757.281   119976426.990                  
  20398801.766   107196409.698                  
  23433241.836   123142505.898                  
  22061977.156   115936475.941                  
  21803078.734   114575975.939                  
  22296601.023   117169450.827                  
  23208626.828   121962153.588                  
  23899631.656   125593413.840                  
  25157774.156   132204976.763                  
 18  9  7  1  0  0.0000000  0 11G 1G11G18G28G19G 3G17G22G30G 6G 8
  21093932.219   110849370.487                  
  21872648.070   114941530.303                  
  22850095.266   120078047.154                  
  20396462.531   107184118.783                  
  23417799.156   123061354.440                  
  22050205.750   115874617.483                  
  21794486.219   114530822.047                  
  22294737.508   117159657.354                  
  23226391.445   122055504.364                  
  23880543.656   125493103.037                  
  25173317.422   132286652.700                  
 18  9  7  1  0 30.0000000  0 11G 1G11G18G28G19G 3G17G22G30G 6G 8
  21107033.063   110918217.601                  
  21887796.992   115021140.370                  
  22869464.789   120179837.835                  
  20394205.664   107172258.430                  
  23402376.672   122980306.852                  
  22038520.383   115813209.623                  
  21785919.320   114485803.263                  
  22292975.828   117150400.590                  
  23244188.438   122149026.972                  
  23861489.406   125392975.289                  
  25188865.391   132368358.308                  
 18  9  7  1  1  0.0000000  0 11G 1G11G18G28G19G 3G17G22G30G 6G 8
  21120203.156   110987426.879                  
  21902988.281   115100970.524                  
  22888867.266   120281796.298                  
  20392030.914   107160829.470                  
  23386973.508   122899363.027                  
  22026921.203   115752254.395                  
  21777378.453   114440919.206                  
  22291316.625   117141680.959                  
  23262016.359   122242717.821                  
  23842470.930   125293031.527                  
  25204419.422   132450093.004                  
 18  9  7  1  1 30.0000000  0 11G 1G11G18G28G19G 3G17G22G30G 6G 8
  21133441.820   111056997.221                  
  21918221.336   115181020.504                  
  22908300.109   120383921.068                  
  20389939.031   107149834.697                  
  23371589.711   122818524.403                  
  22015408.672   115691755.735                  
  21768863.609   114396171.326                  
  22289759.852   117133500.319                  
  23279876.758   122336575.113                  
  23823487.820   125193274.606                  
  25219977.922   132531857.978                  
 18  9  7  1  2  0.0000000  0 11G 1G11G18G28G19G 3G17G22G30G 6G 8
  21146748.695   111126923.812                  
  21933495.750   115261286.207                  
  22927765.102   120486207.679                  
  20387929.055   107139272.794                  
  23356226.703   122737789.440                  
  22003982.883   115631713.901                  
  21760373.555   114351557.521                  
  22288305.266   117125857.139                  
  23297768.063   122430593.484                  
  23804540.227   125093703.615                  
  25235543.375   132613650.670                  
 18  9  7  1  2 30.0000000  0 11G 1G11G18G28G19G 3G17G22G30G 6G 8
  21160122.789   111197204.406                  
  21948810.031   115341766.571                  
  22947260.094   120588654.144                  
  20386002.117   107129145.613                  
  23340883.391   122657158.832                  
  21992644.813   115572131.815                  
  21751909.664   114307078.436                  
  22286953.109   117118752.185                  
  23315689.469   122524770.100                  
  23785627.953   124994320.269                  
  25251113.156   132695471.494                  
 18  9  7  1  3  0.0000000  0 11G 1G11G18G28G19G 3G17G22G30G 6G 8
  21173563.820   111267837.395                  
  21964165.641   115422460.320                  
  22966785.555   120691258.863                  
  20384158.188   107119455.752                  
  23325559.992   122576633.814                  
  21981394.680   115513012.837                  
  21743471.375   114262735.023                  
  22285703.781   117112186.998                  
  23333641.008   122619102.794                  
  23766752.906   124895126.945                  
  25266687.547   132777321.4791                 
 18  9  7  1  3 30.0000000  0 11G 1G11G18G28G19G 3G17G22G30G 6G 8
  21187070.781   111338818.452                  
  21979561.406   115503364.214                  
  22986339.664   120794017.527                  
  20382396.906   107110201.993                  
  23310256.078   122496212.762                  
  21970232.961   115454357.714                  
  21735058.477   114218525.793                  
  22284556.828   117106160.244                  
  23351619.859   122713586.604                  
  23747911.984   124796123.257                  
  25282269.039   132859198.473                  
 18  9  7  1  4  0.0000000  0 11G 1G11G18G28G19G 3G17G22G30G 6G 8
  21200644.219   111410146.622                  
  21994996.633   115584478.220                  
  23005922.867   120896929.474                  
  20380719.656   107101387.198                  
  23294972.641   122415897.616                  
  21959160.453   115396170.503                  
  21726671.383   114174452.302                  
  22283512.625   117100674.039                  
  23369628.609   122808220.013                  
  23729109.281   124697312.124                  
  25297854.867   132941104.089                  
 18  9  7  1  4 30.0000000  0 11G 1G11G18G28G19G 3G17G22G30G 6G 8
  21214282.977   111481819.119                  
  22010472.336   115665800.352                  
  23025535.359   120999992.154                  
  20379126.281   107093012.410                  
  23279708.680   122335689.002                  
  21948177.133   115338453.458                  
  21718310.492   114130514.411                  
  22282572.211   117095728.691                  
  23387664.984   122902999.668                  
  23710343.055   124598694.732                  
  25313446.805   133023037.619                  
 18  9  7  1  5  0.0000000  0 11G 1G11G18G28G19G 3G17G22G30G 6G 8
  21227986.727   111553833.168                  
  22025986.180   115747328.683                  
  23045175.836   121103202.826                  
  20377616.492   107085078.767                  
  23264465.875   122255586.643                  
  21937283.789   115281208.806                  
  21709974.875   114086712.179                  
  22281734.172   117091324.516                  
  23405727.617   122997922.178                  
  23691614.094   124500272.239                  
  25329042.820   133104999.144                  
 18  9  7  1  5 30.0000000  0 11G 1G11G18G28G19G 3G17G22G30G 6G 8
  21241754.938   111626186.720                  
  22041539.617   115829061.851                  
  23064843.992   121206559.742                  
  20376190.586   107077588.027                  
  23249243.609   122175591.477                  
  21926481.070   115224439.447                  
  21701665.945   114043046.114                  
  22280999.484   117087462.420                  
  23423817.867   123092985.011                  
  23672922.211   124402046.475                  
  25344645.320   133186988.827                  
 18  9  7  1  6  0.0000000  0 11G 1G11G18G28G19G 3G17G22G30G 6G 8
  21255587.828   111698876.583                  
  22057131.563   115910997.860                  
  23084539.453   121310059.656                  
  20374849.836   107070540.499                  
  23234042.227   122095703.267                  
  21915768.805   115168147.146                  
  21693381.930   113999515.709                  
  22280367.078   117084142.149                  
  23441933.828   123188184.297                  
  23654267.953   124304018.170                  
  25360251.758   133269006.322                  
 18  9  7  1  6 30.0000000  0 11G 1G11G18G28G19G 3G17G22G30G 6G 8
  21269483.805   111771900.110                  
  22072761.477   115993134.858                  
  23104261.273   121413700.483                  
  20373593.094   107063937.462                  
  23218860.055   122015922.354                  
  21905148.438   115112334.234                  
  21685124.508   113956120.865                  
  22279838.453   117081363.861                  
  23460074.781   123283516.824                  
  23635651.688   124206188.631                  
  25375866.016   133351051.242                  
 18  9  7  1  7  0.0000000  0 10G 1G11G18G28G19G 3G17G22G30G 6
  21283442.867   111845257.150                  
  22088430.281   116075473.484                  
  23124010.711   121517482.027                  
  20372422.023   107057782.291                  
  23203699.094   121936251.419                  
  21894619.313   115057005.482                  
  21676893.000   113912864.814                  
  22279413.602   117079130.452                  
  23478240.586   123378981.925                  
  23617073.836   124108561.482                  
 18  9  7  1  7 30.0000000  0 10G 1G11G18G28G19G 3G17G22G30G 6
  21297465.313   111918943.388                  
  22104136.555   116158010.093                  
  23143785.258   121621400.126                  
  20371335.633   107052074.298                  
  23188558.813   121856689.099                  
  21884183.008   115002161.428                  
  21668687.547   113869745.529                  
  22279091.609   117077440.384                  
  23496431.500   123474574.688                  
  23598534.781   124011136.361                  
 18  9  7  1  8  0.0000000  0 10G 1G11G18G28G19G 3G17G22G30G 6
  21311549.266   111992955.333                  
  22119879.844   116240742.304                  
  23163585.453   121725451.643                  
  20370334.883   107046813.771                  
  23173439.273   121777235.044                  
  21873839.055   114947803.531                  
  21660508.320   113826762.070                  
  22278873.539   117076293.313                  
  23514646.094   123570291.069                  
  23580033.047   123913913.667                  
 18  9  7  1  8 30.0000000  0 10G 1G11G18G28G19G 3G17G22G30G 6
  21325695.188   112067292.061                  
  22135660.336   116323670.276                  
  23183411.555   121829636.088                  
  20369419.766   107042003.455                  
  23158339.789   121697891.063                  
  21863588.063   114893935.761                  
  21652355.070   113783916.724                  
  22278758.344   117075690.885                  
  23532883.648   123666129.525                  
  23561571.094   123816896.348                  
 18  9  7  1  9  0.0000000  0 10G 1G11G18G28G19G 3G17G22G30G 6
  21339901.586   112141949.538                  
  22151477.945   116406790.628                  
  23203261.797   121933949.472                  
  20368589.742   107037642.778                  
  23143262.320   121618655.895                  
  21853430.617   114840558.905                  
  21644227.586   113741208.110                  
  22278747.484   117075631.988                  
  23551143.055   123762085.539                  
  23543148.516   123720084.206                  
 18  9  7  1  9 30.0000000  0 10G 1G11G18G28G19G 3G17G22G30G 6
  21354169.648   112216927.916                  
  22167331.563   116490104.350                  
  23223136.398   122038392.036                  
  20367846.102   107033735.741                  
  23128205.820   121539532.786                  
  21843368.023   114787677.909                  
  21636126.961   113698638.941                  
  22278840.227   117076119.491                  
  23569425.344   123858158.623                  
  23524765.742   123623481.308                  
 18  9  7  1 10  0.0000000  0 10G 1G11G18G28G19G 3G17G22G30G 6
  21368497.664   112292223.080                  
  22183221.898   116573608.458                  
  23243034.906   122142960.222                  
  20367188.625   107030281.703                  
  23113170.391   121460520.556                  
  21833399.461   114735293.576                  
  21628052.594   113656207.930                  
  22279037.047   117077152.107                  
  23587728.750   123954344.110                  
  23506422.516   123527087.305                  
 18  9  7  1 10 30.0000000  0 10G 1G11G18G28G19G 3G17G22G30G 6
  21382885.781   112367832.469                  
  22199148.297   116657301.211                  
  23262956.563   122247651.330                  
  20366617.992   107027281.692                  
  23098156.086   121381619.799                  
  21823526.070   114683408.061                  
  21620004.602   113613915.117                  
  22279337.016   117078730.063                  
  23606053.070   124050638.890                  
  23488119.664   123430903.499                  
 18  9  7  1 11  0.0000000  0 10G 1G11G18G28G19G 3G17G22G30G 6
  21397333.000   112443752.717                  
  22215109.828   116741179.876                  
  23282901.695   122352462.616                  
  20366133.492   107024735.935                  
  23083162.734   121302829.918                  
  21813747.664   114632022.800                  
  21611983.094   113571760.034                  
  22279740.969   117080852.704                  
  23624397.266   124147039.023                  
  23469855.656   123334930.344                  
 18  9  7  1 11 30.0000000  0 10G 1G11G18G28G19G 3G17G22G30G 6
  21411838.727   112519982.310                  
  22231106.891   116825244.327                  
  23302869.164   122457392.702                  
  20365735.578   107022646.530                  
  23068190.766   121224152.412                  
  21804065.469   114581141.024                  
  21603987.422   113529743.975                  
  22280248.875   117083521.239                  
  23642761.953   124243542.447                  
  23451633.641   123239170.182                  
 18  9  7  1 12  0.0000000  0 10G 1G11G18G28G19G 3G17G22G30G 6
  21426403.539   112596518.367                  
  22247138.242   116909492.571                  
  23322859.711   122562438.976                  
  20365425.164   107021014.203                  
  23053240.164   121145587.114                  
  21794479.242   114530764.587                  
  21596018.453   113487866.693                  
  22280859.969   117086735.382                  
  23661145.156   124340145.751                  
  23433451.773   123143623.893                  
 18  9  7  1 12 30.0000000  0 10G 1G11G18G28G19G 3G17G22G30G 6
  21441025.469   112673358.679                  
  22263205.531   116993922.858                  
  23342871.711   122667599.576                  
  20365201.758   107019839.976                  
  23038311.852   121067134.506                  
  21784989.461   114480895.973                  
  21588075.898   113446128.453                  
  22281576.180   117090495.407                  
  23679546.773   124436846.110                  
  23415310.383   123048293.097                  
 18  9  7  1 13  0.0000000  0 10G 1G11G18G28G19G 3G17G22G30G 6
  21455705.250   112750500.856                  
  22279306.297   117078534.066                  
  23362902.750   122772872.378                  
  20365065.703   107019125.472                  
  23023403.656   120988796.110                  
  21775596.813   114431537.537                  
  21580160.078   113404530.091                  
  22282395.109   117094801.855                  
  23697965.820   124533640.644                  
  23397211.602   122953179.229                  
 18  9  7  1 13 30.0000000  0 10G 1G11G18G28G19G 3G17G22G30G 6
  21470441.617   112827941.145                  
  22295441.141   117163323.242                  
  23382957.094   122878253.954                  
  20365017.578   107018870.073                  
  23008518.125   120910570.643                  
  21766301.344   114382690.174                  
  21572270.641   113363070.765                  
  22283318.594   117099653.426                  
  23716402.477   124630524.979                  
  23379153.078   122858282.229                  
 18  9  7  1 14  0.0000000  0 10G 1G11G18G28G19G 3G17G22G30G 6
  21485234.445   112905678.557                  
  22311609.688   117248290.379                  
  23403030.359   122983743.560                  
  20365056.445   107019076.238                  
  22993654.414   120832459.789                  
  21757104.352   114334357.486                  
  21564408.031   113321752.008                  
  22284346.063   117105051.627                  
  23734855.680   124727497.616                  
  23361136.164   122763604.924                  
 18  9  7  1 14 30.0000000  0 10G 1G11G18G28G19G 3G17G22G30G 6
  21500083.266   112983710.946                  
  22327812.047   117333434.457                  
  23423125.156   123089339.388                  
  20365183.508   107019745.578                  
  22978811.680   120754464.531                  
  21748005.156   114286542.053                  
  21556572.195   113280574.563                  
  22285477.344   117110996.918                  
  23753324.734   124824555.835                  
  23343162.414   122669148.954                  
 18  9  7  1 15  0.0000000  0 10G 1G11G18G28G19G 3G17G22G30G 6
  21514988.078   113062034.436                  
  22344047.742   117418752.184                  
  23443238.992   123195037.978                  
  20365399.258   107020877.321                  
  22963992.477   120676584.032                  
  21739004.961   114239244.506                  
  21548762.828   113239537.360                  
  22286712.508   117117488.051                  
  23771810.578   124921695.198                  
  23325229.234   122574914.141                  
 18  9  7  1 15 30.0000000  0 10G 1G11G18G28G19G 3G17G22G30G 6
  21529947.930   113140647.772                  
  22360316.367   117504243.614                  
  23463372.383   123300838.165                  
  20365702.945   107022473.789                  
  22949194.250   120598819.958                  
  21730102.961   114192468.237                  
  21540980.867   113198641.524                  
  22288051.773   117124526.089                  
  23790310.461   125018913.907                  
  23307340.180   122480903.053                  
 18  9  7  1 16  0.0000000  0 10G 1G11G18G28G19G 3G17G22G30G 6
  21544962.430   113219548.875                  
  22376617.258   117589907.723                  
  23483524.961   123406738.496                  
  20366095.469   107024536.237                  
  22934417.594   120521173.164                  
  21721301.945   114146215.745                  
  21533225.344   113157888.024                  
  22289495.359   117132111.608                  
  23808825.016   125116209.325                  
  23289493.602   122387117.302                  
 18  9  7  1 16 30.0000000  0 10G 1G11G18G28G19G 3G17G22G30G 6
  21560030.430   113298733.437                  
  22392951.297   117675740.311                  
  23503694.680   123512734.841                  
  20366576.688   107027063.677                  
  22919664.672   120443642.328                  
  21712599.711   114100487.074                  
  21525497.039   113117275.348                  
  22291042.461   117140242.543                  
  23827353.367   125213576.569                  
  23271688.938   122293556.255                  
 18  9  7  1 17  0.0000000  0 10G 1G11G18G28G19G 3G17G22G30G 6
  21575151.359   113378197.803                  
  22409316.305   117761739.454                  
  23523882.641   123618823.959                  
  20367145.805   107030056.239                  
  22904932.898   120366226.665                  
  21703998.008   114055283.367                  
  21517795.664   113076802.725                  
  22292693.297   117148917.842                  
  23845894.891   125311011.538                  
  23253927.953   122200220.069                  
 18  9  7  1 17 30.0000000  0 10G 1G11G18G28G19G 3G17G22G30G 6
  21590327.078   113457943.907                  
  22425713.531   117847907.703                  
  23544089.766   123725008.143                  
  20367805.039   107033518.713                  
  22890224.188   120288931.083                  
  21695496.867   114010610.847                  
  21510121.539   113036474.878                  
  22294448.461   117158141.486                  
  23864449.117   125408515.514                  
  23236209.844   122107114.291                  
 18  9  7  1 18  0.0000000  0 10G 1G11G18G28G19G 3G17G22G30G 6
  21605554.898   113537965.271                  
  22442142.328   117934239.642                  
  23564312.813   123831281.074                  
  20368552.438   107037448.010                  
  22875537.398   120211752.100                  
  21687096.734   113966467.526                  
  21502474.242   112996287.995                  
  22296307.430   117167909.644                  
  23883015.227   125506081.484                  
  23218536.664   122014236.154                  
 18  9  7  1 18 30.0000000  0 10G 1G11G18G28G19G 3G17G22G30G 6
  21620834.891   113618262.359                  
  22458601.539   118020736.740                  
  23584552.430   123937643.924                  
  20369389.688   107041848.229                  
  22860873.781   120134693.232                  
  21678798.242   113922858.343                  
  21494854.266   112956245.429                  
  22298270.273   117178225.109                  
  23901592.898   125603709.415                  
  23200906.297   121921589.833                  
 18  9  7  1 19  0.0000000  0 10G 1G11G18G28G19G 3G17G22G30G 6
  21636166.508   113698830.754                  
  22475092.414   118107395.427                  
  23604809.172   124044092.436                  
  20370316.453   107046717.956                  
  22846232.391   120057752.814                  
  21670601.602   113879783.274                  
  21487261.297   112916345.508                  
  22300336.945   117189085.768                  
  23920182.180   125701394.286                  
  23183320.727   121829174.512                  
 18  9  7  1 19 30.0000000  0 10G 1G11G18G28G19G 3G17G22G30G 6
  21651549.227   113779667.648                  
  22491613.461   118194214.158                  
  23625081.063   124150624.102                  
  20371332.836   107052057.921                  
  22831613.523   119980931.034                  
  21662506.023   113837243.947                  
  21479696.133   112876588.154                  
  22302507.227   117200491.031                  
  23938780.961   125799132.793                  
  23165778.234   121736991.122                  
 18  9  7  1 20  0.0000000  0 10G 1G11G18G28G19G 3G17G22G30G 6
  21666983.172   113860771.678                  
  22508164.781   118281192.281                  
  23645369.352   124257238.152                  
  20372438.469   107057869.750                  
  22817017.914   119904229.426                  
  21654514.047   113795243.248                  
  21472157.813   112836974.763                  
  22304781.578   117212441.819                  
  23957390.422   125896922.915                  
  23148281.227   121645041.821                  
 18  9  7  1 20 30.0000000  0 10G 1G11G18G28G19G 3G17G22G30G 6
  21682466.852   113942140.882                  
  22524745.930   118368328.966                  
  23665672.703   124363932.954                  
  20373634.945   107064154.804                  
  22802444.859   119827649.009                  
  21646624.148   113753783.642                  
  21464646.820   112797506.139                  
  22307159.156   117224938.282                  
  23976007.734   125994762.277                  
  23130828.594   121553328.331                  
 18  9  7  1 21  0.0000000  0 10G 1G11G18G28G19G 3G17G22G30G 6
  21698000.469   114023771.947                  
  22541357.719   118455621.537                  
  23685990.484   124470705.414                  
  20374920.836   107070912.724                  
  22787895.273   119751189.496                  
  21638837.844   113712866.140                  
  21457164.063   112758182.064                  
  22309641.383   117237979.560                  
  23994635.234   126092647.013                  
  23113421.305   121461851.050                  
 18  9  7  1 21 30.0000000  0 11G 1G11G18G28G19G24G 3G17G22G30G 6
  21713583.766   114105663.218                  
  22557998.391   118543069.356                  
  23706323.297   124577554.394                  
  20376296.711   107078145.428                  
  22773368.609   119674852.407                  
  25182898.414   132337023.4461                 
  21631155.273   113672493.301                  
  21449708.508   112719003.547                  
  22312226.477   117251565.792                  
  24013271.055   126190574.775                  
  23096059.406   121370611.808                  
 18  9  7  1 22  0.0000000  0 11G 1G11G18G28G19G24G 3G17G22G30G 6
  21729216.359   114187812.429                  
  22574668.852   118630671.275                  
  23726669.711   124684478.163                  
  20377763.953   107085853.898                  
  22758865.258   119598638.030                  
  25174958.406   132295294.855                  
  21623576.500   113632667.188                  
  21442281.094   112679971.055                  
  22314915.406   117265697.047                  
  24031913.203   126288542.970                  
  23078741.953   121279611.989                  
 18  9  7  1 22 30.0000000  0 11G 1G11G18G28G19G24G 3G17G22G30G 6
  21744897.648   114270215.855                  
  22591367.375   118718424.593                  
  23747031.563   124791473.211                  
  20379321.375   107094037.392                  
  22744385.531   119522545.733                  
  25167108.352   132254047.476                  
  21616102.078   113593388.228                  
  21434881.219   112641083.839                  
  22317707.953   117280371.787                  
  24050562.609   126386547.088                  
  23061470.492   121188851.403                  
 18  9  7  1 23  0.0000000  0 11G 1G11G18G28G19G24G 3G17G22G30G 6
  21760626.219   114352870.407                  
  22608094.805   118806327.416                  
  23767404.102   124898537.052                  
  20380969.016   107102695.891                  
  22729929.055   119446575.483                  
  25159351.852   132213280.952                  
  21608731.703   113554657.601                  
  21427508.281   112602341.442                  
  22320603.313   117295589.092                  
  24069218.219   126484583.709                  
  23044245.164   121098330.648                  
 18  9  7  1 23 30.0000000  0 11G 1G11G18G28G19G24G 3G17G22G30G 6
  21776402.602   114435776.116                  
  22624850.828   118894380.393                  
  23787792.102   125005669.938                  
  20382707.758   107111832.445                  
  22715495.977   119370730.249                  
  25151685.688   132173000.201                  
  21601466.680   113516479.484                  
  21420164.203   112563746.859                  
  22323603.156   117311350.611                  
  24087880.102   126582652.209                  
  23027065.703   121008053.179                  
 18  9  7  1 24  0.0000000  0 11G 1G11G18G28G19G24G 3G17G22G30G 6
  21792226.023   114518929.627                  
  22641634.664   118982581.189                  
  23808190.305   125112869.206                  
  20384536.883   107121446.970                  
  22701086.883   119295009.568                  
  25144113.000   132133204.112                  
  21594306.844   113478854.703                  
  21412847.805   112525299.546                  
  22326705.570   117327655.414                  
  24106547.383   126680748.757                  
  23009932.570   120918019.225                  
 18  9  7  1 24 30.0000000  0 11G 1G11G18G28G19G24G 3G17G22G30G 6
  21808095.867   114602327.430                  
  22658446.289   119070927.418                  
  23828602.664   125220131.396                  
  20386457.742   107131538.892                  
  22686701.227   119219412.737                  
  25136632.445   132093893.430                  
  21587252.484   113441783.808                  
  21405559.313   112486998.243                  
  22329912.164   117344501.756                  
  24125219.664   126778869.290                  
  22992845.883   120828228.772                  
 18  9  7  1 25  0.0000000  0 11G 1G11G18G28G19G24G 3G17G22G30G 6
  21824013.117   114685969.380                  
  22675286.148   119159419.790                  
  23849025.656   125327457.092                  
  20388469.391   107142111.208                  
  22672339.547   119143942.768                  
  25129244.688   132055071.181                  
  21580304.211   113405270.808                  
  21398299.109   112448846.225                  
  22333220.500   117361891.766                  
  24143896.078   126877013.064                  
  22975806.609   120738685.224                  
 18  9  7  1 25 30.0000000  0 11G 1G11G18G28G19G24G 3G17G22G30G 6
  21839974.852   114769851.590                  
  22692152.766   119248055.513                  
  23869460.734   125434842.912                  
  20390572.242   107153162.869                  
  22658001.422   119068598.387                  
  25121950.289   132016736.993                  
  21573462.602   113369315.865                  
  21391067.227   112410842.186                  
  22336633.469   117379823.585                  
  24162575.289   126975175.691                  
  22958813.922   120649388.231                  
 18  9  7  1 26  0.0000000  0 11G 1G11G18G28G19G24G 3G17G22G30G 6
  21855982.672   114853970.860                  
  22709046.453   119336832.293                  
  23889906.500   125542285.995                  
  20392766.969   107164693.827                  
  22643688.227   118993379.857                  
  25114749.453   131978891.2481                 
  21566726.680   113333919.773                  
  21383863.422   112372985.919                  
  22340148.258   117398295.796                  
  24181258.555   127073353.460                  
  22941868.055   120560338.025                  
 18  9  7  1 26 30.0000000  0 11G 1G11G18G28G19G24G 3G17G22G30G 6
  21872034.477   114938325.981                  
  22725967.297   119425749.795                  
  23910362.102   125649785.469                  
  20395052.445   107176706.046                  
  22629399.133   118918288.496                  
  25107640.711   131941535.951                  
  21560098.469   113299085.347                  
  21376688.094   112335278.654                  
  22343766.352   117417308.943                  
  24199943.359   127171544.530                  
  22924970.109   120471536.856                  
 18  9  7  1 27  0.0000000  0 11G 1G11G18G28G19G24G 3G17G22G30G 6
  21888131.375   115022914.874                  
  22742914.172   119514807.161                  
  23930829.516   125757339.789                  
  20397429.773   107189200.228                  
  22615134.063   118843325.357                  
  25100625.336   131904672.260                  
  21553576.383   113264814.530                  
  21369541.063   112297721.502                  
  22347487.516   117436862.650                  
  24218630.602   127269746.336                  
  22908119.391   120382986.220                  
 18  9  7  1 27 30.0000000  0 11G 1G11G18G28G19G24G 3G17G22G30G 6
  21904272.133   115107734.565                  
  22759887.281   119604002.241                  
  23951306.570   125864946.526                  
  20399899.367   107202176.012                  
  22600893.484   118768490.247                  
  25093704.094   131868300.646                  
  21547162.344   113231108.254                  
  21362422.766   112260314.343                  
  22351311.023   117456956.072                  
  24237319.414   127367955.386                  
  22891316.359   120294686.463                  
 18  9  7  1 28  0.0000000  0 11G 1G11G18G28G19G24G 3G17G22G30G 6
  21920456.438   115192782.966                  
  22776886.594   119693333.997                  
  23971792.570   125972603.969                  
  20402460.602   107215634.509                  
  22586676.992   118693784.056                  
  25086876.266   131832422.536                  
  21540856.039   113197968.355                  
  21355333.133   112223057.713                  
  22355237.359   117477589.185                  
  24256008.891   127466168.978                  
  22874561.461   120206638.958                  
 18  9  7  1 28 30.0000000  0 11G 1G11G18G28G19G24G 3G17G22G30G 6
  21936683.781   115278057.262                  
  22793911.633   119782800.579                  
  23992288.477   126080309.548                  
  20405113.398   107229575.844                  
  22572485.641   118619207.220                  
  25080142.969   131797038.457                  
  21534657.922   113165395.961                  
  21348272.008   112185951.691                  
  22359265.898   117498760.656                  
  24274698.016   127564383.868                  
  22857855.203   120118844.372                  
 18  9  7  1 29  0.0000000  0 11G 1G11G18G28G19G24G 3G17G22G30G 6
  21952953.148   115363556.608                  
  22810962.445   119872402.178                  
  24012793.617   126188063.331                  
  20407858.484   107244001.609                  
  22558319.078   118544761.369                  
  25073504.430   131762150.446                  
  21528567.688   113133393.993                  
  21341240.055   112148998.148                  
  22363397.586   117520471.176                  
  24293388.031   127662598.600                  
  22841196.672   120031305.221                  
 18  9  7  1 29 30.0000000  0 11G 1G11G18G28G19G24G 3G17G22G30G 6
  21969265.320   115449275.364                  
  22828037.680   119962133.929                  
  24033306.563   126295859.869                  
  20410695.063   107258909.583                  
  22544176.617   118470443.991                  
  25066958.438   131727756.063                  
  21522586.305   113101960.698                  
  21334236.422   112112194.347                  
  22367631.219   117542717.128                  
  24312075.820   127760806.944                  
  22824587.047   119944019.262                  
 18  9  7  1 30  0.0000000  0 11G 1G11G18G28G19G24G 3G17G22G30G 6
  21985618.953   115535214.708                  
  22845138.031   120051998.186                  
  24053827.938   126403700.900                  
  20413624.891   107274303.445                  
  22530059.766   118396259.126                  
  25060507.852   131693859.924                  
  21516714.109   113071101.077                  
  21327262.219   112075544.391                  
  22371966.594   117565501.376                  
  24330764.430   127859009.663                  
  22808025.523   119856991.074                  
 18  9  7  1 30 30.0000000  0 11G 1G11G18G28G19G24G 3G17G22G30G 6
  22002014.164   115621371.377                  
  22862263.727   120141992.819                  
  24074357.828   126511583.672                  
  20416646.734   107290182.754                  
  22515967.828   118322206.594                  
  25054153.188   131660461.818                  
  21510950.891   113040815.594                  
  21320316.930   112039047.579                  
  22376404.695   117588822.324                  
  24349449.484   127957202.920                  
  22791514.063   119770220.698                  
 18  9  7  1 31  0.0000000  0 11G 1G11G18G28G19G24G 3G17G22G30G 6
  22018449.531   115707742.001                  
  22879412.922   120232115.164                  
  24094893.797   126619505.178                  
  20419760.344   107306547.050                  
  22501901.516   118248285.987                  
  25047892.867   131627561.520                  
  21505296.844   113011104.623                  
  21313400.836   112002703.272                  
  22380944.039   117612677.949                  
  24368132.266   128055382.754                  
  22775050.563   119683708.189                  
 18  9  7  1 31 30.0000000  0 11G 1G11G18G28G19G24G 3G17G22G30G 6
  22034926.016   115794325.408                  
  22896587.484   120322365.109                  
  24115439.781   126727464.892                  
  20422967.000   107323397.671                  
  22487859.828   118174498.775                  
  25041726.008   131595160.747                  
  21499753.148   112981970.727                  
  21306514.539   111966513.316                  
  22385585.797   117637068.879                  
  24386813.055   128153547.521                  
  22758638.023   119597455.685                  
 18  9  7  1 32  0.0000000  0 11G 1G11G18G28G19G24G 3G17G22G30G 6
  22051441.930   115881116.363                  
  22913784.914   120412738.629                  
  24135989.195   126835458.000                  
  20426265.789   107340731.867                  
  22473844.273   118100842.934                  
  25035655.313   131563257.629                  
  21494318.703   112953412.315                  
  21299656.328   111930475.279                  
  22390328.141   117661991.666                  
  24405488.070   128251691.349                  
  22742274.039   119511461.263                  
 18  9  7  1 32 30.0000000  0 11G 1G11G18G28G19G24G 3G17G22G30G 6
  22067997.586   115968115.717                  
  22931006.320   120503237.782                  
  24156546.094   126943485.853                  
  20429657.188   107358553.747                  
  22459853.125   118027321.957                  
  25029680.688   131531856.134                  
  21488994.297   112925433.940                  
  21292828.094   111894592.684                  
  22395172.570   117687449.122                  
  24424160.688   128349814.623                  
  22725959.148   119425729.051                  
 18  9  7  1 33  0.0000000  0 11G 1G11G18G28G19G24G 3G17G22G30G 6
  22084592.219   116055321.079                  
  22948251.320   120593860.569                  
  24177109.938   127051546.730                  
  20433141.313   107376863.256                  
  22445889.156   117953936.473                  
  25023800.625   131500956.669                  
  21483780.563   112898036.748                  
  21286029.695   111858866.062                  
  22400118.430   117713439.721                  
  24442828.539   128447914.320                  
  22709694.805   119340259.975                  
 18  9  7  1 33 30.0000000  0 11G 1G11G18G28G19G24G 3G17G22G30G 6
  22101225.727   116142729.889                  
  22965519.719   120684605.532                  
  24197678.320   127159638.365                  
  20436718.258   107395660.748                  
  22431949.656   117880686.987                  
  25018014.859   131470559.834                  
  21478678.359   112871221.830                  
  21279260.891   111823295.694                  
  22405165.523   117739962.518                  
  24461491.289   128545987.487                  
  22693480.969   119255054.818                  
 18  9  7  1 34  0.0000000  0 11G 1G11G18G28G19G24G 3G17G22G30G 6
  22117896.516   116230337.945                  
  22982810.172   120775469.482                  
  24218252.711   127267757.198                  
  20440387.836   107414944.516                  
  22418036.406   117807572.020                  
  25012326.906   131440664.813                  
  21473685.875   112844988.500                  
  21272521.633   111787880.088                  
  22410313.461   117767014.884                  
  24480148.703   128644029.290                  
  22677316.914   119170112.549                  
 18  9  7  1 34 30.0000000  0 11G 1G11G18G28G19G24G 3G17G22G30G 6
  22134605.727   116318145.282                  
  23000124.133   120866453.457                  
  24238832.359   127375903.757                  
  20444150.656   107434717.035                  
  22404149.047   117734594.960                  
  25006734.664   131411274.078                  
  21468805.281   112819340.320                  
  21265812.219   111752622.316                  
  22415562.469   117794598.298                  
  24498800.234   128742039.317                  
  22661203.766   119085436.418                  
 18  9  7  1 35  0.0000000  0 11G 1G11G18G28G19G24G 3G17G22G30G 6
  22151352.320   116406149.488                  
  23017460.820   120957556.035                  
  24259416.945   127484075.895                  
  20448006.188   107454978.264                  
  22390288.539   117661755.800                  
  25001237.227   131382388.059                  
  21464036.477   112794278.328                  
  21259132.867   111717522.316                  
  22420911.828   117822711.709                  
  24517443.250   128840014.445                  
  22645141.242   119001027.267                  
 18  9  7  1 35 30.0000000  0 11G 1G11G18G28G19G24G 3G17G22G30G 6
  22168135.680   116494346.222                  
  23034818.484   121048774.112                  
  24280006.195   127592269.948                  
  20451954.398   107475726.460                  
  22376453.703   117589053.270                  
  24995837.039   131354005.334                  
  21459378.781   112769801.679                  
  21252483.516   111682578.820                  
  22426362.055   117851352.389                  
  24536079.883   128937949.918                  
  22629128.945   118916883.992                  
 18  9  7  1 36  0.0000000  0 11G 1G11G18G28G19G24G 3G17G22G30G 6
  22184955.641   116582733.981                  
  23052198.500   121140106.840                  
  24300598.602   127700485.050                  
  20455995.430   107496963.198                  
  22362644.844   117516488.698                  
  24990530.992   131326127.239                  
  21454832.320   112745912.248                  
  21245863.961   111647793.089                  
  22431912.383   117880519.958                  
  24554708.328   129035843.522                  
  22613168.453   118833008.225                  
 18  9  7  1 36 30.0000000  0 11G 1G11G18G28G19G24G 3G17G22G30G 6
  22201811.305   116671311.176                  
  23069600.383   121231553.953                  
  24321194.805   127808720.128                  
  20460129.914   107518689.286                  
  22348863.289   117444063.629                  
  24985323.211   131298756.033                  
  21450398.805   112722611.930                  
  21239274.320   111613166.350                  
  22437562.875   117910214.043                  
  24573329.367   129133693.509                  
  22597258.328   118749401.696                  
 18  9  7  1 37  0.0000000  0 11G 1G11G18G28G19G24G 3G17G22G30G 6
  22218702.445   116760075.403                  
  23087024.297   121323113.740                  
  24341794.500   127916973.204                  
  20464357.063   107540904.258                  
  22335107.922   117371778.128                  
  24980211.477   131271890.744                  
  21446076.852   112699901.565                  
  21232715.766   111578699.025                  
  22443313.734   117940433.719                  
  24591939.852   129231496.639                  
  22581399.656   118666065.005                  
 18  9  7  1 37 30.0000000  0 11G 1G11G18G28G19G24G 3G17G22G30G 6
  22235628.844   116849024.523                  
  23104468.648   121414785.142                  
  24362397.750   128025242.836                  
  20468678.164   107563608.626                  
  22321378.680   117299633.124                  
  24975194.438   131245532.453                  
  21441867.797   112677782.370                  
  21226187.188   111544391.742                  
  22449164.602   117971178.334                  
  24610541.648   129329250.2011                 
  22565592.945   118582999.235                  
 18  9  7  1 38  0.0000000  0 11G 1G11G18G28G19G24G 3G17G22G30G 6
  22252590.164   116938156.701                  
  23121933.898   121506567.321                  
  24383003.641   128133527.503                  
  20473091.445   107586803.061                  
  22307676.703   117227629.917                  
  24970275.422   131219682.212                  
  21437771.211   112656255.793                  
  21219689.398   111510245.621                  
  22455114.547   118002447.256                  
  24629134.500   129426951.9491                 
  22549837.789   118500205.688                  
 18  9  7  1 38 30.0000000  0 11G 1G11G18G28G19G24G 3G17G22G30G 6
  22269585.984   117027470.214                  
  23139420.727   121598459.591                  
  24403611.750   128241826.139                  
  20477598.289   107610488.075                  
  22294002.578   117155769.531                  
  24965454.016   131194341.285                  
  21433787.625   112635323.424                  
  21213222.531   111476261.470                  
  22461164.773   118034239.983                  
  24647716.633   129524599.600                  
  22534134.898   118417685.776                  
 18  9  7  1 39  0.0000000  0 11G 1G11G18G28G19G24G 3G17G22G30G 6
  22286615.500   117116962.142                  
  23156927.867   121690460.045                  
  24424222.922   128350136.322                  
  20482198.977   107634662.936                  
  22280354.953   117084052.093                  
  24960729.219   131169508.931                  
  21429917.664   112614985.533                  
  21206786.305   111442439.305                  
  22467314.078   118066554.677                  
  24666286.469   129622189.679                  
  22518484.227   118335439.692                  
 18  9  7  1 39 30.0000000  0 11G 1G11G18G28G19G24G 3G17G22G30G 6
  22303679.148   117206630.093                  
  23174455.289   121782567.080                  
  24444835.445   128458456.114                  
  20486893.078   107659327.953                  
  22266735.203   117012477.919                  
  24956099.695   131145185.753                  
  21426161.086   112595242.852                  
  21200381.125   111408779.450                  
  22473562.828   118099389.867                  
  24684846.047   129719719.178                  
  22502885.406   118253468.023                  
 18  9  7  1 40  0.0000000  0 11G 1G11G18G28G19G24G 3G17G22G30G 6
  22320775.055   117296470.048                  
  23192002.203   121874777.649                  
  24465448.789   128566782.250                  
  20491679.477   107684481.581                  
  22253141.578   116941045.604                  
  24951567.992   131121370.493                  
  21422517.172   112576094.594                  
  21194006.461   111375280.780                  
  22479909.391   118132743.174                  
  24703392.445   129817183.609                  
  22487338.625   118171769.941                  
 18  9  7  1 40 30.0000000  0 11G 1G11G18G28G19G24G 3G17G22G30G 6
  22337903.695   117386482.111                  
  23209569.383   121967093.036                  
  24486064.352   128675115.243                  
  20496559.055   107710125.899                  
  22239576.289   116869758.679                  
  24947132.273   131098065.304                  
  21418987.281   112557543.933                  
  21187663.195   111341945.950                  
  22486355.148   118166615.609                  
  24721928.289   129914582.529                  
  22471844.664   118090348.543                  
 18  9  7  1 41  0.0000000  0 11G 1G11G18G28G19G24G 3G17G22G30G 6
  22355064.602   117476663.835                  
  23227156.156   122059511.638                  
  24506680.969   128783453.233                  
  20501532.500   107736260.665                  
  22226038.172   116798617.183                  
  24942795.883   131075270.818                  
  21415570.867   112539591.582                  
  21181351.070   111308775.688                  
  22492899.203   118201005.927                  
  24740448.656   130011912.927                  
  22456403.695   118009204.474                  
 18  9  7  1 41 30.0000000  0 11G 1G11G18G28G19G24G 3G17G22G30G 6
  22372257.781   117567014.298                  
  23244762.938   122152033.486                  
  24527296.859   128891795.705                  
  20506599.320   107762887.283                  
  22212528.805   116727623.395                  
  24938555.258   131052988.790                  
  21412268.859   112522239.646                  
  21175070.773   111275771.591                  
  22499542.164   118235914.098                  
  24758956.297   130109173.401                  
  22441014.977   117928339.739                  
 18  9  7  1 42  0.0000000  0 11G 1G11G18G28G19G24G 3G17G22G30G 6
  22389482.133   117657527.451                  
  23262387.891   122244653.509                  
  24547914.500   129000137.507                  
  20511759.086   107790001.660                  
  22199046.172   116656773.817                  
  24934412.766   131031215.066                  
  21409080.609   112505485.046                  
  21168821.086   111242930.296                  
  22506282.375   118271335.057                  
  24777450.336   130206357.279                  
  22425679.516   117847751.333                  
 18  9  7  1 42 30.0000000  0 11G 1G11G18G28G19G24G 3G17G22G30G 6
  22406737.000   117748205.057                  
  23280032.094   122337374.524                  
  24568531.617   129108480.736                  
  20517012.359   107817608.172                  
  22185593.148   116586073.240                  
  24930363.898   131009954.254                  
  21406007.070   112489332.542                  
  21162603.391   111210256.372                  
  22513120.859   118307271.922                  
  24795929.188   130303465.817                  
  22410397.578   117767443.942                  
 18  9  7  1 43  0.0000000  0 11G 1G11G18G28G19G24G 3G17G22G30G 6
  22424023.023   117839043.954                  
  23297694.148   122430194.457                  
  24589148.508   129216822.667                  
  20522358.906   107845705.349                  
  22172167.609   116515521.422                  
  24926418.445   130989205.673                  
  21403047.977   112473781.934                  
  21156417.578   111177749.141                  
  22520057.305   118343722.330                  
  24814393.953   130400495.323                  
  22395168.742   117687417.442                  
 18  9  7  1 43 30.0000000  0 11G 1G11G18G28G19G24G 3G17G22G30G 6
  22441339.555   117930040.427                  
  23315375.867   122523110.425                  
  24609764.719   129325160.600                  
  20527798.828   107874292.028                  
  22158769.688   116445117.242                  
  24922565.328   130968968.148                  
  21400202.797   112458832.461                  
  21150263.273   111145408.250                  
  22527090.867   118380683.655                  
  24832840.734   130497441.445                  
  22379993.578   117607671.099                  
 18  9  7  1 44  0.0000000  0 11G 1G11G18G28G19G24G 3G17G22G30G 6
  22458685.703   118021194.061                  
  23333076.258   122616122.887                  
  24630380.258   129433494.141                  
  20533332.328   107903369.472                  
  22145401.328   116374863.458                  
  24918813.203   130949243.286                  
  21397473.109   112444486.525                  
  21144141.039   111113236.222                  
  22534221.492   118418156.252                  
  24851274.305   130594303.293                  
  22364872.469   117528207.361                  
 18  9  7  1 44 30.0000000  0 11G 1G11G18G28G19G24G 3G17G22G30G 6
  22476061.156   118112502.132                  
  23350793.313   122709230.030                  
  24650994.133   129541821.398                  
  20538958.836   107932937.215                  
  22132060.922   116304759.985                  
  24915156.992   130930031.021                  
  21394857.906   112430744.256                  
  21138050.945   111081232.346                  
  22541448.961   118456138.358                  
  24869689.625   130691077.783                  
  22349804.492   117449026.431                  
 18  9  7  1 45  0.0000000  0 11G 1G11G18G28G19G24G 3G17G22G30G 6
  22493465.266   118203964.074                  
  23368529.656   122802432.477                  
  24671605.602   129650142.365                  
  20544679.281   107962996.852                  
  22118749.383   116234809.348                  
  24911598.672   130911332.977                  
  21392358.063   112417607.944                  
  21131993.133   111049399.148                  
  22548773.656   118494630.322                  
  24888087.789   130787763.500                  
  22334791.586   117370130.696                  
 18  9  7  1 45 30.0000000  0 11G 1G11G18G28G19G24G 3G17G22G30G 6
  22510898.555   118295573.973                  
  23386282.359   122895725.153                  
  24692218.703   129758451.569                  
  20550491.977   107993544.396                  
  22105466.891   116165008.421                  
  24908137.961   130893145.636                  
  21389972.914   112405074.380                  
  21125967.328   111017733.570                  
  22556194.664   118533626.847                  
  24906469.008   130884354.129                  
  22319831.523   117291517.017                  
 18  9  7  1 46  0.0000000  0 11G 1G11G18G28G19G24G 3G17G22G30G 6
  22528359.734   118387333.139                  
  23404053.109   122989110.321                  
  24712826.297   129866751.019                  
  20556398.469   108024582.712                  
  22092213.547   116095361.260                  
  24904774.648   130875472.541                  
  21387703.148   112393147.655                  
  21119974.180   110986239.619                  
  22563711.961   118573130.363                  
  24924831.836   130980850.479                  
  22304926.813   117213189.648                  
 18  9  7  1 46 30.0000000  0 11G 1G11G18G28G19G24G 3G17G22G30G 6
  22545848.563   118479237.433                  
  23421840.531   123082584.919                  
  24733432.852   129975037.309                  
  20562397.773   108056110.151                  
  22078989.039   116025866.547                  
  24901508.945   130858311.757                  
  21385549.164   112381826.365                  
  21114013.641   110954915.796                  
  22571325.070   118613137.411                  
  24943175.570   131077247.735                  
  22290075.508   117135147.296                  
 18  9  7  1 47  0.0000000  0 11G 1G11G18G28G19G24G 3G17G22G30G 6
  22563364.242   118571284.589                  
  23439645.250   123176147.658                  
  24754035.477   130083308.425                  
  20568490.320   108088126.389                  
  22065793.445   115956524.815                  
  24898341.242   130841663.359                  
  21383509.984   112371110.833                  
  21108085.281   110923762.737                  
  22579033.578   118653646.501                  
  24961499.383   131173543.206                  
  22275278.898   117057390.494                  
 18  9  7  1 47 30.0000000  0 11G 1G11G18G28G19G24G 3G17G22G30G 6
  22580907.172   118663474.927                  
  23457466.508   123269799.730                  
  24774636.219   130191565.357                  
  20574676.648   108120633.453                  
  22052628.070   115887339.433                  
  24895271.063   130825529.444                  
  21381586.734   112361004.066                  
  21102190.375   110892783.565                  
  22586838.383   118694658.961                  
  24979802.930   131269736.6771                 
  22260537.453   116979922.432                  
 18  9  7  1 48  0.0000000  0 11G 1G11G18G28G19G24G 3G17G22G30G 6
  22598477.391   118755804.316                  
  23475304.461   123363537.790                  
  24795233.031   130299804.808                  
  20580955.008   108153629.033                  
  22039492.250   115818308.985                  
  24892298.313   130809908.151                  
  21379779.273   112351504.559                  
  21096327.563   110861976.758                  
  22594737.477   118736171.119                  
  24998089.648   131365823.3961                 
  22245850.563   116902741.720                  
 18  9  7  1 48 30.0000000  0 11G 1G11G18G28G19G24G 3G17G22G30G 6
  22616073.391   118848271.747                  
  23493159.109   123457361.882                  
  24815826.414   130408026.055                  
  20587326.922   108187113.923                  
  22026385.500   115749435.155                  
  24889423.688   130794801.279                  
  21378087.273   112342613.775                  
  21090498.891   110831344.072                  
  22602732.328   118778182.526                  
  25016354.008   131461801.823                  
  22231218.438   116825850.097                  
 18  9  7  1 49  0.0000000  0 11G 1G11G18G28G19G24G 3G17G22G30G 6
  22633695.039   118940875.056                  
  23511028.641   123551270.928                  
  24836417.086   130516227.799                  
  20593792.125   108221088.124                  
  22013309.391   115680718.654                  
  24886646.227   130780208.020                  
  21376511.359   112334332.167                  
  21084703.070   110800886.195                  
  22610821.773   118820692.061                  
  25034596.984   131557669.3251                 
  22216641.945   116749248.270                  
 18  9  7  1 49 30.0000000  0 11G 1G11G18G28G19G24G 3G17G22G30G 6
  22651342.531   119033612.280                  
  23528914.438   123645263.726                  
  24857003.586   130624408.458                  
  20600350.289   108255551.037                  
  22000263.305   115612160.497                  
  24883967.789   130766128.770                  
  21375051.453   112326660.179                  
  21078940.461   110770603.845                  
  22619005.023   118863698.168                  
  25052819.203   131653423.225                  
  22202119.883   116672936.922                  
 18  9  7  1 50  0.0000000  0 11G 1G11G18G28G19G24G 3G17G22G30G 6
  22669015.008   119126480.633                  
  23546817.180   123739338.630                  
  24877585.625   130732565.7941                 
  20607001.078   108290501.708                  
  21987246.953   115543760.715                  
  24881384.758   130752563.024                  
  21373707.375   112319597.545                  
  21073210.859   110740496.746                  
  22627283.047   118907198.588                  
  25071017.766   131749060.4901                 
  22187653.141   116596916.066                  
 18  9  7  1 50 30.0000000  0 11G 1G11G18G28G19G24G 3G17G22G30G 6
  22686711.680   119219478.716                  
  23564734.992   123833494.976                  
  24898161.484   130840699.023                  
  20613745.117   108325940.721                  
  21974262.039   115475520.722                  
  24878902.289   130739510.605                  
  21372479.547   112313145.300                  
  21067515.547   110710566.494                  
  22635655.008   118951192.720                  
  25089193.922   131844579.0581                 
  22173242.484   116521186.962                  
 18  9  7  1 51  0.0000000  0 11G 1G11G18G28G19G24G 3G17G22G30G 6
  22704433.023   119312604.670                  
  23582666.914   123927731.801                  
  24918734.227   130948806.869                  
  20620581.750   108361867.689                  
  21961306.633   115407441.274                  
  24876516.680   130726972.303                  
  21371368.117   112307303.857                  
  21061853.859   110680814.003                  
  22644120.805   118995679.108                  
  25107347.344   131939976.2801                 
  22158887.859   116445750.400                  
 18  9  7  1 51 30.0000000  0 10G 1G11G18G28G19G24G 3G17G22G 6
  22722177.984   119405856.677                  
  23600615.383   124022048.343                  
  24939301.008   131056888.241                  
  20627511.180   108398282.564                  
  21948382.313   115339523.430                  
  24874227.586   130714947.899                  
  21370372.867   112302073.842                  
  21056225.891   110651240.046                  
  22652679.266   119040656.440                  
  22144588.141   116370607.313                  
 18  9  7  1 52  0.0000000  0 10G 1G11G18G28G19G24G 3G17G22G 6
  22739946.992   119499231.660                  
  23618577.195   124116442.504                  
  24959862.961   131164940.769                  
  20634533.375   108435183.846                  
  21935488.695   115271767.044                  
  24872037.109   130703436.332                  
  21369493.570   112297454.453                  
  21050632.156   110621843.957                  
  22661330.953   119086122.268                  
  22130344.852   116295757.259                  
 18  9  7  1 52 30.0000000  0 10G 1G11G18G28G19G24G 3G17G22G 6
  22757738.359   119592727.823                  
  23636555.227   124210913.387                  
  24980419.648   131272962.954                  
  20641647.828   108472571.376                  
  21922625.188   115204172.938                  
  24869944.758   130692437.354                  
  21368730.891   112293446.175                  
  21045072.469   110592627.588                  
  22670076.047   119132075.348                  
  22116157.359   116221201.034                  
 18  9  7  1 53  0.0000000  0  9G 1G11G28G19G24G 3G17G22G 6
  22775553.289   119686345.454                  
  23654547.281   124305462.114                  
  20648855.055   108510447.166                  
  21909794.766   115136744.373                  
  24867949.828   130681953.754                  
  21368085.047   112290051.545                  
  21039547.273   110563593.018                  
  22678912.922   119178516.361                  
  22102026.398   116146941.623                  
 18  9  7  1 53 30.0000000  0  9G 1G11G28G19G24G 3G17G22G 6
  22793390.719   119780079.653                  
  23672553.242   124400084.824                  
  20656155.156   108548807.865                  
  21896994.156   115069479.425                  
  24866052.180   130671982.313                  
  21367555.188   112287267.863                  
  21034056.398   110534738.269                  
  22687842.695   119225440.915                  
  22087951.289   116072976.666                  
 18  9  7  1 54  0.0000000  0  9G 1G11G28G19G24G 3G17G22G 6
  22811249.922   119873929.640                  
  23690573.508   124494781.502                  
  20663547.344   108587654.083                  
  21884225.297   115002379.691                  
  24864251.234   130662523.784                  
  21367142.109   112285096.461                  
  21028600.125   110506065.020                  
  22696864.156   119272848.579                  
  22073932.586   115999307.939                  
 18  9  7  1 54 30.0000000  0  9G 1G11G28G19G24G 3G17G22G 6
  22829130.492   119967894.186                  
  23708607.063   124589552.190                  
  20671032.016   108626986.126                  
  21871489.063   114935446.664                  
  24862549.617   130653578.119                  
  21366845.422   112283538.346                  
  21023178.719   110477574.969                  
  22705976.867   119320738.297                  
  22059970.406   115925936.850                  
 18  9  7  1 55  0.0000000  0  9G 1G11G28G19G24G 3G17G22G 6
  22847032.445   120061968.695                  
  23726655.508   124684392.954                  
  20678608.469   108666800.873                  
  21858783.477   114868678.986                  
  24860943.500   130645143.083                  
  21366665.125   112282590.938                  
  21017791.648   110449266.656                  
  22715180.938   119369106.185                  
  22046064.586   115852861.325                  
 18  9  7  1 55 30.0000000  0  9G 1G11G28G19G24G 3G17G22G 6
  22864955.180   120156154.019                  
  23744716.563   124779305.524                  
  20686277.203   108707100.792                  
  21846110.203   114802080.077                  
  24859437.695   130637221.173                  
  21366601.703   112282257.150                  
  21012440.047   110421143.419                  
  22724476.156   119417953.302                  
  22032215.797   115780084.697                  
 18  9  7  1 56  0.0000000  0  9G 1G11G28G19G24G 3G17G22G 6
  22882898.531   120250447.914                  
  23762791.148   124874288.543                  
  20694038.070   108747884.682                  
  21833468.992   114735650.461                  
  24858027.352   130629811.730                  
  21366655.242   112282536.787                  
  21007123.563   110393205.357                  
  22733862.688   119467277.890                  
  22018423.461   115707607.256                  
 18  9  7  1 56 30.0000000  0  9G 1G11G28G19G24G 3G17G22G 6
  22900862.695   120344849.138                  
  23780878.953   124969341.850                  
  20701891.539   108789152.985                  
  21820859.961   114669391.616                  
  24856714.258   130622915.061                  
  21366825.063   112283430.589                  
  21001842.953   110365454.200                  
  22743339.305   119517078.722                  
  22004688.453   115635430.291                  
 18  9  7  1 57  0.0000000  0  9G 1G11G28G19G24G 3G17G22G 6
  22918846.477   120439353.242                  
  23798980.508   125064461.667                  
  20709836.164   108830902.568                  
  21808283.523   114603302.005                  
  24855500.023   130616528.690                  
  21367111.563   112284936.079                  
  20996597.109   110337888.259                  
  22752905.844   119567351.805                  
  21991009.914   115563551.751                  
 18  9  7  1 57 30.0000000  0  9G 1G11G28G19G24G 3G17G22G 6
  22936848.969   120533958.522                  
  23817093.398   125159647.470                  
  20717872.359   108873132.798                  
  21795739.578   114537382.612                  
  24854381.781   130610652.367                  
  21367514.750   112287053.326                  
  20991386.844   110310508.185                  
  22762562.352   119618095.461                  
  21977389.227   115491972.386                  
 18  9  7  1 58  0.0000000  0  9G 1G11G28G19G24G 3G17G22G 6
  22954871.516   120628665.267                  
  23835219.070   125254900.112                  
  20726000.016   108915845.736                  
  21783228.570   114471636.655                  
  24853359.617   130605287.243                  
  21368034.750   112289784.686                  
  20986212.383   110283317.161                  
  22772308.086   119669310.296                  
  21963825.711   115420695.037                  
 18  9  7  1 58 30.0000000  0  9G 1G11G28G19G24G 3G17G22G 6
  22972912.313   120723470.848                  
  23853358.039   125350218.123                  
  20734219.828   108959039.811                  
  21770750.414   114406063.898                  
  24852436.227   130600432.862                  
  21368670.539   112293129.231                  
  20981074.320   110256315.219                  
  22782142.625   119720993.875                  
  21950319.547   115349719.386                  
 18  9  7  1 59  0.0000000  0  9G 1G11G28G19G24G 3G17G22G 6
  22990972.023   120818373.312                  
  23871508.086   125445600.441                  
  20742531.094   109002714.450                  
  21758305.781   114340665.267                  
  24851610.211   130596088.588                  
  21369423.805   112297086.886                  
  20975972.266   110229503.061                  
  22792067.188   119773144.522                  
  21936870.672   115279045.934                  
 18  9  7  1 59 30.0000000  0  9G 1G11G28G19G24G 3G17G22G 6
  23009048.789   120913370.470                  
  23889671.141   125541045.571                  
  20750933.102   109046868.428                  
  21745893.648   114275440.982                  
  24850880.555   130592253.607                  
  21370293.375   112301657.201                  
  20970906.094   110202881.040                  
  22802079.305   119825760.174                  
  21923479.594   115208674.843                  
 18  9  7  2  0  0.0000000  0  9G 1G11G28G19G24G 3G17G22G 6
  23027143.375   121008459.083                  
  23907844.938   125636551.341                  
  20759426.000   109091499.705                  
  21733515.195   114210391.247                  
  24850247.219   130588926.200                  
  21371279.445   112306838.628                  
  20965876.336   110176448.659                  
  22812179.773   119878837.602                  
  21910145.688   115138605.243                  
 18  9  7  2  0 30.0000000  0  9G 1G11G28G19G24G 3G17G22G 6
  23045256.117   121103640.033                  
  23926031.234   125732119.226                  
  20768010.461   109136610.570                  
  21721170.953   114145519.346                  
  24849711.180   130586108.307                  
  21372382.219   112312633.791                  
  20960882.703   110150209.379                  
  22822368.070   119932377.821                  
  21896869.828   115068840.369                  
 18  9  7  2  1  0.0000000  0  9G 1G11G28G19G24G 3G17G22G 6
  23063385.125   121198909.725                  
  23944229.094   125827746.750                  
  20776685.586   109182198.334                  
  21708859.414   114080824.555                  
  24849271.758   130583797.705                  
  21373601.516   112319040.716                  
  20955926.563   110124162.250                  
  22832644.211   119986377.376                  
  21883652.195   114999378.896                  
 18  9  7  2  1 30.0000000  0  9G 1G11G28G19G24G 3G17G22G 6
  23081531.266   121294268.845                  
  23962437.547   125923435.276                  
  20785451.625   109228264.924                  
  21696582.945   114016310.247                  
  24848928.188   130581996.729                  
  21374937.172   112326061.762                  
  20951007.172   110098310.737                  
  22843007.219   120040836.895                  
  21870492.055   114930223.913                  
 18  9  7  2  2  0.0000000  0  9G 1G11G28G19G24G 3G17G22G 6
  23099693.727   121389711.598                  
  23980657.313   126019180.166                  
  20794308.156   109274805.654                  
  21684339.867   113951973.168                  
  24848681.875   130580700.5471                 
  21376389.609   112333692.660                  
  20946124.180   110072651.635                  
  22853456.805   120095750.656                  
  21857389.961   114861371.842                  
 18  9  7  2  2 30.0000000  0  9G 1G11G28G19G24G 3G17G22G 6
  23117871.805   121485239.996                  
  23998888.000   126114984.018                  
  20803255.320   109321823.430                  
  21672131.523   113887818.126                  
  24848531.719   130579912.357                  
  21377958.453   112341936.959                  
  20941278.727   110047189.654                  
  22863993.813   120151120.724                  
  21844346.227   114792826.966                  
 18  9  7  2  3  0.0000000  0  9G 1G11G28G19G24G 3G17G22G 6
  23136065.992   121580849.660                  
  24017129.758   126210843.494                  
  20812292.750   109369315.104                  
  21659957.430   113823843.579                  
  24848477.891   130579628.892                  
  21379643.313   112350791.881                  
  20936470.945   110021922.905                  
  22874616.344   120206942.675                  
  21831360.680   114724587.257                  
 18  9  7  2  3 30.0000000  0  9G 1G11G28G19G24G 3G17G22G 6
  23154275.531   121676539.288                  
  24035381.508   126306758.109                  
  20821420.211   109417280.199                  
  21647818.516   113760050.905                  
  24848519.023   130579850.882                  
  21381444.555   112360257.492                  
  20931700.172   109996852.669                  
  22885325.055   120263215.268                  
  21818432.961   114656653.525                  
 18  9  7  2  4  0.0000000  0  9G 1G11G28G19G24G 3G17G22G 6
  23172500.164   121772309.511                  
  24053645.250   126402729.351                  
  20830638.047   109465720.308                  
  21635714.273   113696443.261                  
  24848658.875   130580578.990                  
  21383362.789   112370335.939                  
  20926967.500   109971982.245                  
  22896118.641   120319939.055                  
  21805564.703   114589028.724                  
 18  9  7  2  4 30.0000000  0  9G 1G11G28G19G24G 3G17G22G 6
  23190739.344   121868156.188                  
  24071917.930   126498753.808                  
  20839945.953   109514632.375                  
  21623645.375   113633019.366                  
  24848893.563   130581810.801                  
  21385396.234   112381024.493                  
  20922272.352   109947310.166                  
  22906998.125   120377109.802                  
  21792754.430   114521710.846                  
 18  9  7  2  5  0.0000000  0  9G 1G11G28G19G24G 3G17G22G 6
  23208992.227   121964078.555                  
  24090200.227   126594831.665                  
  20849343.383   109564016.435                  
  21611611.375   113569781.065                  
  24849222.594   130583546.376                  
  21387546.367   112392323.718                  
  20917615.523   109922838.073                  
  22917962.211   120434726.318                  
  21780002.922   114454701.310                  
 18  9  7  2  5 30.0000000  0  9G 1G11G28G19G24G 3G17G22G 6
  23227259.922   122060075.096                  
  24108494.047   126690962.185                  
  20858830.492   109613871.854                  
  21599613.336   113506729.679                  
  24849649.984   130585785.507                  
  21389812.664   112404233.359                  
  20912996.969   109898567.317                  
  22929010.945   120492787.105                  
  21767310.250   114388000.753                  
 18  9  7  2  6  0.0000000  0  9G 1G11G28G19G24G 3G17G22G 6
  23245540.930   122156141.814                  
  24126795.984   126787142.374                  
  20868406.805   109664195.409                  
  21587650.156   113443863.667                  
  24850170.734   130588525.046                  
  21392195.078   112416750.828                  
  20908416.781   109874496.348                  
  22940142.891   120551288.232                  
  21754676.125   114321607.312                  
 18  9  7  2  6 30.0000000  0  9G 1G11G28G19G24G 3G17G22G 6
  23263835.305   122252278.277                  
  24145107.164   126883372.537                  
  20878072.219   109714987.630                  
  21575722.906   113381185.660                  
  24850786.680   130591765.554                  
  21394692.406   112429876.842                  
  20903874.594   109850627.548                  
  22951358.984   120610228.941                  
  21742100.867   114255522.689                  
 18  9  7  2  7  0.0000000  0  9G 1G11G28G19G24G 3G17G22G 6
  23282142.000   122348482.379                  
  24163429.102   126979651.1861                 
  20887826.336   109766247.282                  
  21563831.172   113318695.991                  
  24851499.602   130595506.260                  
  21397306.156   112443610.631                  
  20899370.906   109826961.206                  
  22962658.102   120669607.007                  
  21729583.938   114189746.929                  
 18  9  7  2  7 30.0000000  0  9G 1G11G28G19G24G 3G17G22G 6
  23300462.336   122444752.818                  
  24181760.219   127075978.324                  
  20897669.695   109817973.880                  
  21551975.938   113256396.359                  
  24852307.070   130599746.327                  
  21400035.531   112457952.177                  
  20894906.320   109803498.739                  
  22974040.789   120729421.116                  
  21717126.133   114124280.928                  
 18  9  7  2  8  0.0000000  0  9G 1G11G28G19G24G 3G17G22G 6
  23318794.133   122541088.616                  
  24200099.539   127172353.221                  
  20907601.633   109870166.847                  
  21540157.156   113194287.979                  
  24853207.406   130604485.320                  
  21402880.141   112472901.369                  
  20890480.570   109780241.543                  
  22985505.727   120789669.650                  
  21704727.703   114059125.459                  
 18  9  7  2  8 30.0000000  0  9G 1G11G28G19G24G 3G17G22G 6
  23337138.328   122637487.560                  
  24218448.273   127268774.927                  
  20917622.063   109922824.893                  
  21528375.258   113132371.525                  
  24854204.523   130609722.561                  
  21405840.273   112488457.201                  
  20886093.805   109757189.900                  
  22997052.945   120850349.970                  
  21692387.820   113994280.506                  
 18  9  7  2  9  0.0000000  0  9G 1G11G28G19G24G 3G17G22G 6
  23355493.938   122733948.545                  
  24236806.125   127365242.885                  
  20927731.273   109975947.555                  
  21516629.227   113070648.502                  
  24855295.914   130615457.825                  
  21408915.758   112504619.711                  
  20881747.094   109734345.404                  
  23008681.617   120911461.004                  
  21680108.195   113929747.034                  
 18  9  7  2  9 30.0000000  0  9G 1G11G28G19G24G 3G17G22G 6
  23373861.602   122830470.457                  
  24255171.148   127461756.919                  
  20937928.391   110029534.031                  
  21504921.117   113009120.515                  
  24856483.047   130621690.407                  
  21412106.797   112521388.788                  
  20877439.367   109711709.645                  
  23020392.484   120973001.279                  
  21667886.852   113865525.906                  
 18  9  7  2 10  0.0000000  0  9G 1G11G28G19G24G 3G17G22G 6
  23392239.867   122927048.640                  
  24273544.742   127558313.073                  
  20948212.992   110083580.809                  
  21493249.391   112947785.519                  
  24857762.422   130628416.1151                 
  21415412.984   112538760.841                  
  20873171.352   109689280.332                  
  23032184.063   121034966.293                  
  21655724.750   113801614.520                  
 18  9  7  2 10 30.0000000  0  9G 1G11G28G19G24G 3G17G22G 6
  23410629.164   123023684.845                  
  24291927.461   127654914.156                  
  20958585.852   110138090.128                  
  21481615.367   112886647.838                  
  24859137.352   130635638.039                  
  21418834.164   112556738.557                  
  20868943.063   109667061.895                  
  23044056.078   121097356.869                  
  21643622.203   113738016.543                  
 18  9  7  2 11  0.0000000  0  9G 1G11G28G19G24G 3G17G22G 6
  23429028.820   123120376.156                  
  24310318.750   127751557.658                  
  20969046.305   110193059.735                  
  21470018.523   112825707.305                  
  24860604.891   130643353.701                  
  21422369.727   112575319.914                  
  20864755.125   109645053.749                  
  23056009.742   121160169.709                  
  21631579.563   113674730.964                  
 18  9  7  2 11 30.0000000  0  9G 1G11G28G19G24G 3G17G22G 6
  23447438.641   123217121.481                  
  24328717.117   127848243.559                  
  20979594.305   110248488.832                  
  21458459.852   112764965.702                  
  24862166.242   130651563.1741                 
  21426020.656   112594504.861                  
  20860607.273   109623257.631                  
  23068042.289   121223403.496                  
  21619596.289   113611758.798                  
 18  9  7  2 12  0.0000000  0  9G 1G11G28G19G24G 3G17G22G 6
  23465858.164   123313917.799                  
  24347123.852   127944969.597                  
  20990229.008   110304375.198                  
  21446938.586   112704422.499                  
  24863823.523   130660263.5921                 
  21429785.906   112614291.090                  
  20856499.906   109601672.764                  
  23080155.398   121287054.907                  
  21607672.828   113549098.780                  
 18  9  7  2 12 30.0000000  0  9G 1G11G28G19G24G 3G17G22G 6
  23484287.555   123410762.334                  
  24365537.117   128041733.5561                 
  21000950.469   110360716.269                  
  21435455.422   112644077.237                  
  24865571.320   130669452.117                  
  21433664.984   112634676.722                  
  20852432.500   109580298.931                  
  23092346.461   121351120.659                  
  21595808.055   113486750.103                  
 18  9  7  2 13  0.0000000  0  9G 1G11G28G19G24G 3G17G22G 6
  23502725.438   123507657.795                  
  24383958.617   128138539.217                  
  21011758.891   110417515.091                  
  21424010.773   112583935.488                  
  24867413.625   130679133.084                  
  21437658.953   112655665.251                  
  20848406.711   109559141.451                  
  23104617.156   121415602.891                  
  21584003.469   113424717.306                  
 18  9  7  2 13 30.0000000  0  9G 1G11G28G19G24G 3G17G22G 6
  23521173.625   123604600.683                  
  24402386.984   128235383.691                  
  21022653.953   110474768.919                  
  21412604.734   112523996.302                  
  24869348.398   130689303.999                  
  21441766.891   112677253.976                  
  20844421.719   109538199.435                  
  23116965.633   121480498.000                  
  21572259.055   113362998.901                  
 18  9  7  2 14  0.0000000  0  9G 1G11G28G19G24G 3G17G22G 6
  23539629.766   123701588.068                  
  24420823.828   128332264.970                  
  21033634.930   110532475.207                  
  21401237.453   112464259.582                  
  24871375.781   130699961.195                  
  21445989.172   112699440.679                  
  20840477.203   109517472.340                  
  23129392.945   121545802.228                  
  21560574.094   113301593.653                  
 18  9  7  2 14 30.0000000  0  9G 1G11G28G19G24G 3G17G22G 6
  23558094.445   123798619.851                  
  24439267.500   128429183.613                  
  21044702.180   110590634.193                  
  21389909.102   112404727.716                  
  24873498.227   130711105.537                  
  21450325.125   112722225.983                  
  20836574.492   109496962.795                  
  23141897.930   121611515.015                  
  21548948.984   113240503.430                  
 18  9  7  2 15  0.0000000  0  9G 1G11G28G19G24G 3G17G22G 6
  23576567.023   123895694.017                  
  24457716.445   128526138.186                  
  21055855.477   110649244.212                  
  21378619.328   112345401.193                  
  24875710.297   130722735.414                  
  21454774.344   112745608.448                  
  20832713.477   109476670.939                  
  23154479.930   121677634.180                  
  21537383.820   113179727.868                  
 18  9  7  2 15 30.0000000  0  9G 1G11G28G19G24G 3G17G22G 6
  23595047.641   123992808.327                  
  24476173.469   128623127.389                  
  21067094.031   110708303.345                  
  21367369.219   112286280.434                  
  24878015.875   130734849.287                  
  21459337.211   112769586.417                  
  20828893.055   109456596.901                  
  23167138.641   121744156.387                  
  21525878.313   113119266.563                  
 18  9  7  2 16  0.0000000  0  9G 1G11G28G19G24G 3G17G22G 6
  23613535.117   124089962.087                  
  24494636.641   128720151.371                  
  21078418.375   110767811.420                  
  21356158.211   112227367.547                  
  24880412.781   130747447.276                  
  21464013.547   112794159.990                  
  20825115.141   109436742.859                  
  23179874.000   121811080.673                  
  21514432.867   113059120.719                  
 18  9  7  2 16 30.0000000  0  9G 1G11G28G19G24G 3G17G22G 6
  23632030.922   124187153.628                  
  24513106.289   128817209.047                  
  21089826.820   110827766.626                  
  21344987.250   112168663.282                  
  24882902.805   130760527.208                  
  21468802.938   112819327.949                  
  20821378.938   109417109.672                  
  23192684.797   121878404.505                  
  21503047.289   112999290.339                  
 18  9  7  2 17  0.0000000  0  9G 1G11G28G19G24G 3G17G22G 6
  23650532.305   124284383.434                  
  24531582.102   128914301.7191                 
  21101321.438   110888169.747                  
  21333856.641   112110170.738                  
  24885484.125   130774090.165                  
  21473705.344   112845091.237                  
  20817685.531   109397700.110                  
  23205572.641   121946128.138                  
  21491722.633   112939777.609                  
 18  9  7  2 17 30.0000000  0  9G 1G11G28G19G24G 3G17G22G 6
  23669041.320   124381646.680                  
  24550064.414   129011425.362                  
  21112899.938   110949016.400                  
  21322765.711   112051887.648                  
  24888155.328   130788131.385                  
  21478720.781   112871445.650                  
  20814034.102   109378512.126                  
  23218535.289   122014246.121                  
  21480457.258   112880579.487                  
 18  9  7  2 18  0.0000000  0  9G 1G11G28G19G24G 3G17G22G 6
  23687556.742   124478942.891                  
  24568552.031   129108579.925                  
  21124563.227   111010306.044                  
  21311714.875   111993816.054                  
  24890918.219   130802650.782                  
  21483848.148   112898391.046                  
  20810424.859   109359546.956                  
  23231572.078   122082757.303                  
  21469252.289   112821697.146                  
 18  9  7  2 18 30.0000000  0  9G 1G11G28G19G24G 3G17G22G 6
  23706077.047   124576270.220                  
  24587046.289   129205764.4941                 
  21136310.367   111072037.209                  
  21300705.047   111935956.868                  
  24893771.344   130817647.289                  
  21489087.984   112925926.022                  
  20806858.938   109340805.793                  
  23244683.891   122151658.732                  
  21458107.844   112763130.434                  
 18  9  7  2 19  0.0000000  0  9G 1G11G28G19G24G 3G17G22G 6
  23724604.523   124673630.731                  
  24605545.000   129302981.956                  
  21148141.742   111134212.138                  
  21289735.609   111878314.596                  
  24896716.586   130833122.489                  
  21494439.891   112954053.114                  
  20803335.938   109322292.994                  
  23257869.383   122220952.430                  
  21447023.805   112704883.166                  
 18  9  7  2 19 30.0000000  0  9G 1G11G28G19G24G 3G17G22G 6
  23743135.844   124771018.498                  
  24624050.883   129400226.987                  
  21160056.383   111196824.852                  
  21278807.508   111820885.984                  
  24899752.766   130849071.042                  
  21499904.266   112982766.609                  
  20799855.883   109304004.741                  
  23271129.656   122290631.567                  
  21435999.711   112646950.943                  
 18  9  7  2 20  0.0000000  0  9G 1G11G28G19G24G 3G17G22G 6
  23761672.336   124868432.289                  
  24642561.758   129497499.288                  
  21172054.617   111259874.417                  
  21267920.125   111763672.452                  
  24902876.078   130865492.021                  
  21505479.469   113012065.756                  
  20796418.648   109285942.730                  
  23284462.008   122360694.060                  
  21425035.227   112589334.235                  
 18  9  7  2 20 30.0000000  0  9G 1G11G28G19G24G 3G17G22G 6
  23780215.789   124965874.400                  
  24661076.531   129594801.494                  
  21184135.797   111323362.457                  
  21257074.711   111706678.505                  
  24906091.156   130882387.313                  
  21511167.039   113041952.948                  
  20793025.531   109268111.479                  
  23297867.922   122431141.350                  
  21414131.977   112532036.853                  
 18  9  7  2 21  0.0000000  0  9G 1G11G28G19G24G 3G17G22G 6
  23798763.547   125063341.791                  
  24679597.711   129692131.562                  
  21196300.680   111387286.907                  
  21246270.859   111649904.245                  
  24909396.492   130899754.641                  
  21516965.852   113072425.589                  
  20789676.156   109250510.547                  
  23311345.828   122501970.168                  
  21403289.500   112475057.497                  
 18  9  7  2 21 30.0000000  0  9G 1G11G28G19G24G 3G17G22G 6
  23817315.172   125160829.993                  
  24698123.875   129789485.425                  
  21208547.148   111451643.026                  
  21235507.789   111593347.004                  
  24912790.539   130917589.137                  
  21522875.078   113103479.382                  
  20786370.078   109233137.840                  
  23324896.039   122573174.768                  
  21392506.727   112418393.178                  
 18  9  7  2 22  0.0000000  0  9G 1G11G28G19G24G 3G17G22G 6
  23835871.805   125258342.593                  
  24716654.375   129886867.764                  
  21220876.656   111516434.423                  
  21224787.766   111537013.281                  
  24916274.266   130935894.887                  
  21528895.570   113135118.030                  
  20783108.953   109215999.102                  
  23338517.852   122644758.342                  
  21381784.672   112362049.073                  
 18  9  7  2 22 30.0000000  0 10G 1G11G23G28G19G24G 3G17G22G 6
  23854430.820   125355874.511                  
  24735192.195   129984274.0481                 
  25476692.656   133880925.1891                 
  21233287.430   111581655.889                  
  21214110.031   111480900.566                  
  24919845.852   130954666.039                  
  21535026.867   113167336.639                  
  20779891.609   109199091.715                  
  23352210.406   122716715.011                  
  21371122.688   112306021.634                  
 18  9  7  2 23  0.0000000  0 10G 1G11G23G28G19G24G 3G17G22G 6
  23872994.664   125453426.571                  
  24753732.922   130081705.683                  
  25464022.484   133814341.700                  
  21245780.836   111647307.994                  
  21203474.992   111425012.132                  
  24923506.602   130973903.850                  
  21541268.633   113200136.128                  
  20776719.125   109182418.792                  
  23365974.242   122789044.726                  
  21360522.234   112250313.163                  
 18  9  7  2 23 30.0000000  0 10G 1G11G23G28G19G24G 3G17G22G 6
  23891560.953   125550994.188                  
  24772276.656   130179158.6391                 
  25451361.148   133747808.054                  
  21258355.094   111713385.975                  
  21192882.383   111369346.082                  
  24927255.148   130993603.944                  
  21547619.367   113233512.063                  
  20773590.180   109165978.150                  
  23379808.266   122861741.828                  
  21349980.961   112194920.615                  
 18  9  7  2 24  0.0000000  0 10G 1G11G23G28G19G24G 3G17G22G 6
  23910130.133   125648579.472                  
  24790826.664   130276635.7661                 
  25438711.023   133681330.180                  
  21271010.695   111779892.208                  
  21182332.469   111313906.756                  
  24931091.055   131013767.991                  
  21554080.961   113267466.623                  
  20770506.961   109149774.817                  
  23393712.695   122934807.655                  
  21339501.094   112139847.609                  
 18  9  7  2 24 30.0000000  0 10G 1G11G23G28G19G24G 3G17G22G 6
  23928703.781   125746179.376                  
  24809380.188   130374134.828                  
  25426071.578   133614909.010                  
  21283747.344   111846823.341                  
  21171825.594   111258693.989                  
  24935016.922   131034392.654                  
  21560651.914   113301996.724                  
  20767468.500   109133807.687                  
  23407685.969   123008238.350                  
  21329081.406   112085092.522                  
 18  9  7  2 25  0.0000000  0 10G 1G11G23G28G19G24G 3G17G22G 6
  23947278.563   125843792.777                  
  24827937.680   130471655.424                  
  25413443.883   133548547.525                  
  21296564.578   111914178.069                  
  21161362.625   111203709.024                  
  24939030.758   131055477.197                  
  21567332.000   113337101.301                  
  20764475.438   109118077.833                  
  23421728.031   123082031.967                  
  21318722.711   112030655.757                  
 18  9  7  2 25 30.0000000  0 10G 1G11G23G28G19G24G 3G17G22G 6
  23965856.266   125941418.638                  
  24846498.742   130569196.8071                 
  25400828.078   133482248.957                  
  21309462.023   111981955.009                  
  21150943.055   111148953.196                  
  24943128.492   131077020.394                  
  21574121.469   113372779.223                  
  20761527.461   109102586.834                  
  23435839.094   123156186.351                  
  21308424.289   111976537.645                  
 18  9  7  2 26  0.0000000  0 10G 1G11G23G28G19G24G 3G17G22G 6
  23984436.250   126039056.012                  
  24865064.727   130666759.3831                 
  25388223.055   133416016.005                  
  21322439.859   112050153.073                  
  21140567.117   111094427.914                  
  24947316.414   131099020.930                  
  21581019.609   113409029.522                  
  20758625.273   109087335.978                  
  23450018.563   123230699.853                  
  21298186.680   111922738.651                  
 18  9  7  2 26 30.0000000  0 10G 1G11G23G28G19G24G 3G17G22G 6
  24003017.172   126136702.176                  
  24883633.914   130764340.1751                 
  25375632.430   133349850.207                  
  21335497.219   112118769.435                  
  21130235.328   111040133.358                  
  24951588.031   131121475.791                  
  21588025.992   113445849.352                  
  20755768.852   109072325.249                  
  23464265.516   123305568.813                  
  21288009.563   111869257.449                  
 18  9  7  2 27  0.0000000  0 10G 1G11G23G28G19G24G 3G17G22G 6
  24021600.492   126234357.019                  
  24902206.219   130861940.5321                 
  25363055.305   133283755.398                  
  21348633.961   112187803.836                  
  21119947.555   110986071.669                  
  24955949.633   131144384.716                  
  21595141.375   113483238.535                  
  20752958.242   109057556.626                  
  23478581.164   123380792.364                  
  21277892.742   111816095.423                  
 18  9  7  2 27 30.0000000  0 10G 1G11G23G28G19G24G 3G17G22G 6
  24040185.281   126332018.211                  
  24920783.680   130959558.0171                 
  25350491.609   133217733.245                  
  21361849.563   112257253.206                  
  21109704.336   110932243.173                  
  24960394.016   131167745.235                  
  21602364.102   113521194.370                  
  20750194.078   109043029.449                  
  23492961.914   123456366.568                  
  21267837.250   111763251.361                  
 18  9  7  2 28  0.0000000  0 10G 1G11G23G28G19G24G 3G17G22G 6
  24058770.375   126429684.723                  
  24939362.438   131057192.5241                 
  25337942.688   133151786.623                  
  21375143.969   112327116.170                  
  21099505.625   110878649.204                  
  24964924.023   131191556.137                  
  21609694.422   113559715.991                  
  20747475.945   109028745.646                  
  23507409.438   123532290.006                  
  21257842.031   111710725.914                  
 18  9  7  2 28 30.0000000  0 11G 1G11G23G28G19G24G 3G17G22G 6G12
  24077356.508   126527357.797                  
  24957944.984   131154846.2611                 
  25325407.227   133085920.783                  
  21388517.734   112397393.828                  
  21089352.266   110825293.402                  
  24969541.320   131215817.591                  
  21617132.297   113598804.144                  
  20744804.727   109014708.771                  
  23521923.883   123608563.379                  
  21247907.609   111658521.427                  
  24930348.297   131009868.5041                 
 18  9  7  2 29  0.0000000  0 10G 1G23G28G19G24G 3G17G22G 6G12
  24095943.078   126625032.636                  
  25312889.703   133020134.917                  
  21401968.750   112468081.320                  
  21079244.297   110772174.126                  
  24974244.125   131240525.249                  
  21624677.750   113638453.883                  
  20742180.133   109000916.602                  
  23536504.148   123685180.209                  
  21238033.922   111606634.499                  
  24909942.578   130902631.077                  
 18  9  7  2 29 30.0000000  0 10G 1G23G28G19G24G 3G17G22G 6G12
  24114531.383   126722709.657                  
  25300387.672   132954433.173                  
  21415497.875   112539178.164                  
  21069181.195   110719293.208                  
  24979030.320   131265678.937                  
  21632329.695   113678665.268                  
  20739602.609   108987371.268                  
  23551148.352   123762139.675                  
  21228220.969   111555066.763                  
  24889565.352   130795547.966                  
 18  9  7  2 30  0.0000000  0 11G 1G11G23G28G19G24G 3G17G22G 6G12
  24133118.805   126820386.643                  
  25013710.914   131447894.9291                 
  25287901.180   132888817.586                  
  21429104.781   112610682.233                  
  21059163.773   110666651.428                  
  24983901.406   131291275.653                  
  21640087.914   113719435.862                  
  20737072.047   108974073.189                  
  23565857.992   123839438.898                  
  21218468.391   111503817.339                  
  24869217.148   130688620.897                  
 18  9  7  2 30 30.0000000  0 11G 1G11G23G28G19G24G 3G17G22G 6G12
  24151706.117   126918062.458                  
  25032305.086   131545607.4331                 
  25275431.766   132823290.847                  
  21442789.273   112682591.678                  
  21049192.023   110614250.196                  
  24988855.484   131317314.214                  
  21647952.656   113760764.167                  
  20734588.875   108961023.485                  
  23580632.570   123917076.072                  
  21208776.297   111452886.396                  
  24848899.992   130581852.597                  
 18  9  7  2 31  0.0000000  0 11G 1G11G23G28G19G24G 3G17G22G 6G12
  24170292.539   127015737.546                  
  25050901.789   131643334.3921                 
  25262980.000   132757857.324                  
  21456550.070   112754906.363                  
  21039266.844   110562092.182                  
  24993895.641   131343794.533                  
  21655923.508   113802650.159                  
  20732153.328   108948224.528                  
  23595470.320   123995050.311                  
  21199145.555   111402275.465                  
  24828613.633   130475247.379                  
 18  9  7  2 31 30.0000000  0 11G 1G11G23G28G19G24G 3G17G22G 6G12
  24188878.797   127113409.893                  
  25069501.078   131741074.7471                 
  25250545.688   132692518.899                  
  21470387.813   112827623.827                  
  21029388.000   110510177.753                  
  24999017.016   131370714.230                  
  21663999.508   113845091.590                  
  20729765.445   108935677.027                  
  23610372.031   124073358.039                  
  21189575.414   111351983.986                  
  24808358.383   130368807.226                  
 18  9  7  2 32  0.0000000  0 11G 1G11G23G28G19G24G 3G17G22G 6G12
  24207464.758   127211076.912                  
  25088101.625   131838826.4811                 
  25238130.555   132627276.776                  
  21484301.289   112900740.922                  
  21019555.141   110458506.853                  
  25004222.578   131398070.003                  
  21672181.133   113888085.236                  
  20727425.570   108923380.343                  
  23625336.008   124151995.637                  
  21180066.023   111302010.350                  
  24788135.898   130262533.171                  
 18  9  7  2 32 30.0000000  0 11G 1G11G23G28G19G24G 3G17G22G 6G12
  24226049.453   127308739.024                  
  25106706.203   131936590.4791                 
  25225735.531   132562135.521                  
  21498291.164   112974257.398                  
  21009769.695   110407082.387                  
  25009512.125   131425861.858                  
  21680467.695   113931631.271                  
  20725133.984   108911337.326                  
  23640363.000   124230962.629                  
  21170616.797   111252356.363                  
  24767944.344   130156430.282                  
 18  9  7  2 33  0.0000000  0 11G 1G11G23G28G19G24G 3G17G22G 6G12
  24244632.055   127406394.683                  
  25125311.625   132034366.004                  
  25213359.555   132497097.192                  
  21512356.766   113048171.456                  
  21000030.695   110355905.239                  
  25014883.227   131454087.220                  
  21688858.750   113975727.509                  
  20722890.609   108899548.289                  
  23655451.898   124310256.505                  
  21161229.016   111203021.558                  
  24747787.016   130050500.497                  
 18  9  7  2 33 30.0000000  0 11G 1G11G23G28G19G24G 3G17G22G 6G12
  24263213.453   127504042.090                  
  25143920.664   132132151.678                  
  25201002.797   132432164.086                  
  21526497.688   113122480.537                  
  20990339.172   110304975.915                  
  25020336.523   131482744.156                  
  21697354.125   114020371.746                  
  20720695.664   108888014.049                  
  23670602.781   124389874.262                  
  21151901.539   111154005.311                  
  24727662.773   129944745.488                  
 18  9  7  2 34  0.0000000  0 11G 1G11G23G28G19G24G 3G17G22G 6G12
  24281794.570   127601680.254                  
  25162530.141   132229946.998                  
  25188667.258   132367338.946                  
  21540712.602   113197182.958                  
  20980695.094   110254295.993                  
  25025870.617   131511830.948                  
  21705953.898   114065562.320                  
  20718549.313   108876735.663                  
  23685814.867   124469813.961                  
  21142634.555   111105307.771                  
  24707571.961   129839168.908                  
 18  9  7  2 34 30.0000000  0 10G 1G23G28G19G24G 3G17G22G 6G12
  24300371.305   127699308.131                  
  25176352.133   132302624.844                  
  21555002.828   113272277.285                  
  20971098.867   110203866.739                  
  25031489.531   131541345.945                  
  21714656.789   114111297.686                  
  20716452.188   108865714.456                  
  23701087.781   124550073.279                  
  21133427.984   111056929.028                  
  24687516.023   129733772.879                  
 18  9  7  2 35  0.0000000  0 10G 1G23G28G19G24G 3G17G22G 6G12
  24318947.656   127796927.155                  
  25164058.539   132238026.767                  
  21569367.609   113347764.202                  
  20961550.672   110153692.095                  
  25037186.484   131571289.797                  
  21723463.609   114157578.676                  
  20714404.555   108854953.903                  
  23716421.961   124630652.544                  
  21124283.547   111008871.645                  
  24667495.977   129628563.190                  
 18  9  7  2 35 30.0000000  0 11G 1G23G28G19G24G 3G17G22G 2G 6G12
  24337521.227   127894531.841                  
  25151788.570   132173543.205                  
  21583805.625   113423637.464                  
  20952050.859   110103769.011                  
  25042963.648   131601656.629                  
  21732373.594   114204399.219                  
  20712405.852   108844451.137                  
  23731814.523   124711544.813                  
  24928285.430   130998963.7191                 
  21115198.742   110961131.252                  
  24647509.773   129523538.352                  
 18  9  7  2 36  0.0000000  0 11G 1G23G28G19G24G 3G17G22G 2G 6G12
  24356093.141   127992122.689                  
  25139540.477   132109178.427                  
  21598316.969   113499896.666                  
  20942599.391   110054100.201                  
  25048824.633   131632446.340                  
  21741385.813   114251759.064                  
  20710456.836   108834208.479                  
  23747267.266   124792749.554                  
  24913609.805   130921838.4351                 
  21106174.523   110913709.336                  
  24627560.320   129418702.641                  
 18  9  7  2 36 30.0000000  0 11G 1G23G28G19G24G 3G17G22G 2G 6G12
  24374661.148   128089698.549                  
  25127313.750   132044934.968                  
  21612901.656   113576540.012                  
  20933196.320   110004687.019                  
  25054763.492   131663655.994                  
  21750500.117   114299656.384                  
  20708557.578   108824227.014                  
  23762779.406   124874264.297                  
  24898957.273   130844838.1491                 
  21097211.383   110866605.827                  
  24607646.422   129314058.414                  
 18  9  7  2 37  0.0000000  0 10G 1G23G28G19G24G 3G17G22G 6G12
  24393226.453   128187260.261                  
  25115114.156   131980817.648                  
  21627559.875   113653567.905                  
  20923842.180   109955532.529                  
  25060781.594   131695286.503                  
  21759717.109   114348091.342                  
  20706708.148   108814509.622                  
  23778350.500   124956088.704                  
  21088308.563   110819822.693                  
  24587770.961   129209610.409                  
 18  9  7  2 37 30.0000000  0 10G 1G23G28G19G24G 3G17G22G 6G12
  24411787.977   128284805.217                  
  25102937.078   131916827.812                  
  21642290.328   113730976.894                  
  20914537.820   109906636.727                  
  25066880.430   131727333.768                  
  21769036.367   114397060.594                  
  20704909.266   108805055.914                  
  23793978.906   125038219.050                  
  21079467.008   110773358.275                  
  24567932.797   129105360.137                  
 18  9  7  2 38  0.0000000  0 10G 1G23G28G19G24G 3G17G22G 6G12
  24430346.742   128382331.540                  
  25090784.289   131852967.242                  
  21657092.594   113808764.121                  
  20905282.805   109858000.002                  
  25073057.875   131759795.701                  
  21778455.641   114446561.537                  
  20703160.453   108795866.292                  
  23809665.219   125120652.150                  
  21070685.469   110727211.788                  
  24548132.430   129001309.652                  
 18  9  7  2 38 30.0000000  0 11G 1G23G28G19G24G 3G17G22G 2G 6G12
  24448902.898   128479839.228                  
  25078657.305   131789239.492                  
  21671966.961   113886928.712                  
  20896077.328   109809624.570                  
  25079313.719   131792671.967                  
  21787976.297   114496593.212                  
  20701462.523   108786942.701                  
  23825408.313   125203386.557                  
  24840579.336   130538059.0081                 
  21061964.578   110681384.083                  
  24528370.938   128897462.501                  
 18  9  7  2 39  0.0000000  0 11G 1G23G28G19G24G 3G17G22G 2G 6G12
  24467454.031   128577325.095                  
  25066556.766   131725645.539                  
  21686912.250   113965466.715                  
  20886921.180   109761510.135                  
  25085647.734   131825957.586                  
  21797597.258   114547151.809                  
  20699814.859   108778284.368                  
  23841209.398   125286418.273                  
  24826042.031   130461666.6231                 
  21053304.008   110635873.164                  
  24508648.227   128793819.817                  
 18  9  7  2 39 30.0000000  0 11G 1G23G28G19G24G 3G17G22G 2G 6G12
  24486000.477   128674791.159                  
  25054481.188   131662191.099                  
  21701928.992   114044379.356                  
  20877815.813   109713660.520                  
  25092060.672   131859653.986                  
  21807318.469   114598238.356                  
  20698218.523   108769895.199                  
  23857066.820   125369747.801                  
  24811529.336   130385397.3691                 
  21044704.695   110590681.849                  
  24488965.570   128690386.844                  
 18  9  7  2 40  0.0000000  0 10G 1G23G28G19G24G 3G17G22G 6G12
  24504544.273   128772236.466                  
  25042432.773   131598878.615                  
  21717016.281   114123665.073                  
  20868760.969   109666077.160                  
  25098549.430   131893759.505                  
  21817140.055   114649851.087                  
  20696673.367   108761776.553                  
  23872980.586   125453372.647                  
  21036165.914   110545810.181                  
  24469324.438   128587166.705                  
 18  9  7  2 40 30.0000000  0 10G 1G23G28G19G24G 3G17G22G 6G12
  24523082.211   128869655.673                  
  25030411.977   131535706.725                  
  21732173.695   114203317.193                  
  20859755.961   109618757.215                  
  25105116.602   131928267.286                  
  21827060.680   114701983.855                  
  20695179.359   108753925.324                  
  23888948.148   125537286.680                  
  21027686.953   110501253.798                  
  24449721.297   128484158.073                  
 18  9  7  2 41  0.0000000  0 10G 1G23G28G19G24G 3G17G22G 6G12
  24541615.805   128967051.224                  
  25018417.953   131472681.601                  
  21747400.953   114283336.821                  
  20850802.258   109571705.233                  
  25111761.156   131963179.388                  
  21837080.297   114754637.971                  
  20693737.148   108746345.567                  
  23904971.773   125621490.568                  
  21019268.648   110457015.961                  
  24430161.313   128381367.213                  
 18  9  7  2 41 30.0000000  0 10G 1G23G28G19G24G 3G17G22G 6G12
  24560145.117   129064422.165                  
  25006452.594   131409805.845                  
  21762697.727   114363722.788                  
  20841899.891   109524922.769                  
  25118480.656   131998493.329                  
  21847199.414   114807811.603                  
  20692346.703   108739038.694                  
  23921049.914   125705982.088                  
  21010911.180   110413096.622                  
  24410643.047   128278796.489                  
 18  9  7  2 42  0.0000000  0 10G 1G23G28G19G24G 3G17G22G 6G12
  24578668.383   129161765.052                  
  24994517.242   131347080.374                  
  21778063.820   114444470.612                  
  20833048.797   109478408.902                  
  25125277.305   132034205.136                  
  21857416.125   114861500.473                  
  20691007.680   108732003.615                  
  23937182.352   125790756.893                  
  21002614.000   110369493.391                  
  24391165.938   128176446.944                  
 18  9  7  2 42 30.0000000  0 10G 1G23G28G19G24G 3G17G22G 6G12
  24597187.461   129259081.853                  
  24982610.891   131284510.183                  
  21793498.484   114525581.040                  
  20824249.117   109432167.601                  
  25132148.477   132070315.447                  
  21867730.836   114915705.423                  
  20689721.805   108725244.090                  
  23953368.859   125875815.071                  
  20994377.180   110326208.944                  
  24371733.563   128074324.010                  
 18  9  7  2 43  0.0000000  0 10G 1G23G28G19G24G 3G17G22G 6G12
  24615701.656   129356369.946                  
  24970733.656   131222096.386                  
  21809001.391   114607050.497                  
  20815501.578   109386198.651                  
  25139095.133   132106820.790                  
  21878143.195   114970422.797                  
  20688487.539   108718759.881                  
  23969607.086   125961152.865                  
  20986200.906   110283241.513                  
  24352342.555   127972428.879                  
 18  9  7  2 43 30.0000000  0 10G 1G23G28G19G24G 3G17G22G 6G12
  24634208.516   129453627.521                  
  24958887.156   131159841.085                  
  21824572.914   114688875.960                  
  20806806.008   109340502.511                  
  25146117.328   132143717.727                  
  21888652.477   115025649.758                  
  20687306.461   108712550.752                  
  23985899.586   126046767.095                  
  20978084.500   110240590.217                  
  24332995.531   127870763.471                  
 18  9  7  2 44  0.0000000  0 11G 1G23G28G19G24G 3G17G22G 2G 6G12
  24652711.406   129550855.989                  
  24947072.117   131097749.210                  
  21840211.727   114771057.883                  
  20798163.109   109295083.005                  
  25153213.320   132181006.987                  
  21899259.211   115081386.735                  
  20686177.625   108706620.107                  
  24002243.516   126132657.907                  
  24681957.109   129704560.1421                 
  20970028.531   110198257.295                  
  24313695.383   127769333.080                  
 18  9  7  2 44 30.0000000  0 12G 1G 9G23G28G19G24G 3G17G22G 2G 6G12
  24671206.555   129648051.495                  
  25048701.539   131631809.9271                 
  24935285.477   131035820.605                  
  21855916.711   114853591.463                  
  20789572.375   109249938.748                  
  25160381.469   132218684.071                  
  21909961.078   115137628.683                  
  20685101.953   108700966.483                  
  24018640.516   126218819.773                  
  24667678.070   129629520.0691                 
  20962033.086   110156239.681                  
  24294438.695   127668137.626                  
 18  9  7  2 45  0.0000000  0 12G 1G 9G23G28G19G24G 3G17G22G 2G 6G12
  24689695.813   129745216.095                  
  25032913.047   131548837.864                  
  24923533.555   130974060.790                  
  21871690.000   114936477.701                  
  20781035.094   109205073.825                  
  25167625.758   132256749.032                  
  21920760.031   115194376.552                  
  20684079.516   108695593.959                  
  24035087.711   126305253.732                  
  24653421.469   129554605.4831                 
  20954097.938   110114540.207                  
  24275227.141   127567182.902                  
 18  9  7  2 45 30.0000000  0 12G 1G 9G23G28G19G24G 3G17G22G 2G 6G12
  24708180.367   129842348.031                  
  25017115.117   131465824.525                  
  24911813.695   130912471.8061                 
  21887529.008   115019713.617                  
  20772550.469   109160488.474                  
  25174941.195   132295199.302                  
  21931654.484   115251627.377                  
  20683110.664   108690502.437                  
  24051586.867   126391956.286                  
  24639191.219   129479815.6841                 
  20946223.000   110073157.801                  
  24256062.141   127466470.958                  
 18  9  7  2 46  0.0000000  0 12G 1G 9G23G28G19G24G 3G17G22G 2G 6G12
  24726656.758   129939444.881                  
  25001310.680   131382771.340                  
  24900125.742   130851054.9331                 
  21903434.508   115103295.591                  
  20764119.422   109116182.886                  
  25182331.445   132334031.033                  
  21942644.008   115309377.667                  
  20682195.117   108685691.892                  
  24068136.758   126478923.934                  
  24624980.813   129405149.3041                 
  20938408.211   110032090.989                  
  24236943.805   127366002.953                  
 18  9  7  2 46 30.0000000  0 12G 1G 9G23G28G19G24G 3G17G22G 2G 6G12
  24745126.656   130036506.865                  
  24985499.672   131299682.158                  
  24888472.148   130789813.663                  
  21919405.344   115187222.759                  
  20755742.211   109072159.595                  
  25189792.844   132373243.336                  
  21953728.523   115367626.394                  
  20681333.648   108681164.308                  
  24084735.938   126566155.183                  
  24610795.859   129330607.7751                 
  20930653.609   109991340.611                  
  24217872.469   127265783.199                  
 18  9  7  2 47  0.0000000  0 12G 1G 9G23G28G19G24G 3G17G22G 2G 6G12
  24763590.313   130133531.852                  
  24969681.336   131216558.594                  
  24876852.586   130728749.842                  
  21935441.547   115271491.761                  
  20747418.641   109028418.603                  
  25197327.375   132412832.820                  
  21964906.867   115426370.241                  
  20680525.930   108676920.178                  
  24101384.336   126653646.474                  
  24596634.719   129256189.9091                 
  20922959.078   109950905.317                  
  24198848.250   127165813.241                  
 18  9  7  2 47 30.0000000  0 12G 1G 9G23G28G19G24G 3G17G22G 2G 6G12
  24782046.172   130230521.3401                 
  24953858.016   131133406.097                  
  24865266.586   130667868.604                  
  21951542.680   115356102.874                  
  20739149.125   108984963.582                  
  25204932.477   132452799.882                  
  21976179.617   115485609.427                  
  20679772.719   108672962.107                  
  24118082.680   126741398.051                  
  24582497.430   129181898.267                  
  20915324.648   109910787.293                  
  24179873.250   127066097.791                  
 18  9  7  2 48  0.0000000  0 12G 1G 9G23G28G19G24G 3G17G22G 2G 6G12
  24800496.703   130327471.811                  
  24938029.211   131050224.741                  
  24853716.016   130607169.482                  
  21967707.328   115441051.628                  
  20730934.094   108941793.556                  
  25212608.219   132493139.963                  
  21987546.328   115545339.310                  
  20679073.711   108669288.636                  
  24134831.539   126829404.893                  
  24568383.797   129107730.4601                 
  20907750.445   109870983.842                  
  24160946.625   126966637.718                  
 18  9  7  2 48 30.0000000  0 12G 1G 9G23G28G19G24G 3G17G22G 2G 6G12
  24818937.508   130424382.1511                 
  24922194.266   130967017.148                  
  24842201.336   130546655.390                  
  21983936.414   115526335.063                  
  20722773.672   108898909.381                  
  25220356.367   132533850.198                  
  21999005.500   115605557.345                  
  20678428.961   108665901.091                  
  24151626.219   126917664.324                  
  24554294.492   129033686.408                  
  20900235.945   109831494.451                  
  24142069.344   126867435.296                  
 18  9  7  2 49  0.0000000  0 12G 1G 9G23G28G19G24G 3G17G22G 2G 6G12
  24837371.711   130521253.980                  
  24906357.227   130883788.723                  
  24830721.992   130486331.408                  
  22000228.570   115611953.956                  
  20714668.258   108856315.054                  
  25228173.922   132574930.545                  
  22010557.297   115666263.860                  
  20677839.320   108662802.796                  
  24168469.141   127006176.417                  
  24540227.984   128959768.461                  
  20892781.445   109792321.370                  
  24123241.758   126768495.769                  
 18  9  7  2 49 30.0000000  0 12G 1G 9G23G28G19G24G 3G17G22G 2G 6G12
  24855797.969   130618085.796                  
  24890515.313   130800541.818                  
  24819279.664   130426199.601                  
  22016585.281   115697905.650                  
  20706618.313   108814011.204                  
  25236060.430   132616378.683                  
  22022202.289   115727456.153                  
  20677305.258   108659994.316                  
  24185360.336   127094938.370                  
  24526186.109   128885976.449                  
  20885387.164   109753463.913                  
  24104464.141   126669821.875                  
 18  9  7  2 50  0.0000000  0 12G 1G 9G23G28G19G24G 3G17G22G 2G 6G12
  24874216.766   130714873.302                  
  24874670.445   130717275.695                  
  24807872.664   130366258.981                  
  22033002.828   115784184.384                  
  20698623.078   108771995.776                  
  25244017.828   132658188.790                  
  22033938.352   115789128.383                  
  20676825.266   108657472.983                  
  24202297.977   127183944.371                  
  24512166.539   128812306.891                  
  20878052.250   109714918.235                  
  24085737.820   126571412.643                  
 18  9  7  2 50 30.0000000  0 12G 1G 9G23G28G19G24G 3G17G22G 2G 6G12
  24892627.438   130811620.496                  
  24858823.508   130633998.216                  
  24796504.531   130306517.234                  
  22049484.328   115870792.880                  
  20690683.492   108730275.067                  
  25252042.961   132700363.741                  
  22045765.641   115851283.302                  
  20676401.180   108655244.963                  
  24219282.070   127273196.947                  
  24498171.852   128738764.881                  
  20870777.477   109676689.161                  
  24067062.727   126473275.861                  
 18  9  7  2 51  0.0000000  0 12G 1G 9G23G28G19G24G 3G17G22G 2G 6G12
  24911029.000   130908324.668                  
  24842974.047   130550710.469                  
  24785174.227   130246974.978                  
  22066027.492   115957726.998                  
  20682800.656   108688848.477                  
  25260137.133   132742898.627                  
  22057683.961   115913916.808                  
  20676032.797   108653309.397                  
  24236312.211   127362691.735                  
  24484201.164   128665348.449                  
  20863562.406   109638774.439                  
  24048441.117   126375412.350                  
 18  9  7  2 51 30.0000000  0 12G 1G 9G23G28G19G24G 3G17G22G 2G 6G12
  24929423.461   131004984.172                  
  24827123.391   130467414.405                  
  24773881.281   130187634.064                  
  22082631.984   116044983.628                  
  20674973.383   108647716.701                  
  25268300.008   132785790.978                  
  22069693.586   115977025.724                  
  20675720.430   108651666.695                  
  24253388.063   127452425.884                  
  24470253.797   128592056.546                  
  20856407.258   109601173.077                  
  24029869.484   126277823.651                  
 18  9  7  2 52  0.0000000  0 12G 1G 9G23G28G19G24G 3G17G22G 2G 6G12
  24947807.117   131101597.247                  
  24811272.703   130384112.215                  
  24762628.195   130128496.465                  
  22099296.578   116132559.825                  
  20667202.148   108606879.797                  
  25276529.219   132829037.454                  
  22081792.258   116040607.030                  
  20675463.563   108650317.023                  
  24270509.102   127542395.565                  
  24456330.195   128518888.913                  
  20849311.195   109563883.969                  
  24011352.156   126180512.555                  
 18  9  7  2 52 30.0000000  0 12G 1G 9G23G28G19G24G 3G17G22G 2G 6G12
  24966183.789   131198165.966                  
  24795420.852   130300809.591                  
  24751413.445   130069567.667                  
  22116022.836   116220456.527                  
  20659488.680   108566342.172                  
  25284825.305   132872638.675                  
  22093981.773   116104661.266                  
  20675263.359   108649264.008                  
  24287674.281   127632601.782                  
  24442430.398   128445848.607                  
  20842275.305   109526909.749                  
  23992888.305   126083484.709                  
 18  9  7  2 53  0.0000000  0 12G 1G 9G23G28G19G24G 3G17G22G 2G 6G12
  24984551.656   131294688.4011                 
  24779567.617   130217508.327                  
  24740240.125   130010848.958                  
  22132809.672   116308669.907                  
  20651831.492   108526104.152                  
  25293188.953   132916591.241                  
  22106260.383   116169184.922                  
  20675119.234   108648507.602                  
  24304884.844   127723040.876                  
  24428555.563   128372934.328                  
  20835298.938   109490248.909                  
  23974478.703   125986741.464                  
 18  9  7  2 53 30.0000000  0 12G 1G 9G23G28G19G24G 3G17G22G 2G 6G12
  25002910.453   131391163.5491                 
  24763718.180   130134211.173                  
  24729106.859   129952342.794                  
  22149656.242   116397197.652                  
  20644231.578   108486166.921                  
  25301620.102   132960892.176                  
  22118627.422   116234175.661                  
  20675032.000   108648048.767                  
  24322138.578   127813710.371                  
  24414705.469   128300146.237                  
  20828382.492   109453901.198                  
  23956123.477   125890285.714                  
 18  9  7  2 54  0.0000000  0 12G 1G 9G23G28G19G24G 3G17G22G 2G 6G12
  25021259.977   131487590.1441                 
  24747867.547   130050920.632                  
  24718014.602   129894051.586                  
  22166561.867   116486037.335                  
  20636689.109   108446531.557                  
  25310115.094   133005539.634                  
  22131083.383   116299630.705                  
  20675001.711   108647888.349                  
  24339435.875   127904607.565                  
  24400877.273   128227483.591                  
  20821524.836   109417865.850                  
  23937823.531   125794119.606                  
 18  9  7  2 54 30.0000000  0 12G 1G 9G23G28G19G24G 3G17G22G 2G 6G12
  25039598.820   131583968.4101                 
  24732019.344   129967640.264                  
  24706964.102   129835978.492                  
  22183526.195   116575186.979                  
  20629204.727   108407199.937                  
  25318677.297   133050530.674                  
  22143626.820   116365548.185                  
  20675027.906   108648027.620                  
  24356775.688   127995730.403                  
  24387074.016   128154947.101                  
  20814727.164   109382143.113                  
  23919579.438   125698246.666                  
 18  9  7  2 55  0.0000000  0 12G 1G 9G23G28G19G24G 3G17G22G 2G 6G12
  25057929.891   131680295.2891                 
  24716174.867   129884371.4511                 
  24695954.047   129778124.501                  
  22200549.148   116664642.833                  
  20621777.836   108368171.776                  
  25327304.203   133095862.240                  
  22156258.227   116431924.403                  
  20675111.391   108648466.372                  
  24374158.461   128087075.301                  
  24373295.227   128082535.592                  
  20807988.695   109346731.300                  
  23901391.484   125602668.411                  
 18  9  7  2 55 30.0000000  0 12G 1G 9G23G28G19G24G 3G17G22G 2G 6G12
  25076250.203   131776569.7251                 
  24700331.867   129801116.985                  
  24684987.367   129720492.200                  
  22217630.094   116754402.883                  
  20614408.922   108329448.257                  
  25335994.383   133141531.873                  
  22168975.797   116498756.812                  
  20675252.047   108649205.290                  
  24391582.148   128178639.551                  
  24359539.492   128010248.802                  
  20801308.813   109311629.943                  
  23883260.289   125507387.171                  
 18  9  7  2 56  0.0000000  0 12G 1G 9G23G28G19G24G 3G17G22G 2G 6G12
  25094561.930   131872795.5721                 
  24684493.688   129717882.899                  
  24674063.406   129663087.182                  
  22234768.672   116844467.475                  
  20607099.070   108291033.921                  
  25344748.445   133187539.883                  
  22181780.703   116566046.089                  
  20675450.680   108650248.650                  
  24409048.039   128270424.037                  
  24345808.133   127938089.885                  
  20794688.914   109276841.790                  
  23865186.344   125412409.251                  
 18  9  7  2 56 30.0000000  0 12G 1G 9G23G28G19G24G 3G17G22G 2G 6G12
  25112862.742   131968968.1531                 
  24668657.555   129634669.920                  
  24663183.125   129605909.695                  
  22251964.344   116934832.359                  
  20599847.641   108252927.886                  
  25353568.414   133233881.645                  
  22194671.227   116633787.672                  
  20675706.883   108651595.118                  
  24426555.398   128362424.435                  
  24332101.070   127866056.740                  
  20788127.922   109242364.398                  
  23847170.602   125317735.024                  
 18  9  7  2 57  0.0000000  0 11G 1G 9G23G28G19G 3G17G22G 2G 6G12
  25131153.844   132065088.0681                 
  24652827.953   129551482.179                  
  24652345.648   129548963.570                  
  22269217.070   117025496.472                  
  20592655.617   108215132.739                  
  22207647.875   116701980.361                  
  20676021.203   108653247.064                  
  24444103.188   128454639.094                  
  24318417.688   127794150.234                  
  20781626.625   109208198.614                  
  23829213.094   125223368.578                  
 18  9  7  2 57 30.0000000  0 11G 1G 9G23G28G19G 3G17G22G 2G 6G12
  25149434.875   132161153.804                  
  24637001.500   129468320.807                  
  24641553.313   129492249.771                  
  22286526.031   117116455.402                  
  20585522.336   108177648.062                  
  22220709.516   116770620.044                  
  20676393.516   108655203.677                  
  24461690.578   128547064.337                  
  24304757.719   127722369.182                  
  20775183.992   109174342.417                  
  23811314.305   125129311.084                  
 18  9  7  2 58  0.0000000  0 11G 1G 9G23G28G19G 3G17G22G 2G 6G12
  25167703.469   132257165.9591                 
  24621182.820   129385190.097                  
  24630806.555   129435771.968                  
  22303890.781   117207708.403                  
  20578448.906   108140476.577                  
  22233855.688   116839705.561                  
  20676824.586   108657467.372                  
  24479319.086   128639698.880                  
  24291123.047   127650714.917                  
  20768800.203   109140796.803                  
  23793475.336   125035566.487                  
 18  9  7  2 58 30.0000000  0 11G 1G 9G23G28G19G 3G17G22G 2G 6G12
  25185965.922   132353124.2041                 
  24605369.695   129302095.111                  
  24620105.070   129379535.100                  
  22321311.469   117299254.937                  
  20571435.398   108103621.480                  
  22247087.680   116909236.565                  
  20677314.164   108660041.114                  
  24496986.313   128732542.240                  
  24277511.398   127579189.453                  
  20762476.148   109107563.440                  
  23775697.320   124942139.266                  
 18  9  7  2 59  0.0000000  0 11G 1G 9G23G28G19G 3G17G22G 2G 6G12
  25204215.078   132449025.023                  
  24589563.445   129219034.354                  
  24609448.367   129323536.9571                 
  22338787.070   117391088.366                  
  20564481.977   108067079.876                  
  22260402.688   116979206.206                  
  20677862.609   108662921.428                  
  24514692.078   128825587.985                  
  24263924.914   127507788.107                  
  20756210.609   109074637.641                  
  23757978.242   124849028.581                  
 18  9  7  2 59 30.0000000  0 11G 1G 9G23G28G19G 3G17G22G 2G 6G12
  25222454.359   132544871.0271                 
  24573766.516   129136014.649                  
  24598839.227   129267784.163                  
  22356317.016   117483210.274                  
  20557588.555   108030857.046                  
  22273801.031   117049615.871                  
  20678469.523   108666113.459                  
  24532437.672   128918837.484                  
  24250361.055   127436514.689                  
  20750004.477   109042022.875                  
  23740321.742   124756240.821                  
 18  9  7  3  0  0.0000000  0 11G 1G 9G23G28G19G 3G17G22G 2G 6G12
  25240683.195   132640659.2571                 
  24557975.156   129053036.7431                 
  24588276.992   129212277.049                  
  22373901.836   117575616.062                  
  20550756.094   107994952.117                  
  22287282.008   117120460.954                  
  20679136.164   108669615.753                  
  24550221.109   129012286.317                  
  24236822.250   127365367.082                  
  20743856.781   109009716.710                  
  23722726.023   124663776.558                  
 18  9  7  3  0 30.0000000  0 11G 1G 9G23G28G19G 3G17G22G 2G 6G12
  25258898.695   132736389.2011                 
  24542194.938   128970103.763                  
  24577761.695   129157018.352                  
  22391539.492   117668303.455                  
  20543984.219   107959366.452                  
  22300846.031   117191739.082                  
  20679861.984   108673429.504                  
  24568039.883   129105932.057                  
  24223307.352   127294345.539                  
  20737767.633   108977718.813                  
  23705192.977   124571638.650                  
 18  9  7  3  1  0.0000000  0 11G 1G 9G23G28G19G 3G17G22G 2G 6G12
  25277105.859   132832059.0871                 
  24526421.344   128887217.6541                 
  24567292.664   129102009.366                  
  22409230.477   117761268.976                  
  20537273.469   107924100.618                  
  22314492.055   117263446.811                  
  20680646.695   108677554.771                  
  24585897.133   129199771.383                  
  24209815.945   127223449.257                  
  20731737.320   108946027.918                  
  23687721.742   124479829.112                  
 18  9  7  3  1 30.0000000  0 11G 1G 9G23G28G19G 3G17G22G 2G 6G12
  25295298.031   132927671.0481                 
  24510658.719   128804384.298                  
  24556874.594   129047255.556                  
  22426974.367   117854513.218                  
  20530624.281   107889158.532                  
  22328218.930   117335584.460                  
  20681491.773   108681995.173                  
  24603791.727   129293805.014                  
  24196349.227   127152680.837                  
  20725765.516   108914646.480                  
  23670314.891   124388353.307                  
 18  9  7  3  2  0.0000000  0 11G 1G 9G23G28G19G 3G17G22G 2G 6G12
  25313481.555   133023223.5271                 
  24494906.695   128721604.998                  
  24546504.141   128992758.016                  
  22444770.695   117948032.275                  
  20524036.758   107854540.097                  
  22342027.102   117408147.924                  
  20682396.781   108686750.186                  
  24621721.508   129388028.883                  
  24182906.305   127082038.736                  
  20719852.008   108883572.502                  
  23652971.648   124297212.527                  
 18  9  7  3  2 30.0000000  0 10G 9G23G28G19G 3G17G22G 2G 6G12
  24479163.875   128638880.682                  
  24536181.148   128938517.038                  
  22462618.016   118041821.360                  
  20517510.750   107820244.544                  
  22355915.680   117481132.701                  
  20683361.484   108691819.008                  
  24639686.898   129482438.466                  
  24169487.195   127011520.890                  
  20713997.195   108852803.652                  
  23635691.719   124206407.431                  
 18  9  7  3  3  0.0000000  0 10G 9G23G28G19G 3G17G22G 2G 6G12
  24463434.266   128556217.083                  
  24525909.320   128884537.556                  
  22480516.695   118135880.822                  
  20511046.508   107786275.922                  
  22369884.477   117554538.941                  
  20684386.445   108697204.844                  
  24657688.680   129577034.296                  
  24156092.906   126941129.996                  
  20708200.531   108822342.168                  
  23618477.945   124115943.458                  
 18  9  7  3  3 30.0000000  0 10G 9G23G28G19G 3G17G22G 2G 6G12
  24447715.422   128473615.101                  
  24515687.781   128830820.001                  
  22498466.313   118230206.256                  
  20504644.602   107752633.130                  
  22383932.484   117628361.886                  
  20685471.188   108702906.436                  
  24675722.992   129671811.518                  
  24142720.273   126870863.781                  
  20702461.984   108792185.525                  
  23601327.141   124025821.335                  
 18  9  7  3  4  0.0000000  0 10G 9G23G28G19G 3G17G22G 2G 6G12
  24432009.945   128391083.3361                 
  24505517.500   128777372.803                  
  22516467.281   118324800.967                  
  20498306.156   107719323.560                  
  22398060.398   117702604.935                  
  20686617.375   108708930.864                  
  24693794.016   129766773.719                  
  24129374.500   126800727.918                  
  20696782.031   108762339.187                  
  23584244.242   123936049.620                  
 18  9  7  3  4 30.0000000  0 10G 9G23G28G19G 3G17G22G 2G 6G12
  24416319.000   128308618.9941                 
  24495396.938   128724192.540                  
  22534517.898   118419656.199                  
  20492030.016   107686342.701                  
  22412267.211   117777259.403                  
  20687824.430   108715273.249                  
  24711899.023   129861913.118                  
  24116052.125   126730716.406                  
  20691160.422   108732796.650                  
  23567227.406   123846625.244                  
 18  9  7  3  5  0.0000000  0 10G 9G23G28G19G 3G17G22G 2G 6G12
  24400638.367   128226226.911                  
  24485328.680   128671283.650                  
  22552617.742   118514772.051                  
  20485817.023   107653694.029                  
  22426551.852   117852324.871                  
  20689092.727   108721936.625                  
  24730036.734   129957229.250                  
  24102753.883   126660831.142                  
  20685596.930   108703559.689                  
  23550277.648   123757553.334                  
 18  9  7  3  5 30.0000000  0 10G 9G23G28G19G 3G17G22G 2G 6G12
  24384975.625   128143911.013                  
  24475313.422   128618649.086                  
  22570766.586   118610146.250                  
  20479668.086   107621379.358                  
  22440913.883   117927799.387                  
  20690421.906   108728922.110                  
  24748208.195   130052720.049                  
  24089478.156   126591073.032                  
  20680091.617   108674628.499                  
  23533394.742   123668836.693                  
 18  9  7  3  6  0.0000000  0 10G 9G23G28G19G 3G17G22G 2G 6G12
  24369326.508   128061672.7971                 
  24465348.867   128566290.154                  
  22588964.336   118705775.349                  
  20473582.258   107589398.811                  
  22455353.406   118003679.240                  
  20691812.375   108736229.658                  
  24766412.375   130148382.069                  
  24076227.828   126521440.707                  
  20674644.039   108646001.496                  
  23516581.367   123580476.605                  
 18  9  7  3  6 30.0000000  0 10G 9G23G28G19G 3G17G22G 2G 6G12
  24353691.516   127979515.6711                 
  24455438.211   128514209.524                  
  22607209.898   118801656.891                  
  20467560.164   107557753.798                  
  22469869.031   118079961.945                  
  20693264.453   108743860.430                  
  24784648.203   130244213.322                  
  24063001.391   126451934.195                  
  20669254.164   108617678.414                  
  23499835.414   123492476.460                  
 18  9  7  3  7  0.0000000  0 10G 9G23G28G19G 3G17G22G 2G 6G12
  24338072.570   127897443.7831                 
  24445581.586   128462410.763                  
  22625503.500   118897790.038                  
  20461602.703   107526446.828                  
  22484461.883   118156646.248                  
  20694778.539   108751816.332                  
  24802916.484   130340212.5641                 
  24049798.758   126382554.915                  
  20663922.586   108589660.138                  
  23483158.484   123404840.258                  
 18  9  7  3  7 30.0000000  0 10G 9G23G28G19G 3G17G22G 2G 6G12
  24322473.234   127815459.720                  
  24435778.297   128410895.932                  
  22643844.508   118994171.531                  
  20455709.617   107495478.952                  
  22499130.305   118233729.159                  
  20696354.656   108760098.192                  
  24821216.336   130436376.842                  
  24036620.938   126313302.432                  
  20658648.664   108561945.833                  
  23466550.969   123317569.957                  
 18  9  7  3  8  0.0000000  0 10G 9G23G28G19G 3G17G22G 2G 6G12
  24306887.563   127733565.2391                 
  24426029.891   128359666.076                  
  22662231.461   119090797.734                  
  20449881.500   107464850.335                  
  22513874.000   118311206.795                  
  20697992.344   108768705.552                  
  24839546.945   130532702.917                  
  24023466.000   126244175.114                  
  20653432.328   108534533.803                  
  23450014.648   123230667.683                  
 18  9  7  3  8 30.0000000  0 10G 9G23G28G19G 3G17G22G 2G 6G12
  24291322.438   127651764.679                  
  24416335.539   128308725.048                  
  22680665.359   119187667.261                  
  20444117.813   107434563.371                  
  22528691.961   118389077.710                  
  20699692.875   108777640.472                  
  24857906.898   130629189.626                  
  24010336.133   126175174.212                  
  20648273.758   108507424.838                  
  23433548.266   123144136.736                  
 18  9  7  3  9  0.0000000  0 10G 9G23G28G19G 3G17G22G 2G 6G12
  24275773.742   127570060.4991                 
  24406697.719   128258074.678                  
  22699144.859   119284777.175                  
  20438419.727   107404618.652                  
  22543584.625   118467338.892                  
  20701455.391   108786903.668                  
  24876298.430   130725834.240                  
  23997228.664   126106298.975                  
  20643172.664   108480618.034                  
  23417152.477   123057979.696                  
 18  9  7  3  9 30.0000000  0 10G 9G23G28G19G 3G17G22G 2G 6G12
  24260245.680   127488456.7521                 
  24397115.773   128207718.387                  
  22717669.578   119382125.981                  
  20432787.094   107375019.090                  
  22558551.625   118545988.693                  
  20703280.969   108796496.747                  
  24894718.852   130822635.356                  
  23984146.195   126037550.404                  
  20638128.625   108454113.971                  
  23400829.430   122972200.349                  
 18  9  7  3 10  0.0000000  0 10G 9G23G28G19G 3G17G22G 2G 6G12
  24244735.758   127406954.7551                 
  24387588.188   128157656.858                  
  22736239.000   119479709.458                  
  20427219.945   107345763.941                  
  22573591.094   118625022.852                  
  20705168.969   108806418.934                  
  24913167.867   130919588.951                  
  23971087.898   125968926.915                  
  20633142.555   108427910.548                  
  23384578.039   122886799.547                  
 18  9  7  3 10 30.0000000  0 10G 9G23G28G19G 3G17G22G 2G 6G12
  24229247.164   127325558.722                  
  24378118.719   128107893.490                  
  22754853.703   119577526.072                  
  20421718.742   107316855.880                  
  22588703.195   118704439.974                  
  20707120.391   108816672.520                  
  24931646.484   131016694.149                  
  23958053.273   125900429.742                  
  20628213.477   108402008.513                  
  23368400.141   122801781.268                  
 18  9  7  3 11  0.0000000  0 10G 9G23G28G19G 3G17G22G 2G 6G12
  24213779.102   127244272.911                  
  24368707.586   128058431.839                  
  22773510.906   119675574.813                  
  20416284.430   107288297.317                  
  22603888.742   118784238.451                  
  20709134.914   108827259.382                  
  24950154.180   131113949.559                  
  23945043.078   125832059.745                  
  20623341.945   108376408.588                  
  23352294.672   122717149.284                  
 18  9  7  3 11 30.0000000  0 10G 9G23G28G19G 3G17G22G 2G 6G12
  24198331.727   127163098.002                  
  24359352.758   128009272.077                  
  22792212.672   119773850.413                  
  20410916.453   107260087.300                  
  22619145.727   118864413.470                  
  20711212.875   108838178.295                  
  24968688.875   131211350.722                  
  23932056.219   125763814.523                  
  20618527.313   108351108.006                  
  23336263.586   122632904.110                  
 18  9  7  3 12  0.0000000  0 10G 9G23G28G19G 3G17G22G 2G 6G12
  24182906.703   127082038.238                  
  24350055.578   127960417.900                  
  22810956.617   119872351.900                  
  20405614.930   107232228.199                  
  22634473.797   118944963.614                  
  20713354.055   108849431.061                  
  24987250.992   131308896.4361                 
  23919093.758   125695695.337                  
  20613770.008   108326107.579                  
  23320306.906   122549049.572                  
 18  9  7  3 12 30.0000000  0 10G 9G23G28G19G 3G17G22G 2G 6G12
  24167503.805   127001096.285                  
  24340817.141   127911870.912                  
  22829743.586   119971076.186                  
  20400380.266   107204720.982                  
  22649872.969   119025885.790                  
  20715558.969   108861018.046                  
  25005840.789   131406584.255                  
  23906154.570   125627701.314                  
  20609069.422   108301406.428                  
  23304424.852   122465588.184                  
 18  9  7  3 13  0.0000000  0 10G 9G23G28G19G 3G17G22G 2G 6G12
  24152123.617   126920274.730                  
  24331637.813   127863633.144                  
  22848571.883   120070020.474                  
  20395213.117   107177566.776                  
  22665342.094   119107176.977                  
  20717827.453   108872940.353                  
  25024457.078   131504411.487                  
  23893239.828   125559832.179                  
  20604425.695   108277003.735                  
  23288617.141   122382522.119                  
 18  9  7  3 13 30.0000000  0 10G 9G23G28G19G 3G17G22G 2G 6G12
  24136768.398   126839578.096                  
  24322518.688   127815708.496                  
  22867442.477   120169183.586                  
  20390113.727   107150768.100                  
  22680881.383   119188835.926                  
  20720160.563   108885199.737                  
  25043099.258   131602377.0571                 
  23880348.148   125492089.472                  
  20599839.188   108252900.454                  
  23272886.648   122299855.155                  
 18  9  7  3 14  0.0000000  0 10G 9G23G28G19G 3G17G22G 2G 6G12
  24121435.828   126759008.333                  
  24313458.164   127768098.103                  
  22886353.742   120268561.637                  
  20385081.609   107124325.246                  
  22696489.773   119270858.876                  
  20722557.555   108897796.039                  
  25061766.336   131700477.700                  
  23867481.844   125424471.586                  
  20595309.500   108229094.992                  
  23257232.133   122217589.139                  
 18  9  7  3 14 30.0000000  0 10G 9G23G28G19G 3G17G22G 2G 6G12
  24106129.148   126678570.610                  
  24304458.727   127720806.394                  
  22905304.797   120368154.427                  
  20380118.164   107098241.551                  
  22712167.375   119353245.422                  
  20725019.367   108910732.501                  
  25080460.383   131798713.3191                 
  23854638.156   125356981.032                  
  20590836.102   108205589.137                  
  23241654.250   122135728.792                  
 18  9  7  3 15  0.0000000  0 10G 9G23G28G19G 3G17G22G 2G 6G12
  24090848.195   126598265.256                  
  24295521.078   127673832.979                  
  22924297.375   120467956.637                  
  20375222.539   107072515.859                  
  22727913.109   119435990.136                  
  20727545.383   108924007.028                  
  25099179.602   131897078.9771                 
  23841818.289   125289614.919                  
  20586419.383   108182379.689                  
  23226153.656   122054274.207                  
 18  9  7  3 15 30.0000000  0 10G 9G23G28G19G 3G17G22G 2G 6G12
  24075591.539   126518095.436                  
  24286643.125   127627179.995                  
  22943328.266   120567965.618                  
  20370395.547   107047149.188                  
  22743726.711   119519090.345                  
  20730135.977   108937620.593                  
  25117922.148   131995572.7031                 
  23829023.203   125222372.963                  
  20582059.117   108159466.165                  
  23210730.945   121973227.914                  
 18  9  7  3 16  0.0000000  0 10G 9G23G28G19G 3G17G22G 2G 6G12
  24060362.094   126438066.636                  
  24277826.469   127580852.383                  
  22962399.734   120668181.440                  
  20365637.461   107022145.590                  
  22759608.047   119602546.009                  
  20732791.648   108951576.748                  
  25136688.047   132094193.2531                 
  23816251.711   125155257.724                  
  20577755.422   108136850.736                  
  23195387.531   121892594.991                  
 18  9  7  3 16 30.0000000  0 10G 9G23G28G19G 3G17G22G 2G 6G12
  24045159.484   126358180.271                  
  24269072.789   127534850.769                  
  22981507.750   120768599.725                  
  20360948.180   106997504.593                  
  22775555.734   119686352.717                  
  20735512.453   108965874.175                  
  25155479.328   132192939.4211                 
  23803503.102   125088267.243                  
  20573508.375   108114531.190                  
  23180121.961   121812376.621                  
 18  9  7  3 17  0.0000000  0 10G 9G23G28G19G 3G17G22G 2G 6G12
  24029986.117   126278440.210                  
  24260381.930   127489178.115                  
  23000654.898   120869218.903                  
  20356328.914   106973228.390                  
  22791569.641   119770508.559                  
  20738298.430   108980514.558                  
  25174293.359   132291807.3881                 
  23790780.414   125021402.373                  
  20569317.227   108092507.847                  
  23164936.430   121732576.126                  
 18  9  7  3 17 30.0000000  0 10G 9G23G28G19G 3G17G22G 2G 6G12
  24014840.195   126198847.302                  
  24251753.578   127443834.609                  
  23019839.313   120970034.156                  
  20351778.672   106949316.018                  
  22807650.031   119855008.844                  
  20741149.586   108995496.902                  
  25193131.102   132390794.1801                 
  23778078.664   124954660.698                  
  20565182.359   108070778.096                  
  23149830.305   121653193.912                  
 18  9  7  3 18  0.0000000  0 10G 9G23G28G19G 3G17G22G 2G 6G12
  23999723.422   126119407.501                  
  24243188.617   127398825.387                  
  23039060.539   121071045.525                  
  20347298.211   106925771.456                  
  22823795.875   119939853.625                  
  20744066.180   109010824.675                  
  25211990.984   132489900.1441                 
  23765402.234   124888045.137                  
  20561103.531   108049344.415                  
  23134805.125   121574235.611                  
 18  9  7  3 18 30.0000000  0 10G 9G23G28G19G 3G17G22G 2G 6G12
  23984636.336   126040122.409                  
  24234687.242   127354150.755                  
  23058319.125   121172249.362                  
  20342887.539   106902594.731                  
  22840005.414   120025038.819                  
  20747048.672   109026497.234                  
  25230869.625   132589121.5791                 
  23752749.797   124821553.797                  
  20557081.039   108028204.744                  
  23119861.242   121495702.132                  
 18  9  7  3 19  0.0000000  0 10G 9G23G28G19G 3G17G22G 2G 6G12
  23969578.398   125960995.721                  
  24226250.211   127309814.029                  
  23077613.875   121273643.163                  
  20338547.844   106879787.910                  
  22856279.875   120110562.389                  
  20750096.820   109042516.220                  
  25249773.430   132688456.7051                 
  23740120.234   124755187.466                  
  20553114.211   108007359.317                  
  23104998.398   121417596.878                  
 18  9  7  3 19 30.0000000  0 10G 9G23G28G19G 3G17G22G 2G 6G12
  23954552.219   125882030.727                  
  24217877.664   127265817.548                  
  23096944.758   121375224.824                  
  20334277.953   106857352.322                  
  22872618.914   120196421.832                  
  20753211.344   109058882.304                  
  25268697.766   132787903.5901                 
  23727515.148   124688946.047                  
  20549203.516   107986807.851                  
  23090216.438   121339922.545                  
 18  9  7  3 20  0.0000000  0 10G 9G23G28G19G 3G17G22G 2G 6G12
  23939557.516   125803230.903                  
  24209570.531   127222163.798                  
  23116310.461   121476992.293                  
  20330079.875   106835289.668                  
  22889020.992   120282614.942                  
  20756392.242   109075596.937                  
  25287643.148   132887460.9211                 
  23714934.086   124622830.515                  
  20545348.469   107966550.320                  
  23075518.672   121262682.209                  
 18  9  7  3 20 30.0000000  0 10G 9G23G28G19G 3G17G22G 2G 6G12
  23924593.117   125724595.460                  
  24201329.125   127178851.297                  
  23135710.297   121578939.013                  
  20325952.039   106813597.256                  
  22905485.250   120369135.148                  
  20759638.625   109092656.927                  
  25306607.359   132987121.1401                 
  23702375.648   124556835.855                  
  20541548.836   107946582.350                  
  23060902.695   121185874.510                  
 18  9  7  3 21  0.0000000  0 10G 9G23G28G19G 3G17G22G 2G 6G12
  23909662.414   125646132.154                  
  24193152.180   127135886.848                  
  23155144.578   121681066.823                  
  20321895.492   106792280.967                  
  22922011.648   120455984.460                  
  20762951.648   109110067.648                  
  25325593.063   133086888.2911                 
  23689840.297   124490967.137                  
  20537804.508   107926908.219                  
  23046369.969   121109506.922                  
 18  9  7  3 21 30.0000000  0 10G 9G23G28G19G 3G17G22G 2G 6G12
  23894763.828   125567842.009                  
  24185042.523   127093270.471                  
  23174612.258   121783371.219                  
  20317910.586   106771340.302                  
  22938600.828   120543158.180                  
  20766331.328   109127828.243                  
  25344594.953   133186758.1241                 
  23677330.469   124425221.950                  
  20534116.445   107907525.317                  
  23031921.656   121033579.390                  
 18  9  7  3 22  0.0000000  0 10G 9G23G28G19G 3G17G22G 2G 6G12
  23879900.586   125489727.882                  
  24176999.648   127051004.130                  
  23194113.211   121885849.539                  
  20313997.328   106750776.319                  
  22955250.656   120630653.321                  
  20769777.836   109145938.908                  
  25363621.422   133286726.6671                 
  23664842.375   124359600.242                  
  20530483.359   107888433.038                  
  23017557.727   120958094.687                  
 18  9  7  3 22 30.0000000  0 10G 9G23G28G19G 3G17G22G 2G 6G12
  23865069.313   125411793.188                  
  24169024.406   127009090.307                  
  23213647.164   121988499.263                  
  20310156.453   106730590.176                  
  22971960.664   120718467.697                  
  20773290.977   109164400.618                  
  25382662.961   133386793.7801                 
  23652378.820   124294102.382                  
  20526905.266   107869631.202                  
  23003278.055   120883055.445                  
 18  9  7  3 23  0.0000000  0 10G 9G23G28G19G 3G17G22G 2G 6G12
  23850273.219   125334042.272                  
  24161115.477   126967532.334                  
  23233213.625   122091319.214                  
  20306387.641   106710784.760                  
  22988731.898   120806599.707                  
  20776871.273   109183215.832                  
  25401723.563   133486958.0301                 
  23639938.555   124228728.998                  
  20523382.914   107851120.560                  
  22989084.414   120808465.535                  
 18  9  7  3 23 30.0000000  0 10G 9G23G28G19G 3G17G22G 2G 6G12
  23835513.523   125256478.018                  
  24153275.586   126926332.332                  
  23252810.836   122194306.182                  
  20302691.531   106691361.567                  
  23005562.297   120895046.621                  
  20780519.102   109202384.806                  
  25420802.922   133587217.0541                 
  23627522.203   124163480.307                  
  20519915.773   107832900.513                  
  22974976.258   120734327.747                  
 18  9  7  3 24  0.0000000  0 10G 9G23G28G19G 3G17G22G 2G 6G12
  23820788.547   125179100.743                  
  24145502.930   126885489.392                  
  23272439.875   122297455.293                  
  20299067.719   106672318.494                  
  23022452.141   120983802.967                  
  20784233.805   109221905.499                  
  25439898.578   133687566.4961                 
  23615128.930   124098352.882                  
  20516503.219   107814967.848                  
  22960953.750   120660641.300                  
 18  9  7  3 24 30.0000000  0 10G 9G23G28G19G 3G17G22G 2G 6G12
  23806101.500   125101914.960                  
  24137799.766   126845007.057                  
  23292099.492   122400765.400                  
  20295516.852   106653658.337                  
  23039401.031   121072867.550                  
  20788015.797   109241780.155                  
  25459011.023   133788004.6851                 
  23602758.406   124033348.380                  
  20513145.391   107797323.516                  
  22947018.945   120587410.388                  
 18  9  7  3 25  0.0000000  0 10G 9G23G28G19G 3G17G22G 2G 6G12
  23791450.375   125024925.432                  
  24130165.648   126804889.495                  
  23311789.055   122504235.564                  
  20292038.758   106635384.238                  
  23056407.938   121162239.279                  
  20791865.422   109262011.333                  
  25478141.164   133888531.8071                 
  23590412.664   123968468.693                  
  20509843.063   107779968.761                  
  22933170.797   120514639.252                  
 18  9  7  3 25 30.0000000  0 10G 9G23G28G19G 3G17G22G 2G 6G12
  23776836.883   124948133.329                  
  24122601.734   126765136.550                  
  23331508.414   122607861.298                  
  20288634.914   106617495.251                  
  23073472.766   121251913.615                  
  20795783.180   109282597.816                  
  25497285.680   133989143.820                  
  23578089.789   123903710.863                  
  20506595.297   107762901.020                  
  22919410.227   120442328.267                  
 18  9  7  3 26  0.0000000  0 10G 9G23G28G19G 3G17G22G 2G 6G12
  23762262.844   124871544.155                  
  24115106.219   126725752.962                  
  23351256.578   122711642.198                  
  20285305.000   106599995.320                  
  23090594.180   121341890.396                  
  20799769.023   109303542.842                  
  25516448.703   134089841.242                  
  23565790.398   123839077.805                  
  20503402.367   107746122.398                  
  22905738.555   120370482.351                  
 18  9  7  3 26 30.0000000  0 10G 9G23G28G19G 3G17G22G 2G 6G12
  23747727.422   124795159.145                  
  24107682.617   126686738.611                  
  23371034.563   122815573.474                  
  20282048.828   106582883.639                  
  23107773.203   121432164.975                  
  20803822.297   109324844.893                  
  25535625.258   134190619.238                  
  23553514.344   123774567.437                  
  20500263.922   107729630.557                  
  22892154.742   120299101.986                  
 18  9  7  3 27  0.0000000  0 10G 9G23G28G19G 3G17G22G 2G 6G12
  23733231.203   124718981.679                  
  24100328.852   126648095.903                  
  23390840.867   122919653.013                  
  20278866.688   106566161.370                  
  23125008.250   121522735.094                  
  20807944.297   109346504.973                  
  25554818.367   134291476.338                  
  23541262.234   123710179.910                  
  20497180.359   107713425.338                  
  22878661.078   120228189.827                  
 18  9  7  3 27 30.0000000  0 10G 9G23G28G19G 3G17G22G 2G 6G12
  23718775.055   124643015.468                  
  24093046.516   126609827.578                  
  23410675.328   123023878.859                  
  20275759.266   106549830.722                  
  23142298.570   121613598.614                  
  20812134.422   109368524.555                  
  25574025.141   134392411.580                  
  23529033.008   123645915.902                  
  20494150.875   107697506.808                  
  22865256.781   120157749.249                  
 18  9  7  3 28  0.0000000  0 10G 9G23G28G19G 3G17G22G 2G 6G12
  23704360.570   124567262.762                  
  24085835.445   126571935.042                  
  23430534.695   123128247.740                  
  20272726.016   106533892.241                  
  23159644.469   121704752.082                  
  20816392.898   109390903.417                  
  25593247.391   134493421.821                  
  23516828.102   123581774.157                  
  20491176.109   107681873.738                  
  22851942.383   120087781.813                  
 18  9  7  3 28 30.0000000  0  9G 9G23G28G19G 3G17G 2G 6G12
  23689985.789   124491726.678                  
  24078697.648   126534419.948                  
  23450422.078   123232757.121                  
  20269767.820   106518347.529                  
  23177045.039   121796192.866                  
  20820719.836   109413642.461                  
  23504644.430   123517754.596                  
  20488255.719   107666525.725                  
  22838718.305   120018289.909                  
 18  9  7  3 29  0.0000000  0  9G 9G23G28G19G 3G17G 2G 6G12
  23675653.195   124416409.345                  
  24071630.031   126497283.406                  
  23470335.836   123337403.125                  
  20266885.789   106503196.447                  
  23194500.656   121887917.399                  
  20825115.703   109436741.315                  
  23492485.391   123453855.924                  
  20485388.617   107651461.280                  
  22825585.219   119949275.021                  
 18  9  7  3 29 30.0000000  0  9G 9G23G28G19G 3G17G 2G 6G12
  23661364.320   124341318.170                  
  24064636.688   126460532.121                  
  23490275.563   123442187.736                  
  20264078.109   106488444.324                  
  23212008.953   121979927.310                  
  20829580.906   109460205.316                  
  23480349.086   123390083.029                  
  20482576.711   107636684.343                  
  22812544.563   119880744.011                  
 18  9  7  3 30  0.0000000  0  9G 9G23G28G19G 3G17G 2G 6G12
  23647117.016   124266449.556                  
  24057715.469   126424160.908                  
  23510240.547   123547101.685                  
  20261345.320   106474086.017                  
  23229570.078   122072213.221                  
  20834114.109   109484028.658                  
  23468236.609   123326428.792                  
  20479818.523   107622187.643                  
  22799594.414   119812692.585                  
 18  9  7  3 30 30.0000000  0  9G 9G23G28G19G 3G17G 2G 6G12
  23632913.930   124191811.100                  
  24050868.031   126388176.741                  
  23530229.945   123652146.770                  
  20258688.945   106460127.263                  
  23247184.508   122164777.095                  
  20838716.969   109508215.740                  
  23456146.883   123262897.666                  
  20477113.852   107607975.409                  
  22786737.555   119745127.548                  
 18  9  7  3 31  0.0000000  0  9G 9G23G28G19G 3G17G 2G 6G12
  23618754.766   124117401.885                  
  24044094.211   126352577.228                  
  23550242.984   123757316.374                  
  20256108.063   106446565.159                  
  23264851.031   122257612.320                  
  20843388.414   109532763.364                  
  23444079.750   123199485.513                  
  20474462.531   107594043.118                  
  22773972.367   119678046.989                  
 18  9  7  3 31 30.0000000  0  9G 9G23G28G19G 3G17G 2G 6G12
  23604639.875   124043229.006                  
  24037393.633   126317368.357                  
  23570280.664   123862611.791                  
  20253603.781   106433404.928                  
  23282568.367   122350720.240                  
  20848128.930   109557676.323                  
  23432036.570   123136196.314                  
  20471865.422   107580394.332                  
  22761300.969   119611457.583                  
 18  9  7  3 32  0.0000000  0  9G 9G23G28G19G 3G17G 2G 6G12
  23590570.086   123969295.896                  
  24030768.125   126282552.531                  
  23590340.016   123968030.794                  
  20251176.227   106420648.048                  
  23300337.938   122444098.500                  
  20852939.719   109582955.849                  
  23420016.133   123073029.963                  
  20469322.047   107567028.882                  
  22748722.992   119545361.864                  
 18  9  7  3 32 30.0000000  0  9G 9G23G28G19G 3G17G 2G 6G12
  23576547.594   123895603.018                  
  24024218.047   126248128.987                  
  23610423.719   124073567.613                  
  20248825.383   106408292.730                  
  23318157.805   122537741.897                  
  20857819.383   109608599.408                  
  23408018.172   123009983.767                  
  20466832.039   107553943.714                  
  22736239.711   119479759.388                  
 18  9  7  3 33  0.0000000  0  9G 9G23G28G19G 3G17G 2G 6G12
  23562570.352   123822153.959                  
  24017742.781   126214100.438                  
  23630529.273   124179221.363                  
  20246550.938   106396341.444                  
  23336028.461   122631648.303                  
  20862768.844   109634608.739                  
  23396044.195   122947058.477                  
  20464395.156   107541138.965                  
  22723850.461   119414653.447                  
 18  9  7  3 33 30.0000000  0  9G 9G23G28G19G 3G17G 2G 6G12
  23548641.117   123748954.770                  
  24011342.484   126180471.400                  
  23650657.125   124284991.643                  
  20244354.164   106384798.045                  
  23353947.359   122725818.005                  
  20867788.477   109660987.157                  
  23384093.531   122884256.709                  
  20462012.570   107528617.047                  
  22711556.180   119350049.183                  
 18  9  7  3 34  0.0000000  0  9G 9G23G28G19G 3G17G 2G 6G12
  23534758.961   123676004.527                  
  24005019.719   126147239.772                  
  23670804.227   124390871.967                  
  20242234.719   106373659.560                  
  23371916.031   122820244.521                  
  20872877.625   109687731.751                  
  23372165.984   122821574.361                  
  20459682.414   107516373.560                  
  22699358.156   119285944.782                  
 18  9  7  3 34 30.0000000  0  9G 9G23G28G19G 3G17G 2G 6G12
  23520925.344   123603308.030                  
  23998771.570   126114409.157                  
  23690973.773   124496861.407                  
  20240192.734   106362929.138                  
  23389933.703   122914926.873                  
  20878037.031   109714844.189                  
  23360260.367   122759012.934                  
  20457406.086   107504409.800                  
  22687254.898   119222344.376                  
 18  9  7  3 35  0.0000000  0  9G 9G23G28G19G 3G17G 2G 6G12
  23507140.867   123530869.146                  
  23992600.867   126081982.141                  
  23711163.570   124602958.213                  
  20238229.008   106352608.547                  
  23407999.313   123009863.150                  
  20883266.547   109742325.755                  
  23348378.461   122696573.235                  
  20455182.414   107492726.029                  
  22675249.070   119159250.710                  
 18  9  7  3 35 30.0000000  0  9G 9G23G28G19G 3G17G 2G 6G12
  23493404.969   123458687.873                  
  23986506.180   126049957.758                  
  23731372.344   124709156.757                  
  20236342.289   106342696.065                  
  23426112.781   123105047.875                  
  20888566.070   109770174.623                  
  23336519.328   122634252.260                  
  20453011.711   107481318.888                  
  22663338.719   119096662.989                  
 18  9  7  3 36  0.0000000  0  9G 9G23G28G19G 3G17G 2G 6G12
  23479720.094   123386769.706                  
  23980490.125   126018339.982                  
  23751601.125   124815456.639                  
  20234534.602   106333195.133                  
  23444272.383   123200480.646                  
  20893935.805   109798393.177                  
  23324682.516   122572052.264                  
  20450894.086   107470190.184                  
  22651525.953   119034586.118                  
 18  9  7  3 36 30.0000000  0  9G 9G23G28G19G 3G17G 2G 6G12
  23466083.953   123315114.962                  
  23974551.250   125987128.165                  
  23771847.891   124921852.759                  
  20232805.063   106324104.217                  
  23462479.344   123296156.273                  
  20899375.641   109826979.569                  
  23312869.109   122509970.053                  
  20448828.789   107459336.782                  
  22639810.055   118973019.609                  
 18  9  7  3 37  0.0000000  0  9G 9G23G28G19G 3G17G 2G 6G12
  23452499.445   123243729.769                  
  23968689.445   125956327.041                  
  23792112.711   125028345.856                  
  20231153.367   106315427.602                  
  23480732.555   123392075.185                  
  20904886.375   109855937.532                  
  23301078.492   122448008.784                  
  20446816.086   107448761.411                  
  22628192.797   118911969.078                  
 18  9  7  3 37 30.0000000  0  9G 9G23G28G19G 3G17G 2G 6G12
  23438967.148   123172617.579                  
  23962907.320   125925938.731                  
  23812395.406   125134933.329                  
  20229581.938   106307166.688                  
  23499030.922   123488235.238                  
  20910467.430   109885267.931                  
  23289311.023   122386168.930                  
  20444857.055   107438463.941                  
  22616674.000   118851436.632                  
 18  9  7  3 38  0.0000000  0  9G 9G23G28G19G 3G17G 2G 6G12
  23425487.305   123101779.541                  
  23957202.977   125895963.358                  
  23832695.453   125241610.578                  
  20228088.539   106299320.744                  
  23517374.570   123584631.811                  
  20916119.727   109914969.610                  
  23277566.188   122324448.007                  
  20442949.648   107428442.018                  
  22605253.398   118791422.285                  
 18  9  7  3 38 30.0000000  0  9G 9G23G28G19G 3G17G 2G 6G12
  23412060.438   123031219.160                  
  23951577.867   125866402.895                  
  23853012.336   125348375.513                  
  20226674.875   106291891.395                  
  23535762.570   123681262.906                  
  20921842.594   109945043.173                  
  23265843.648   122262846.723                  
  20441094.953   107418695.721                  
  22593932.656   118731929.116                  
 18  9  7  3 39  0.0000000  0  9G 9G23G28G19G 3G17G 2G 6G12
  23398687.141   122960938.661                  
  23946031.180   125837258.477                  
  23873345.023   125455224.858                  
  20225340.336   106284878.865                  
  23554195.063   123778124.996                  
  20927636.086   109975488.523                  
  23254142.883   122201364.372                  
  20439292.672   107409223.680                  
  22582710.648   118672958.373                  
 18  9  7  3 39 30.0000000  0  9G 9G23G28G19G 3G17G 2G 6G12
  23385366.906   122890942.744                  
  23940565.508   125808533.280                  
  23893694.406   125562157.824                  
  20224086.039   106278286.037                  
  23572671.914   123875217.302                  
  20933501.297   110006308.020                  
  23242466.680   122140002.343                  
  20437542.484   107400027.226                  
  22571589.023   118614513.731                  
 18  9  7  3 40  0.0000000  0  9G 9G23G28G19G 3G17G 2G 6G12
  23372101.039   122821232.484                  
  23935178.734   125780226.985                  
  23914057.742   125669169.630                  
  20222910.852   106272112.026                  
  23591190.586   123972535.163                  
  20939436.617   110037499.926                  
  23230812.234   122078758.240                  
  20435844.469   107391103.914                  
  22560567.117   118556595.371                  
 18  9  7  3 40 30.0000000  0  9G 9G23G28G19G 3G17G 2G 6G12
  23358891.281   122751811.901                  
  23929872.375   125752342.457                  
  23934436.242   125776258.575                  
  20221816.234   106266358.914                  
  23609751.234   124070077.094                  
  20945443.250   110069065.954                  
  23219180.414   122017633.253                  
  20434198.461   107382454.345                  
  22549646.672   118499206.745                  
 18  9  7  3 41  0.0000000  0  9G 9G23G28G19G 3G17G 2G 6G12
  23345735.875   122682683.454                  
  23924645.945   125724880.753                  
  23954828.734   125883421.667                  
  20220801.727   106261027.175                  
  23628355.594   124167839.915                  
  20951521.531   110101006.195                  
  23207571.250   121956626.547                  
  20432604.461   107374077.473                  
  22538826.664   118442348.834                  
 18  9  7  3 41 30.0000000  0  9G 9G23G28G19G 3G17G 2G 6G12
  23332638.008   122613850.379                  
  23919500.906   125697843.903                  
  23975234.586   125990656.430                  
  20219867.398   106256118.075                  
  23647000.602   124265821.185                  
  20957670.578   110133320.883                  
  23195984.992   121895738.273                  
  20431062.039   107365973.094                  
  22528108.688   118386024.030                  
 18  9  7  3 42  0.0000000  0  9G 9G23G28G19G 3G17G 2G 6G12
  23319595.625   122545316.621                  
  23914437.625   125671234.229                  
  23995654.430   126097961.404                  
  20219014.070   106251633.678                  
  23665687.305   124364019.418                  
  20963891.484   110166011.486                  
  23184420.648   121834969.507                  
  20429571.695   107358141.667                  
  22517492.391   118330235.456                  
 18  9  7  3 42 30.0000000  0  9G 9G23G28G19G 3G17G 2G 6G12
  23306612.141   122477083.634                  
  23909455.656   125645051.523                  
  24016085.031   126205332.183                  
  20218241.188   106247573.497                  
  23684413.781   124462430.397                  
  20970184.086   110199077.096                  
  23172879.008   121774318.092                  
  20428133.281   107350581.197                  
  22506977.836   118274983.324                  
 18  9  7  3 43  0.0000000  0  9G 9G23G28G19G 3G17G 2G 6G12
  23293685.344   122409156.302                  
  23904554.836   125619300.200                  
  24036529.641   126312768.177                  
  20217550.164   106243940.631                  
  23703181.594   124561053.722                  
  20976547.867   110232520.005                  
  23161360.109   121713786.306                  
  20426746.305   107343293.315                  
  22496566.969   118220271.928                  
 18  9  7  3 43 30.0000000  0  9G 9G23G28G19G 3G17G 2G 6G12
  23280817.563   122341534.913                  
  23899736.539   125593978.795                  
  24056986.852   126420264.129                  
  20216939.664   106240733.226                  
  23721987.898   124659883.705                  
  20982983.070   110266337.873                  
  23149864.367   121653370.910                  
  20425410.859   107336274.620                  
  22486258.430   118166100.429                  
 18  9  7  3 44  0.0000000  0  9G 9G23G28G19G 3G17G 2G 6G12
  23268009.547   122274225.772                  
  23895000.281   125569092.076                  
  24077454.203   126527820.547                  
  20216411.484   106237955.788                  
  23740834.844   124758921.485                  
  20989490.438   110300534.530                  
  23138390.742   121593075.533                  
  20424127.133   107329528.234                  
  22476053.945   118112474.270                  
 18  9  7  3 44 30.0000000  0  9G 9G23G28G19G 3G17G 2G 6G12
  23255259.766   122207228.296                  
  23890347.547   125544637.966                  
  24097931.367   126635431.700                  
  20215964.102   106235605.681                  
  23759719.016   124858160.828                  
  20996069.516   110335107.155                  
  23126938.039   121532896.344                  
  20422894.336   107323050.053                  
  22465952.625   118059391.506                  
 18  9  7  3 45  0.0000000  0  9G 9G23G28G19G 3G17G 2G 6G12
  23242570.930   122140546.832                  
  23885777.023   125520619.699                  
  24118419.016   126743096.045                  
  20215598.367   106233685.107                  
  23778642.555   124957600.536                  
  21002720.594   110370057.119                  
  23115508.820   121472834.496                  
  20421712.828   107316841.014                  
  22455955.523   118006855.386                  
 18  9  7  3 45 30.0000000  0  9G 9G23G28G19G 3G17G 2G 6G12
  23229942.484   122074185.225                  
  23881289.148   125497039.624                  
  24138916.891   126850812.133                  
  20215315.367   106232196.427                  
  23797602.820   125057239.023                  
  21009442.992   110405385.759                  
  23104101.438   121412890.915                  
  20420582.602   107310901.612                  
  22446062.414   117954869.121                  
 18  9  7  3 46  0.0000000  0  9G 9G23G28G19G 3G17G 2G 6G12
  23217375.969   122008145.376                  
  23876885.805   125473897.810                  
  24159423.984   126958576.193                  
  20215114.086   106231139.290                  
  23816599.797   125157072.704                  
  21016237.844   110441092.387                  
  23092717.148   121353064.176                  
  20419503.305   107305230.354                  
  22436274.648   117903433.128                  
 18  9  7  3 46 30.0000000  0  9G 9G23G28G19G 3G17G 2G 6G12
  23204870.805   121942430.714                  
  23872565.727   125451196.409                  
  24179938.742   127066386.051                  
  20214995.414   106230515.000                  
  23835634.734   125257099.490                  
  21023104.672   110477177.926                  
  23081354.797   121293354.898                  
  20418475.227   107299827.217                  
  22426592.016   117852549.943                  
 18  9  7  3 47  0.0000000  0  9G 9G23G28G19G 3G17G 2G 6G12
  23192427.898   121877045.752                  
  23868330.313   125428938.413                  
  24200463.680   127174240.639                  
  20214959.570   106230326.524                  
  23854706.250   125357318.492                  
  21030044.000   110513644.546                  
  23070014.867   121233764.386                  
  20417498.102   107294693.456                  
  22417015.008   117802223.222                  
 18  9  7  3 47 30.0000000  0  9G 9G23G28G19G 3G17G 2G 6G12
  23180048.508   121811989.600                  
  23864178.258   125407121.886                  
  24220995.875   127282133.791                  
  20215006.141   106230570.608                  
  23873812.578   125457723.290                  
  21037055.406   110550488.296                  
  23058696.742   121174289.025                  
  20416571.680   107289824.714                  
  22407543.273   117752450.710                  
 18  9  7  3 48  0.0000000  0  9G 9G23G28G19G 3G17G 2G 6G12
  23167732.180   121747266.747                  
  23860111.641   125385749.485                  
  24241534.297   127390064.491                  
  20215135.320   106231250.071                  
  23892954.008   125558313.081                  
  21044138.688   110587711.313                  
  23047401.445   121114929.893                  
  20415695.930   107285222.238                  
  22398178.203   117703235.823                  
 18  9  7  3 48 30.0000000  0  9G 9G23G28G19G 3G17G 2G 6G12
  23155479.047   121682880.525                  
  23856128.750   125364823.190                  
  24262079.969   127498030.590                  
  20215347.586   106232366.245                  
  23912131.000   125659085.677                  
  21051294.258   110625314.253                  
  23036127.594   121055687.501                  
  20414870.586   107280885.966                  
  22388919.492   117654580.908                  
 18  9  7  3 49  0.0000000  0  9G 9G23G28G19G 3G17G 2G 6G12
  23143291.766   121618832.492                  
  23852232.023   125344342.730                  
  24282630.898   127606027.810                  
  20215642.891   106233918.673                  
  23931341.570   125760037.221                  
  21058521.898   110663296.181                  
  23024876.398   120996560.529                  
  20414095.938   107276814.070                  
  22379767.672   117606485.959                  
 18  9  7  3 49 30.0000000  0  9G 9G23G28G19G 3G17G 2G 6G12
  23131168.898   121555128.137                  
  23848420.711   125324312.462                  
  24303187.805   127714056.595                  
  20216022.430   106235910.867                  
  23950585.945   125861167.839                  
  21065822.289   110701659.961                  
  23013647.719   120937551.232                  
  20413371.414   107273008.835                  
  22370722.383   117558955.687                  
 18  9  7  3 50  0.0000000  0 10G 9G23G28G19G 5G 3G17G 2G 6G12
  23119112.500   121491768.384                  
  23844694.516   125304731.875                  
  24323750.664   127822112.136                  
  20216485.164   106238341.488                  
  25127909.594   132048064.6291                 
  23969863.953   125962473.149                  
  21073194.992   110740404.188                  
  23002440.344   120878657.526                  
  20412697.898   107269467.786                  
  22361785.422   117511989.940                  
 18  9  7  3 50 30.0000000  0 10G 9G23G28G19G 5G 3G17G 2G 6G12
  23107121.414   121428756.798                  
  23841053.961   125285602.716                  
  24344317.742   127930192.659                  
  20217030.820   106241212.496                  
  25106053.961   131933213.404                  
  23989174.813   126063951.317                  
  21080640.672   110779530.015                  
  22991255.570   120819879.832                  
  20412074.227   107266191.224                  
  22352955.563   117465590.916                  
 18  9  7  3 51  0.0000000  0 10G 9G23G28G19G 5G 3G17G 2G 6G12
  23095197.523   121366096.039                  
  23837500.367   125266926.129                  
  24364888.383   128038295.357                  
  20217661.289   106244524.568                  
  25084209.672   131818414.691                  
  24008516.766   126165599.632                  
  21088158.375   110819036.578                  
  22980092.828   120761218.125                  
  20411500.969   107263178.581                  
  22344234.383   117419760.246                  
 18  9  7  3 51 30.0000000  0 10G 9G23G28G19G 5G 3G17G 2G 6G12
  23083341.508   121303789.469                  
  23834032.195   125248703.941                  
  24385463.719   128146418.096                  
  20218375.945   106248279.136                  
  25062374.242   131703670.642                  
  24027891.820   126267416.093                  
  21095748.609   110858925.040                  
  22968951.766   120702672.867                  
  20410977.992   107260429.804                  
  22335621.813   117374500.188                  
 18  9  7  3 52  0.0000000  0 10G 9G23G28G19G 5G 3G17G 2G 6G12
  23071552.438   121241838.546                  
  23830651.680   125230936.134                  
  24406042.969   128254557.305                  
  20219174.367   106252475.431                  
  25040550.406   131588982.235                  
  24047298.656   126369396.871                  
  21103411.914   110899194.470                  
  22957832.453   120644242.722                  
  20410504.977   107257943.138                  
  22327117.344   117329810.578                  
 18  9  7  3 52 30.0000000  0 10G 9G23G28G19G 5G 3G17G 2G 6G12
  23059832.242   121180248.283                  
  23827357.070   125213626.421                  
  24426623.273   128362712.261                  
  20220057.508   106257116.570                  
  25018737.211   131474353.995                  
  24066736.586   126471541.666                  
  21111147.914   110939847.423                  
  22946735.633   120585929.501                  
  20410081.688   107255720.363                  
  22318723.000   117285695.565                  
 18  9  7  3 53  0.0000000  0 10G 9G23G28G19G 5G 3G17G 2G 6G12
  23048180.047   121119017.859                  
  23824149.844   125196772.061                  
  24447207.406   128470876.423                  
  20221025.117   106262199.853                  
  24996933.781   131359784.307                  
  24086203.211   126573844.387                  
  21118955.977   110980880.070                  
  22935660.438   120527728.942                  
  20409708.367   107253757.348                  
  22310437.031   117242153.042                  
 18  9  7  3 53 30.0000000  0 10G 9G23G28G19G 5G 3G17G 2G 6G12
  23036597.500   121058151.766                  
  23821030.242   125180376.074                  
  24467791.953   128579049.484                  
  20222076.852   106267727.603                  
  24975144.469   131245277.8291                 
  24105701.602   126676304.287                  
  21126837.086   111022294.310                  
  22924607.180   120469643.247                  
  20409384.406   107252055.443                  
  22302260.906   117199186.096                  
 18  9  7  3 54  0.0000000  0 10G 9G23G28G19G 5G 3G17G 2G 6G12
  23025084.797   120997653.691                  
  23817997.469   125164440.533                  
  24488377.523   128687229.710                  
  20223213.977   106273701.881                  
  24953365.469   131130835.2401                 
  24125228.578   126778919.712                  
  21134790.875   111064091.380                  
  22913575.727   120411673.002                  
  20409110.211   107250615.030                  
  22294194.078   117156797.237                  
 18  9  7  3 54 30.0000000  0 10G 9G23G28G19G 5G 3G17G 2G 6G12
  23013643.492   120937525.654                  
  23815052.625   125148965.914                  
  24508964.211   128795413.562                  
  20224435.609   106280122.373                  
  24931600.133   131016458.8681                 
  24144784.031   126881687.469                  
  21142817.273   111106270.603                  
  22902566.430   120353817.457                  
  20408885.648   107249434.961                  
  22286237.852   117114986.872                  
 18  9  7  3 55  0.0000000  0 10G 9G23G28G19G 5G 3G17G 2G 6G12
  23002271.875   120877771.413                  
  23812195.594   125133954.309                  
  24529552.523   128903599.536                  
  20225742.766   106286991.156                  
  24909849.461   130902151.7671                 
  24164368.242   126984606.1751                 
  21150916.406   111148833.543                  
  22891578.602   120296077.463                  
  20408710.680   107248515.786                  
  22278392.563   117073758.125                  
 18  9  7  3 55 30.0000000  0 10G 9G23G28G19G 5G 3G17G 2G 6G12
  22990972.594   120818392.587                  
  23809427.820   125119405.646                  
  24550138.117   129011784.037                  
  20227135.109   106294307.677                  
  24888110.188   130787915.1971                 
  24183982.320   127087672.0461                 
  21159088.703   111191778.471                  
  22880612.852   120238451.497                  
  20408585.305   107247855.917                  
  22270657.922   117033111.148                  
 18  9  7  3 56  0.0000000  0 10G 9G23G28G19G 5G 3G17G 2G 6G12
  22979746.016   120759394.177                  
  23806747.813   125105323.427                  
  24570725.617   129119966.773                  
  20228613.047   106302075.258                  
  24866385.453   130673752.6051                 
  24203623.828   127190885.170                  
  21167334.156   111235108.288                  
  22869669.109   120180941.781                  
  20408509.281   107247457.184                  
  22263033.742   116993049.493                  
 18  9  7  3 56 30.0000000  0 10G 9G23G28G19G 5G 3G17G 2G 6G12
  22968591.250   120700774.248                  
  23804156.406   125091704.002                  
  24591310.711   129228140.326                  
  20230175.906   106310289.338                  
  24844674.633   130559662.3241                 
  24223289.984   127294238.2711                 
  21175651.969   111278818.354                  
  22858746.875   120123543.826                  
  20408482.320   107247314.500                  
  22255521.766   116953570.010                  
 18  9  7  3 57  0.0000000  0 10G 9G23G28G19G 5G 3G17G 2G 6G12
  22957509.125   120642540.766                  
  23801653.664   125078553.996                  
  24611894.758   129336307.336                  
  20231825.602   106318956.247                  
  24822979.273   130445651.059                  
  24242984.391   127397734.1891                 
  21184043.383   111322913.957                  
  22847846.039   120066262.610                  
  20408504.555   107247432.696                  
  22248121.195   116914679.336                  
 18  9  7  3 57 30.0000000  0 10G 9G23G28G19G 5G 3G17G 2G 6G12
  22946501.281   120584692.525                  
  23799240.289   125065870.214                  
  24632475.813   129444461.733                  
  20233560.344   106328072.798                  
  24801298.078   130331716.975                  
  24262705.234   127501366.597                  
  21192506.836   111367391.191                  
  22836967.523   120009093.904                  
  20408576.094   107247807.414                  
  22240831.359   116876374.950                  
 18  9  7  3 58  0.0000000  0 10G 9G23G28G19G 5G 3G17G 2G 6G12
  22935566.789   120527234.324                  
  23796916.234   125053655.874                  
  24653053.781   129552602.662                  
  20235381.133   106337642.025                  
  24779633.836   130217864.280                  
  24282452.070   127605135.198                  
  21201043.891   111412252.496                  
  22826110.594   119952039.799                  
  20408696.398   107248440.369                  
  22233654.945   116838660.217                  
 18  9  7  3 58 30.0000000  0 10G 9G23G28G19G 5G 3G17G 2G 6G12
  22924707.523   120470168.069                  
  23794680.516   125041911.424                  
  24673629.633   129660726.993                  
  20237288.148   106347663.764                  
  24757983.813   130104094.040                  
  24302224.813   127709036.822                  
  21209653.500   111457496.944                  
  22815275.328   119895099.491                  
  20408865.773   107249330.284                  
  22226590.313   116801535.484                  
 18  9  7  3 59  0.0000000  0 10G 9G23G28G19G 5G 3G17G 2G 6G12
  22913923.367   120413496.181                  
  23792535.078   125030637.471                  
  24694201.242   129768831.971                  
  20239281.641   106358138.191                  
  24736349.617   129990407.970                  
  24322020.453   127813068.6721                 
  21218336.297   111503124.339                  
  22804461.109   119838272.741                  
  20409084.109   107250476.517                  
  22219637.922   116765002.081                  
 18  9  7  3 59 30.0000000  0  9G 9G23G19G 5G 3G17G 2G 6G12
  22903215.148   120357221.975                  
  23790479.961   125019835.639                  
  20241361.031   106369066.789                  
  24714732.398   129876808.911                  
  24341841.289   127917229.1661                 
  21227091.727   111549135.474                  
  22793669.063   119781559.719                  
  20409350.719   107251879.361                  
  22212799.016   116729061.950                  
 18  9  7  4  0  0.0000000  0  9G 9G23G19G 5G 3G17G 2G 6G12
  22892582.281   120301347.724                  
  23788514.430   125009506.502                  
  20243527.359   106380449.831                  
  24693132.656   129763298.378                  
  24361686.156   128021515.439                  
  21235920.320   111595529.768                  
  22782898.266   119724960.025                  
  20409666.633   107253537.922                  
  22206073.266   116693715.864                  
 18  9  7  4  0 30.0000000  0  9G 9G23G19G 5G 3G17G 2G 6G12
  22882026.414   120245876.500                  
  23786639.344   124999651.555                  
  20245779.695   106392288.409                  
  24671549.047   129649879.158                  
  24381555.109   128125925.624                  
  21244821.984   111642307.929                  
  22772149.641   119668474.161                  
  20410030.656   107255452.268                  
  22199460.266   116658965.589                  
 18  9  7  4  1  0.0000000  0  9G 9G23G19G 5G 3G17G 2G 6G12
  22871547.633   120190810.216                  
  23784853.563   124990271.032                  
  20248119.711   106404582.460                  
  24649983.234   129536552.320                  
  24401447.352   128230457.0081                 
  21253796.570   111689469.107                  
  22761422.078   119612101.240                  
  20410443.820   107257621.286                  
  22192960.914   116624811.320                  
 18  9  7  4  1 30.0000000  0  9G 9G23G19G 5G 3G17G 2G 6G12
  22861146.727   120136150.558                  
  23783159.453   124981364.803                  
  20250545.570   106417331.663                  
  24628435.227   129423318.638                  
  24421360.422   128335104.958                  
  21262843.891   111737012.824                  
  22750716.633   119555840.146                  
  20410904.383   107260043.636                  
  22186575.383   116591253.738                  
 18  9  7  4  2  0.0000000  0  9G 9G23G19G 5G 3G17G 2G 6G12
  22850823.648   120081902.833                  
  23781555.828   124972936.435                  
  20253058.945   106430539.636                  
  24606906.273   129310183.073                  
  24441297.438   128439871.135                  
  21271963.953   111784941.243                  
  22740031.945   119499693.874                  
  20411413.906   107262721.593                  
  22180303.602   116558296.499                  
 18  9  7  4  2 30.0000000  0  9G 9G23G19G 5G 3G17G 2G 6G12
  22840578.250   120028066.134                  
  23780041.945   124964983.800                  
  20255659.094   106444202.989                  
  24585396.352   129197144.097                  
  24461254.555   128544749.373                  
  21281157.117   111833250.790                  
  22729368.500   119443658.324                  
  20411971.461   107265651.291                  
  22174146.000   116525937.263                  
 18  9  7  4  3  0.0000000  0 10G 9G23G25G19G 5G 3G17G 2G 6G12
  22830412.711   119974646.238                  
  23778620.227   124957510.200                  
  25242246.359   132648898.3111                 
  20258346.672   106458325.660                  
  24563904.180   129084206.822                  
  24481234.352   128649740.419                  
  21290423.109   111881944.710                  
  22718727.125   119387736.722                  
  20412577.445   107268835.505                  
  22168102.461   116494180.193                  
 18  9  7  4  3 30.0000000  0 10G 9G23G25G19G 5G 3G17G 2G 6G12
  22820327.492   119921643.660                  
  23777288.969   124950514.691                  
  25226197.063   132564557.393                  
  20261121.180   106472906.496                  
  24542432.219   128971371.561                  
  24501233.430   128754839.850                  
  21299762.297   111931021.065                  
  22708106.336   119331927.050                  
  20413231.352   107272271.853                  
  22162173.977   116463024.524                  
 18  9  7  4  4  0.0000000  0 10G 9G23G25G19G 5G 3G17G 2G 6G12
  22810321.055   119869063.310                  
  23776049.320   124944000.323                  
  25210214.570   132480574.822                  
  20263983.266   106487948.063                  
  24520980.039   128858642.080                  
  24521253.289   128860047.7671                 
  21309174.266   111980481.935                  
  22697509.195   119276231.436                  
  20413933.758   107275962.188                  
  22156360.555   116432473.606                  
 18  9  7  4  4 30.0000000  0 10G 9G23G25G19G 5G 3G17G 2G 6G12
  22800396.180   119816904.832                  
  23774901.266   124937965.235                  
  25194301.570   132396950.179                  
  20266932.938   106503448.405                  
  24499549.063   128746017.817                  
  24541294.977   128965358.966                  
  21318659.211   112030324.410                  
  22686931.305   119220647.007                  
  20414683.453   107279903.253                  
  22150661.234   116402525.096                  
 18  9  7  4  5  0.0000000  0 10G 9G23G25G19G 5G 3G17G 2G 6G12
  22790551.578   119765172.578                  
  23773843.938   124932412.281                  
  25178457.969   132313688.053                  
  20269970.188   106519409.767                  
  24478138.523   128633502.552                  
  24561354.906   129070772.9621                 
  21328216.836   112080550.371                  
  22676375.258   119165175.579                  
  20415481.664   107284096.538                  
  22145077.539   116373182.666                  
 18  9  7  4  5 30.0000000  0 10G 9G23G25G19G 5G 3G17G 2G 6G12
  22780788.789   119713869.446                  
  23772879.406   124927342.362                  
  25162682.859   132230791.387                  
  20273095.891   106535832.991                  
  24456748.938   128521099.125                  
  24581433.102   129176287.748                  
  21337847.539   112131159.937                  
  22665840.906   119109817.228                  
  20416327.539   107288542.054                  
  22139609.586   116344447.373                  
 18  9  7  4  6  0.0000000  0 10G 9G23G25G19G 5G 3G17G 2G 6G12
  22771107.500   119662995.881                  
  23772006.258   124922753.990                  
  25146977.281   132148260.671                  
  20276308.164   106552716.204                  
  24435379.523   128408806.809                  
  24601530.617   129281899.2221                 
  21347550.766   112182151.083                  
  22655327.664   119054569.974                  
  20417221.039   107293237.289                  
  22134256.461   116316318.220                  
 18  9  7  4  6 30.0000000  0 10G 9G23G25G19G 5G 3G17G 2G 6G12
  22761509.094   119612555.765                  
  23771225.070   124918649.430                  
  25131342.664   132066099.926                  
  20279609.117   106570061.750                  
  24414032.836   128296629.132                  
  24621646.086   129387606.2301                 
  21357327.055   112233525.065                  
  22644835.492   118999435.137                  
  20418162.242   107298183.491                  
  22129019.531   116288797.389                  
 18  9  7  4  7  0.0000000  0 10G 9G23G25G19G 5G 3G17G 2G 6G12
  22751993.984   119562551.456                  
  23770536.219   124915029.417                  
  25115779.445   131984311.381                  
  20282997.766   106587869.895                  
  24392709.813   128184568.032                  
  24641778.492   129493406.9231                 
  21367176.336   112285281.678                  
  22634364.844   118944412.696                  
  20419150.984   107303379.825                  
  22123898.234   116261885.537                  
 18  9  7  4  7 30.0000000  0 10G 9G23G25G19G 5G 3G17G 2G 6G12
  22742561.203   119512984.575                  
  23769939.422   124911893.511                  
  25100286.172   131902897.026                  
  20286474.781   106606140.187                  
  24371406.750   128072625.125                  
  24661929.672   129599296.848                  
  21377097.664   112337419.895                  
  22623915.602   118889501.363                  
  20420187.156   107308825.264                  
  22118893.086   116235583.041                  
 18  9  7  4  8  0.0000000  0 10G 9G23G25G19G 5G 3G17G 2G 6G12
  22733213.336   119463858.598                  
  23769434.602   124909243.810                  
  25084864.555   131821860.272                  
  20290040.070   106624874.561                  
  24350127.836   127960803.220                  
  24682096.492   129705276.102                  
  21387091.930   112389940.391                  
  22613488.305   118834702.383                  
  20421271.305   107314520.440                  
  22114004.406   116209891.529                  
 18  9  7  4  8 30.0000000  0 10G 9G23G25G19G 5G 3G17G 2G 6G12
  22723949.359   119415175.806                  
  23769023.680   124907080.415                  
  25069517.172   131741203.615                  
  20293693.133   106644073.054                  
  24328871.461   127849103.765                  
  24702280.570   129811341.959                  
  21397159.125   112442843.129                  
  22603081.961   118780015.552                  
  20422402.273   107320464.874                  
  22109231.547   116184811.811                  
 18  9  7  4  9  0.0000000  0 10G 9G23G25G19G 5G 3G17G 2G 6G12
  22714769.555   119366938.057                  
  23768704.586   124905403.519                  
  25054241.539   131660929.055                  
  20297434.469   106663735.232                  
  24307639.930   127737528.219                  
  24722479.461   129917491.4541                 
  21407298.477   112496127.223                  
  22592696.391   118725440.067                  
  20423580.867   107326657.672                  
  22104575.523   116160344.073                  
 18  9  7  4  9 30.0000000  0 10G 9G23G25G19G 5G 3G17G 2G 6G12
  22705675.063   119319146.618                  
  23768477.773   124904212.672                  
  25039039.109   131581037.913                  
  20301264.406   106683860.717                  
  24286431.930   127626077.656                  
  24742695.406   130023721.407                  
  21417510.609   112549791.429                  
  22582331.648   118670974.836                  
  20424806.086   107333097.336                  
  22100036.008   116136488.059                  
 18  9  7  4 10  0.0000000  0 10G 9G23G25G19G 5G 3G17G 2G 6G12
  22696665.992   119271805.541                  
  23768344.508   124903510.237                  
  25023909.844   131501534.382                  
  20305182.898   106704451.619                  
  24265248.172   127514755.797                  
  24762924.289   130130031.091                  
  21427795.125   112603837.177                  
  22571989.000   118616621.427                  
  20426078.898   107339785.132                  
  22095613.258   116113246.134                  
 18  9  7  4 10 30.0000000  0 10G 9G23G25G19G 5G 3G17G 2G 6G12
  22687744.289   119224916.805                  
  23768303.484   124903296.133                  
  25008854.938   131422420.650                  
  20309189.750   106725508.080                  
  24244088.828   127403564.275                  
  24783169.555   130236418.014                  
  21438152.094   112658263.784                  
  22561666.867   118562379.653                  
  20427398.508   107346720.384                  
  22091306.805   116090618.844                  
 18  9  7  4 11  0.0000000  0 10G 9G23G25G19G 5G 3G17G 2G 6G12
  22678907.805   119178483.196                  
  23768356.070   124903571.409                  
  24993873.984   131343699.715                  
  20313285.273   106747030.720                  
  24222955.727   127292505.567                  
  24803428.391   130342880.434                  
  21448581.766   112713071.550                  
  22551366.336   118508249.765                  
  20428765.148   107353903.186                  
  22087118.313   116068607.214                  
 18  9  7  4 11 30.0000000  0 10G 9G23G25G19G 5G 3G17G 2G 6G12
  22670158.742   119132507.528                  
  23768501.383   124904337.272                  
  24978969.297   131265374.267                  
  20317469.594   106769020.285                  
  24201847.352   127181581.308                  
  24823702.523   130449416.373                  
  21459083.719   112768260.431                  
  22541087.352   118454232.099                  
  20430179.289   107361333.494                  
  22083047.539   116047212.272                  
 18  9  7  4 12  0.0000000  0 10G 9G23G25G19G 5G 3G17G 2G 6G12
  22661497.039   119086989.432                  
  23768740.383   124905591.467                  
  24964140.148   131187444.465                  
  20321742.539   106791474.769                  
  24180764.313   127070791.499                  
  24843988.453   130556021.383                  
  21469658.055   112823827.727                  
  22530828.500   118400324.089                  
  20431639.945   107369008.539                  
  22079093.406   116026432.405                  
 18  9  7  4 12 30.0000000  0 10G 9G23G25G19G 5G 3G17G 2G 6G12
  22652922.758   119041933.539                  
  23769072.758   124907336.837                  
  24949387.055   131109914.927                  
  20326104.922   106814396.634                  
  24159708.078   126960140.556                  
  24864287.844   130662695.318                  
  21480304.859   112879775.585                  
  22520591.508   118346527.846                  
  20433147.383   107376930.162                  
  22075256.406   116006270.014                  
 18  9  7  4 13  0.0000000  0 10G 9G23G25G19G 5G 3G17G 2G 6G12
  22644438.023   118997342.374                  
  23769498.461   124909573.910                  
  24934709.906   131032788.307                  
  20330555.992   106837786.793                  
  24138678.680   126849630.425                  
  24884599.773   130769436.248                  
  21491023.773   112936103.975                  
  22510375.188   118292843.479                  
  20434701.680   107385098.268                  
  22071537.281   115986726.081                  
 18  9  7  4 13 30.0000000  0 10G 9G23G25G19G 5G 3G17G 2G 6G12
  22636040.586   118953217.242                  
  23770017.031   124912302.245                  
  24920109.383   130956066.228                  
  20335095.578   106861644.052                  
  24117676.141   126739262.460                  
  24904924.555   130876241.182                  
  21501814.797   112992811.562                  
  22500180.477   118239270.124                  
  20436302.625   107393511.595                  
  22067935.742   115967800.271                  
 18  9  7  4 14  0.0000000  0 10G 9G23G25G19G 5G 3G17G 2G 6G12
  22627733.477   118909559.875                  
  23770629.641   124915521.723                  
  24905588.125   130879750.563                  
  20339724.500   106885968.563                  
  24096701.391   126629037.685                  
  24925260.156   130983107.394                  
  21512677.734   113049897.657                  
  22490007.227   118185807.503                  
  20437950.188   107402169.267                  
  22064452.242   115949492.783                  
 18  9  7  4 14 30.0000000  0 10G 9G23G25G19G 5G 3G17G 2G 6G12
  22619514.406   118866372.010                  
  23771336.180   124919232.403                  
  24891142.563   130803843.282                  
  20344441.859   106910760.205                  
  24075753.461   126518957.378                  
  24945607.742   131090032.122                  
  21523612.898   113107360.761                  
  22479854.570   118132454.686                  
  20439644.078   107411070.466                  
  22061086.242   115931803.583                  
 18  9  7  4 15  0.0000000  0 10G 9G23G25G19G 5G 3G17G 2G 6G12
  22611386.172   118823656.762                  
  23772135.813   124923435.544                  
  24876776.453   130728347.648                  
  20349248.758   106936019.958                  
  24054833.758   126409024.652                  
  24965965.594   131197014.182                  
  21534619.477   113165201.889                  
  22469723.328   118079212.707                  
  20441384.438   107420215.802                  
  22057837.938   115914734.051                  
 18  9  7  4 15 30.0000000  0 10G 9G23G25G19G 5G 3G17G 2G 6G12
  22603348.422   118781417.118                  
  23773029.617   124928131.952                  
  24862488.430   130653266.888                  
  20354144.906   106961749.056                  
  24033943.086   126299242.441                  
  24986333.891   131304052.378                  
  21545698.406   113223421.616                  
  22459613.086   118026082.362                  
  20443171.328   107429605.662                  
  22054707.695   115898285.287                  
 18  9  7  4 16  0.0000000  0 10G 9G23G25G19G 5G 3G17G 2G 6G12
  22595401.586   118739655.679                  
  23774017.688   124933322.617                  
  24848281.086   130578603.746                  
  20359130.484   106987947.889                  
  24013081.352   126189612.905                  
  25006712.984   131411144.857                  
  21556849.102   113282020.068                  
  22449523.508   117973064.207                  
  20445004.438   107439240.169                  
  22051696.492   115882458.113                  
 18  9  7  4 16 30.0000000  0 10G 9G23G25G19G 5G 3G17G 2G 6G12
  22587545.680   118698372.360                  
  23775098.688   124939005.578                  
  24834152.305   130504358.463                  
  20364205.039   107014614.632                  
  23992249.313   126080135.671                  
  25027099.922   131518287.237                  
  21568071.602   113340994.349                  
  22439455.586   117920155.524                  
  20446883.914   107449116.751                  
  22048802.367   115867250.977                  
 18  9  7  4 17  0.0000000  0 10G 9G23G25G19G 5G 3G17G 2G 6G12
  22579781.430   118657570.352                  
  23776274.039   124945182.370                  
  24820105.008   130430534.390                  
  20369368.742   107041750.615                  
  23971445.148   125970813.807                  
  25047499.320   131625478.540                  
  21579365.977   113400345.249                  
  22429407.914   117867357.749                  
  20448809.547   107459236.216                  
  22046026.547   115852665.100                  
 18  9  7  4 17 30.0000000  0 10G 9G23G25G19G 5G 3G17G 2G 6G12
  22572108.516   118617251.950                  
  23777543.883   124951853.416                  
  24806137.320   130357134.133                  
  20374621.992   107069356.207                  
  23950671.813   125861649.670                  
  25067905.469   131732717.3851                 
  21590731.586   113460072.813                  
  22419382.633   117814670.993                  
  20450781.484   107469598.296                  
  22043369.359   115838701.074                  
 18  9  7  4 18  0.0000000  0 10G 9G23G25G19G 5G 3G17G 2G 6G12
  22564529.367   118577419.700                  
  23778906.445   124959019.311                  
  24792250.203   130284160.461                  
  20379964.383   107097431.816                  
  23929928.711   125752645.360                  
  25088321.617   131840000.6401                 
  21602169.258   113520176.465                  
  22409377.695   117762095.578                  
  20452799.578   107480203.223                  
  22040830.344   115825359.584                  
 18  9  7  4 18 30.0000000  0 10G 9G23G25G19G 5G 3G17G 2G 6G12
  22557041.742   118538075.165                  
  23780364.539   124966679.777                  
  24778446.531   130211615.090                  
  20385396.523   107125977.376                  
  23909217.602   125643802.340                  
  25108744.992   131947327.4701                 
  21613677.836   113580655.396                  
  22399393.250   117709630.802                  
  20454863.922   107491050.112                  
  22038409.789   115812640.368                  
 18  9  7  4 19  0.0000000  0 10G 9G23G25G19G 5G 3G17G 2G 6G12
  22549647.992   118499220.747                  
  23781916.938   124974835.211                  
  24764723.039   130139500.909                  
  20390917.727   107154992.975                  
  23888536.016   125535122.988                  
  25129176.516   132054694.8781                 
  21625257.805   113641509.587                  
  22389431.258   117657277.230                  
  20456973.531   107502138.989                  
  22036108.406   115800544.303                  
 18  9  7  4 19 30.0000000  0 10G 9G23G25G19G 5G 3G17G 2G 6G12
  22542347.758   118460856.501                  
  23783562.797   124983483.972                  
  24751081.547   130067818.079                  
  20396528.602   107184477.092                  
  23867886.008   125426606.621                  
  25149615.172   132162098.718                  
  21636908.938   113702736.548                  
  22379489.250   117605032.935                  
  20459129.602   107513467.568                  
  22033924.727   115789069.467                  
